{"data":[{"area_id":1636,"type":0,"shape":0,"lat":-5.597126,"lng":12.188666,"radius":1497,"level":2,"updated_at":1447945800,"begin_at":0,"end_at":0,"name":"Cabinda Airport","city":"Cabinda","country":"AO","runway_length":0,"runway_show":0,"points":"","url":"","address":"","is_web":0},{"area_id":8704,"type":0,"shape":0,"lat":-6.141225,"lng":12.371446,"radius":1163,"level":2,"updated_at":1447945800,"begin_at":0,"end_at":0,"name":"Soyo Airport","city":"Soyo","country":"AO","runway_length":0,"runway_show":0,"points":"","url":"","address":"","is_web":0},{"area_id":8557,"type":0,"shape":0,"lat":-6.268748,"lng":14.246498,"radius":1149,"level":2,"updated_at":1447945800,"begin_at":0,"end_at":0,"name":"Mbanza Congo Airport","city":"Mbanza Congo","country":"AO","runway_length":0,"runway_show":0,"points":"","url":"","address":"","is_web":0},{"area_id":1175,"type":0,"shape":0,"lat":-7.259444,"lng":12.863056,"radius":1171,"level":2,"updated_at":1447945800,"begin_at":0,"end_at":0,"name":"N'zeto Airport","city":"N'zeto","country":"AO","runway_length":0,"runway_show":0,"points":"","url":"","address":"","is_web":0},{"area_id":740,"type":0,"shape":0,"lat":-7.402188,"lng":20.817429,"radius":1540,"level":2,"updated_at":1447945800,"begin_at":0,"end_at":0,"name":"Dundo Airport","city":"Chitato","country":"AO","runway_length":0,"runway_show":0,"points":"","url":"","address":"","is_web":0},{"area_id":6894,"type":0,"shape":0,"lat":-7.602778,"lng":15.02775,"radius":1316,"level":2,"updated_at":1447945800,"begin_at":0,"end_at":0,"name":"Uige Airport","city":"Uige","country":"AO","runway_length":0,"runway_show":0,"points":"","url":"","address":"","is_web":0},{"area_id":2547,"type":0,"shape":0,"lat":-7.754444,"lng":15.2875,"radius":1325,"level":2,"updated_at":1447945800,"begin_at":0,"end_at":0,"name":"Negage Airport","city":"Negage","country":"AO","runway_length":0,"runway_show":0,"points":"","url":"","address":"","is_web":0},{"area_id":1326,"type":0,"shape":0,"lat":-7.862222,"lng":13.116111,"radius":1292,"level":2,"updated_at":1447945800,"begin_at":0,"end_at":0,"name":"Ambriz Airport","city":"Ambriz","country":"AO","runway_length":0,"runway_show":0,"points":"","url":"","address":"","is_web":0},{"area_id":3701,"type":0,"shape":0,"lat":-8.442474,"lng":20.732416,"radius":1404,"level":2,"updated_at":1447945800,"begin_at":0,"end_at":0,"name":"Lucapa Airport","city":"Lucapa","country":"AO","runway_length":0,"runway_show":0,"points":"","url":"","address":"","is_web":0},{"area_id":1766,"type":0,"shape":0,"lat":-8.783341,"lng":17.990452,"radius":1346,"level":2,"updated_at":1447945800,"begin_at":0,"end_at":0,"name":"Cafunfo Airport","city":"Cafunfo","country":"AO","runway_length":0,"runway_show":0,"points":"","url":"","address":"","is_web":0},{"area_id":3654,"type":0,"shape":0,"lat":-8.850156,"lng":13.236151,"radius":1818,"level":2,"updated_at":1447945800,"begin_at":0,"end_at":0,"name":"Quatro de Fevereiro Airport","city":"Luanda","country":"AO","runway_length":0,"runway_show":0,"points":"","url":"","address":"","is_web":0},{"area_id":4110,"type":0,"shape":0,"lat":-9.116006,"lng":18.049404,"radius":812,"level":2,"updated_at":1447945800,"begin_at":0,"end_at":0,"name":"Luzamba Airport","city":"Luzamba","country":"AO","runway_length":0,"runway_show":0,"points":"","url":"","address":"","is_web":0},{"area_id":6310,"type":0,"shape":0,"lat":-9.524894,"lng":16.312378,"radius":1291,"level":2,"updated_at":1447945800,"begin_at":0,"end_at":0,"name":"Malanje Airport","city":"Malanje","country":"AO","runway_length":0,"runway_show":0,"points":"","url":"","address":"","is_web":0},{"area_id":7110,"type":0,"shape":0,"lat":-9.689118,"lng":20.431336,"radius":2162,"level":2,"updated_at":1447945800,"begin_at":0,"end_at":0,"name":"Saurimo Airport","city":"Saurimo","country":"AO","runway_length":0,"runway_show":0,"points":"","url":"","address":"","is_web":0},{"area_id":5010,"type":0,"shape":0,"lat":-9.770769,"lng":15.456793,"radius":1060,"level":2,"updated_at":1447945800,"begin_at":0,"end_at":0,"name":"Capanda Airport","city":"Capanda","country":"AO","runway_length":0,"runway_show":0,"points":"","url":"","address":"","is_web":0},{"area_id":6851,"type":0,"shape":0,"lat":-10.715496,"lng":22.230768,"radius":780,"level":2,"updated_at":1447945800,"begin_at":0,"end_at":0,"name":"Luau Airport","city":"Luau","country":"AO","runway_length":0,"runway_show":0,"points":"","url":"","address":"","is_web":0},{"area_id":5743,"type":0,"shape":0,"lat":-10.721821,"lng":13.765191,"radius":574,"level":2,"updated_at":1447945800,"begin_at":0,"end_at":0,"name":"Porto Amboim Airport","city":"Port Amboim","country":"AO","runway_length":0,"runway_show":0,"points":"","url":"","address":"","is_web":0},{"area_id":4174,"type":0,"shape":0,"lat":-11.168132,"lng":13.848214,"radius":587,"level":2,"updated_at":1447945800,"begin_at":0,"end_at":0,"name":"Sumbe Airport","city":"Sumbe","country":"AO","runway_length":0,"runway_show":0,"points":"","url":"","address":"","is_web":0},{"area_id":1749,"type":0,"shape":0,"lat":-11.426389,"lng":15.101389,"radius":1083,"level":2,"updated_at":1447945800,"begin_at":0,"end_at":0,"name":"Waco Kungo Airport","city":"Waco Kungo","country":"AO","runway_length":0,"runway_show":0,"points":"","url":"","address":"","is_web":0},{"area_id":1083,"type":0,"shape":0,"lat":-11.471389,"lng":16.710833,"radius":1616,"level":2,"updated_at":1447945800,"begin_at":0,"end_at":0,"name":"Andulo Airport","city":"Andulo","country":"AO","runway_length":0,"runway_show":0,"points":"","url":"","address":"","is_web":0},{"area_id":4044,"type":0,"shape":0,"lat":-11.768129,"lng":19.896668,"radius":1400,"level":2,"updated_at":1447945800,"begin_at":0,"end_at":0,"name":"Luena Airport","city":"Luena","country":"AO","runway_length":0,"runway_show":0,"points":"","url":"","address":"","is_web":0},{"area_id":8617,"type":0,"shape":0,"lat":-12.404269,"lng":16.948593,"radius":1648,"level":2,"updated_at":1447945800,"begin_at":0,"end_at":0,"name":"Kuito Airport","city":"Kuito","country":"AO","runway_length":0,"runway_show":0,"points":"","url":"","address":"","is_web":0},{"area_id":1679,"type":0,"shape":0,"lat":-12.479167,"lng":13.491743,"radius":2506,"level":2,"updated_at":1447945800,"begin_at":0,"end_at":0,"name":"Catumbela Airport","city":"Catumbela","country":"AO","runway_length":0,"runway_show":0,"points":"","url":"","address":"","is_web":0},{"area_id":3525,"type":0,"shape":0,"lat":-12.608466,"lng":13.403822,"radius":1041,"level":2,"updated_at":1447945800,"begin_at":0,"end_at":0,"name":"Benguela Airport","city":"Benguela","country":"AO","runway_length":0,"runway_show":0,"points":"","url":"","address":"","is_web":0},{"area_id":4323,"type":0,"shape":0,"lat":-12.808788,"lng":15.759237,"radius":1413,"level":2,"updated_at":1447945800,"begin_at":0,"end_at":0,"name":"Nova Lisboa Airport","city":"Huambo","country":"AO","runway_length":0,"runway_show":0,"points":"","url":"","address":"","is_web":0},{"area_id":1954,"type":0,"shape":0,"lat":-13.709477,"lng":19.860519,"radius":1390,"level":2,"updated_at":1447945800,"begin_at":0,"end_at":0,"name":"Cangamba Airport","city":"Cangamba","country":"AO","runway_length":0,"runway_show":0,"points":"","url":"","address":"","is_web":0},{"area_id":2297,"type":0,"shape":0,"lat":-14.105204,"lng":21.448787,"radius":1341,"level":2,"updated_at":1447945800,"begin_at":0,"end_at":0,"name":"Lumbala Airport","city":"Lumbala","country":"AO","runway_length":0,"runway_show":0,"points":"","url":"","address":"","is_web":0},{"area_id":8481,"type":0,"shape":0,"lat":-14.659516,"lng":17.718695,"radius":1930,"level":2,"updated_at":1447945800,"begin_at":0,"end_at":0,"name":"Menongue Airport","city":"Menongue","country":"AO","runway_length":0,"runway_show":0,"points":"","url":"","address":"","is_web":0},{"area_id":8180,"type":0,"shape":0,"lat":-14.925968,"lng":13.576016,"radius":2150,"level":2,"updated_at":1447945800,"begin_at":0,"end_at":0,"name":"Lubango Airport","city":"Lubango","country":"AO","runway_length":0,"runway_show":0,"points":"","url":"","address":"","is_web":0},{"area_id":2064,"type":0,"shape":0,"lat":-15.160536,"lng":19.157474,"radius":1446,"level":2,"updated_at":1447945800,"begin_at":0,"end_at":0,"name":"Cuito Cuanavale Airport","city":"Cuito Cuanavale","country":"AO","runway_length":0,"runway_show":0,"points":"","url":"","address":"","is_web":0},{"area_id":6669,"type":0,"shape":0,"lat":-15.262676,"lng":12.147045,"radius":1777,"level":2,"updated_at":1447945800,"begin_at":0,"end_at":0,"name":"Namibe Airport","city":"Namibe","country":"AO","runway_length":0,"runway_show":0,"points":"","url":"","address":"","is_web":0},{"area_id":7766,"type":0,"shape":0,"lat":-16.756323,"lng":14.965255,"radius":1238,"level":2,"updated_at":1447945800,"begin_at":0,"end_at":0,"name":"Xangongo Airport","city":"Xangongo","country":"AO","runway_length":0,"runway_show":0,"points":"","url":"","address":"","is_web":0},{"area_id":5835,"type":0,"shape":0,"lat":-17.32048,"lng":13.923672,"radius":688,"level":2,"updated_at":1447945800,"begin_at":0,"end_at":0,"name":"Chitato Airport","city":"Chitato","country":"AO","runway_length":0,"runway_show":0,"points":"","url":"","address":"","is_web":0}],"status":"200"}