{"data":[{"area_id":8837,"type":0,"shape":0,"lat":41.561658,"lng":46.666281,"radius":1151,"level":2,"updated_at":1447945800,"begin_at":0,"end_at":0,"name":"Zaqatala International Airport","city":"Zaqatala","country":"AZ","runway_length":0,"runway_show":0,"points":"","url":"","address":"","is_web":0},{"area_id":9718,"type":0,"shape":0,"lat":40.809857,"lng":49.428169,"radius":1546,"level":2,"updated_at":1447945800,"begin_at":0,"end_at":0,"name":"Sital Chay","city":"NULL","country":"AZ","runway_length":0,"runway_show":0,"points":"","url":"","address":"","is_web":0},{"area_id":2215,"type":0,"shape":0,"lat":40.809064,"lng":47.724001,"radius":2761,"level":2,"updated_at":1447945800,"begin_at":0,"end_at":0,"name":"Gabala International Airport","city":"Gabala","country":"AZ","runway_length":0,"runway_show":0,"points":"","url":"","address":"","is_web":0},{"area_id":5173,"type":0,"shape":0,"lat":40.736496,"lng":46.322847,"radius":2192,"level":2,"updated_at":1447945800,"begin_at":0,"end_at":0,"name":"Ganja Airport","city":"Ganja","country":"AZ","runway_length":0,"runway_show":0,"points":"","url":"","address":"","is_web":0},{"area_id":31850,"type":1,"shape":0,"lat":40.706111,"lng":46.361944,"radius":500,"level":2,"updated_at":1447945800,"begin_at":0,"end_at":0,"name":"Ganja City Stadium","city":"Ganja, Azerbaijan","country":"AZ","runway_length":0,"runway_show":0,"points":"","url":"","address":"","is_web":0},{"area_id":8848,"type":0,"shape":0,"lat":40.494643,"lng":49.97504,"radius":877,"level":2,"updated_at":1447945800,"begin_at":0,"end_at":0,"name":"Zabrat Airport","city":"Baku","country":"AZ","runway_length":0,"runway_show":0,"points":"","url":"","address":"","is_web":0},{"area_id":2553,"type":0,"shape":0,"lat":40.475154,"lng":50.046696,"radius":3200,"level":2,"updated_at":1447945800,"begin_at":0,"end_at":0,"name":"Heydar Aliyev International Airport","city":"Baku","country":"AZ","runway_length":0,"runway_show":0,"points":"","url":"","address":"","is_web":0},{"area_id":10148,"type":0,"shape":0,"lat":40.406389,"lng":50.2,"radius":1919,"level":2,"updated_at":1447945800,"begin_at":0,"end_at":0,"name":"Baku Kala Air Base","city":"NULL","country":"AZ","runway_length":0,"runway_show":0,"points":"","url":"","address":"","is_web":0},{"area_id":31769,"type":1,"shape":0,"lat":40.397339,"lng":49.852433,"radius":500,"level":2,"updated_at":1447945800,"begin_at":0,"end_at":0,"name":"Tofiq Bahramov Stadium","city":"Baku","country":"AZ","runway_length":0,"runway_show":0,"points":"","url":"","address":"","is_web":0},{"area_id":10147,"type":0,"shape":0,"lat":40.273405,"lng":48.164148,"radius":1492,"level":2,"updated_at":1447945800,"begin_at":0,"end_at":0,"name":"Kyurdamir Air Base","city":"NULL","country":"AZ","runway_length":0,"runway_show":0,"points":"","url":"","address":"","is_web":0},{"area_id":4125,"type":0,"shape":0,"lat":39.189613,"lng":45.457935,"radius":1981,"level":2,"updated_at":1447945800,"begin_at":0,"end_at":0,"name":"Nakhchivan Airport","city":"Nakhchivan","country":"AZ","runway_length":0,"runway_show":0,"points":"","url":"","address":"","is_web":0},{"area_id":3871,"type":0,"shape":0,"lat":38.755808,"lng":48.807178,"radius":2089,"level":2,"updated_at":1447945800,"begin_at":0,"end_at":0,"name":"Lankaran International Airport","city":"Lankaran","country":"AZ","runway_length":0,"runway_show":0,"points":"","url":"","address":"","is_web":0}],"status":"200"}