{"data":[{"area_id":7458,"type":0,"shape":0,"lat":26.016203,"lng":88.40236,"radius":1020,"level":2,"updated_at":1447945800,"begin_at":0,"end_at":0,"name":"Thakurgaon Airport","city":"Thakurgaon","country":"BD","runway_length":0,"runway_show":0,"points":"","url":"","address":"","is_web":0},{"area_id":3870,"type":0,"shape":0,"lat":25.887672,"lng":89.428614,"radius":976,"level":2,"updated_at":1447945800,"begin_at":0,"end_at":0,"name":"Lalmonirhat Airport","city":"Lalmonirhat","country":"BD","runway_length":0,"runway_show":0,"points":"","url":"","address":"","is_web":0},{"area_id":8472,"type":0,"shape":0,"lat":25.758374,"lng":88.908903,"radius":1223,"level":2,"updated_at":1447945800,"begin_at":0,"end_at":0,"name":"Saidpur Airport","city":"Saidpur","country":"BD","runway_length":0,"runway_show":0,"points":"","url":"","address":"","is_web":0},{"area_id":8850,"type":0,"shape":0,"lat":24.961111,"lng":91.871389,"radius":1819,"level":2,"updated_at":1447945800,"begin_at":0,"end_at":0,"name":"Osmany International Airport","city":"Sylhet","country":"BD","runway_length":0,"runway_show":0,"points":"","url":"","address":"","is_web":0},{"area_id":5378,"type":0,"shape":0,"lat":24.439222,"lng":88.617776,"radius":1239,"level":2,"updated_at":1447945800,"begin_at":0,"end_at":0,"name":"Shah Mokhdum Airport","city":"Rajshahi","country":"BD","runway_length":0,"runway_show":0,"points":"","url":"","address":"","is_web":0},{"area_id":8773,"type":0,"shape":0,"lat":24.39866,"lng":91.916592,"radius":1505,"level":2,"updated_at":1447945800,"begin_at":0,"end_at":0,"name":"Shamshernagar Airport","city":"Shamshernagar","country":"BD","runway_length":0,"runway_show":0,"points":"","url":"","address":"","is_web":0},{"area_id":2939,"type":0,"shape":0,"lat":24.154593,"lng":89.047496,"radius":1281,"level":2,"updated_at":1447945800,"begin_at":0,"end_at":0,"name":"Ishurdi Airport","city":"Ishurdi","country":"BD","runway_length":0,"runway_show":0,"points":"","url":"","address":"","is_web":0},{"area_id":481,"type":0,"shape":0,"lat":23.845516,"lng":90.399748,"radius":1895,"level":2,"updated_at":1447945800,"begin_at":0,"end_at":0,"name":"Dhaka / Hazrat Shahjalal International Airport","city":"Dhaka","country":"BD","runway_length":0,"runway_show":0,"points":"","url":"","address":"","is_web":0},{"area_id":1881,"type":0,"shape":0,"lat":23.441359,"lng":91.187565,"radius":1038,"level":2,"updated_at":1447945800,"begin_at":0,"end_at":0,"name":"Comilla Airport","city":"Comilla","country":"BD","runway_length":0,"runway_show":0,"points":"","url":"","address":"","is_web":0},{"area_id":2731,"type":0,"shape":0,"lat":23.183979,"lng":89.1605,"radius":1574,"level":2,"updated_at":1447945800,"begin_at":0,"end_at":0,"name":"Jessore Airport","city":"Jashahor","country":"BD","runway_length":0,"runway_show":0,"points":"","url":"","address":"","is_web":0},{"area_id":3639,"type":0,"shape":0,"lat":22.800146,"lng":90.301199,"radius":1104,"level":2,"updated_at":1447945800,"begin_at":0,"end_at":0,"name":"Barisal Airport","city":"Barisal","country":"BD","runway_length":0,"runway_show":0,"points":"","url":"","address":"","is_web":0},{"area_id":1792,"type":0,"shape":0,"lat":22.253053,"lng":91.815673,"radius":2037,"level":2,"updated_at":1447945800,"begin_at":0,"end_at":0,"name":"Shah Amanat International Airport","city":"Chittagong","country":"BD","runway_length":0,"runway_show":0,"points":"","url":"","address":"","is_web":0},{"area_id":2136,"type":0,"shape":0,"lat":21.452598,"lng":91.964121,"radius":1389,"level":2,"updated_at":1447945800,"begin_at":0,"end_at":0,"name":"Cox's Bazar Airport","city":"Cox's Bazar","country":"BD","runway_length":0,"runway_show":0,"points":"","url":"","address":"","is_web":0}],"status":"200"}