{"data":[{"area_id":9074,"type":0,"shape":0,"lat":82.517331,"lng":-62.284533,"radius":921,"level":2,"updated_at":1447945800,"begin_at":0,"end_at":0,"name":"Alert Airport","city":"Alert","country":"CA","runway_length":0,"runway_show":0,"points":"","url":"","address":"","is_web":0},{"area_id":9001,"type":0,"shape":0,"lat":76.426111,"lng":-82.909444,"radius":336,"level":2,"updated_at":1447945800,"begin_at":0,"end_at":0,"name":"Grise Fiord Airport","city":"Grise Fiord","country":"CA","runway_length":0,"runway_show":0,"points":"","url":"","address":"","is_web":0},{"area_id":9183,"type":0,"shape":0,"lat":74.716084,"lng":-94.955196,"radius":1601,"level":2,"updated_at":1447945800,"begin_at":0,"end_at":0,"name":"Resolute Bay Airport","city":"Resolute Bay","country":"CA","runway_length":0,"runway_show":0,"points":"","url":"","address":"","is_web":0},{"area_id":8855,"type":0,"shape":0,"lat":73.006141,"lng":-85.031131,"radius":292,"level":2,"updated_at":1447945800,"begin_at":0,"end_at":0,"name":"Arctic Bay Airport","city":"Arctic Bay","country":"CA","runway_length":0,"runway_show":0,"points":"","url":"","address":"","is_web":0},{"area_id":9216,"type":0,"shape":0,"lat":72.980787,"lng":-84.614546,"radius":1084,"level":2,"updated_at":1447945800,"begin_at":0,"end_at":0,"name":"Nanisivik Airport","city":"Nanisivik","country":"CA","runway_length":0,"runway_show":0,"points":"","url":"","address":"","is_web":0},{"area_id":9027,"type":0,"shape":0,"lat":72.68971,"lng":-77.970008,"radius":699,"level":2,"updated_at":1447945800,"begin_at":0,"end_at":0,"name":"Pond Inlet Airport","city":"Pond Inlet","country":"CA","runway_length":0,"runway_show":0,"points":"","url":"","address":"","is_web":0},{"area_id":8927,"type":0,"shape":0,"lat":70.48604,"lng":-68.516229,"radius":615,"level":2,"updated_at":1447945800,"begin_at":0,"end_at":0,"name":"Clyde River Airport","city":"Clyde River","country":"CA","runway_length":0,"runway_show":0,"points":"","url":"","address":"","is_web":0},{"area_id":9309,"type":0,"shape":0,"lat":69.546693,"lng":-93.57671,"radius":749,"level":2,"updated_at":1447945800,"begin_at":0,"end_at":0,"name":"Taloyoak Airport","city":"Taloyoak","country":"CA","runway_length":0,"runway_show":0,"points":"","url":"","address":"","is_web":0},{"area_id":9246,"type":0,"shape":0,"lat":69.433095,"lng":-133.025154,"radius":838,"level":2,"updated_at":1447945800,"begin_at":0,"end_at":0,"name":"Tuktoyaktuk Airport","city":"Tuktoyaktuk","country":"CA","runway_length":0,"runway_show":0,"points":"","url":"","address":"","is_web":0},{"area_id":8996,"type":0,"shape":0,"lat":69.364803,"lng":-81.816858,"radius":702,"level":2,"updated_at":1447945800,"begin_at":0,"end_at":0,"name":"Igloolik Airport","city":"Igloolik","country":"CA","runway_length":0,"runway_show":0,"points":"","url":"","address":"","is_web":0},{"area_id":8905,"type":0,"shape":0,"lat":69.108056,"lng":-105.137222,"radius":815,"level":2,"updated_at":1447945800,"begin_at":0,"end_at":0,"name":"Cambridge Bay Airport","city":"Cambridge Bay","country":"CA","runway_length":0,"runway_show":0,"points":"","url":"","address":"","is_web":0},{"area_id":9254,"type":0,"shape":0,"lat":68.774568,"lng":-81.242976,"radius":926,"level":2,"updated_at":1447945800,"begin_at":0,"end_at":0,"name":"Hall Beach Airport","city":"Hall Beach","country":"CA","runway_length":0,"runway_show":0,"points":"","url":"","address":"","is_web":0},{"area_id":9010,"type":0,"shape":0,"lat":68.635173,"lng":-95.850681,"radius":851,"level":2,"updated_at":1447945800,"begin_at":0,"end_at":0,"name":"Gjoa Haven Airport","city":"Gjoa Haven","country":"CA","runway_length":0,"runway_show":0,"points":"","url":"","address":"","is_web":0},{"area_id":8881,"type":0,"shape":0,"lat":68.536046,"lng":-89.805375,"radius":904,"level":2,"updated_at":1447945800,"begin_at":0,"end_at":0,"name":"Kugaaruk Airport","city":"Kugaaruk","country":"CA","runway_length":0,"runway_show":0,"points":"","url":"","address":"","is_web":0},{"area_id":9249,"type":0,"shape":0,"lat":68.476912,"lng":-113.222288,"radius":909,"level":2,"updated_at":1447945800,"begin_at":0,"end_at":0,"name":"Lady Franklin Point Airport","city":"","country":"CA","runway_length":0,"runway_show":0,"points":"","url":"","address":"","is_web":0},{"area_id":8965,"type":0,"shape":0,"lat":68.304199,"lng":-133.48398,"radius":1071,"level":2,"updated_at":1447945800,"begin_at":0,"end_at":0,"name":"Inuvik Mike Zubko Airport","city":"Inuvik","country":"CA","runway_length":0,"runway_show":0,"points":"","url":"","address":"","is_web":0},{"area_id":3661,"type":0,"shape":0,"lat":68.223477,"lng":-135.006361,"radius":560,"level":2,"updated_at":1447945800,"begin_at":0,"end_at":0,"name":"Aklavik Airport","city":"Aklavik","country":"CA","runway_length":0,"runway_show":0,"points":"","url":"","address":"","is_web":0},{"area_id":9123,"type":0,"shape":0,"lat":67.570536,"lng":-139.84,"radius":880,"level":2,"updated_at":1447945800,"begin_at":0,"end_at":0,"name":"Old Crow Airport","city":"Old Crow","country":"CA","runway_length":0,"runway_show":0,"points":"","url":"","address":"","is_web":0},{"area_id":9262,"type":0,"shape":0,"lat":67.546503,"lng":-64.031506,"radius":662,"level":2,"updated_at":1447945800,"begin_at":0,"end_at":0,"name":"Qikiqtarjuaq Airport","city":"Qikiqtarjuaq","country":"CA","runway_length":0,"runway_show":0,"points":"","url":"","address":"","is_web":0},{"area_id":8758,"type":0,"shape":0,"lat":67.407797,"lng":-134.859964,"radius":672,"level":2,"updated_at":1447945800,"begin_at":0,"end_at":0,"name":"Fort Mcpherson Airport","city":"Fort Mcpherson","country":"CA","runway_length":0,"runway_show":0,"points":"","url":"","address":"","is_web":0},{"area_id":9253,"type":0,"shape":0,"lat":66.52064,"lng":-86.225468,"radius":655,"level":2,"updated_at":1447945800,"begin_at":0,"end_at":0,"name":"Repulse Bay Airport","city":"Repulse Bay","country":"CA","runway_length":0,"runway_show":0,"points":"","url":"","address":"","is_web":0},{"area_id":8985,"type":0,"shape":0,"lat":66.240598,"lng":-128.649269,"radius":542,"level":2,"updated_at":1447945800,"begin_at":0,"end_at":0,"name":"Fort Good Hope Airport","city":"Fort Good Hope","country":"CA","runway_length":0,"runway_show":0,"points":"","url":"","address":"","is_web":0},{"area_id":9294,"type":0,"shape":0,"lat":66.145,"lng":-65.713611,"radius":532,"level":2,"updated_at":1447945800,"begin_at":0,"end_at":0,"name":"Pangnirtung Airport","city":"Pangnirtung","country":"CA","runway_length":0,"runway_show":0,"points":"","url":"","address":"","is_web":0},{"area_id":9279,"type":0,"shape":0,"lat":65.7584,"lng":-111.248871,"radius":931,"level":2,"updated_at":1447945800,"begin_at":0,"end_at":0,"name":"Lupin Airport","city":"Lupin Mine","country":"CA","runway_length":0,"runway_show":0,"points":"","url":"","address":"","is_web":0},{"area_id":9265,"type":0,"shape":0,"lat":65.281395,"lng":-126.798785,"radius":971,"level":2,"updated_at":1447945800,"begin_at":0,"end_at":0,"name":"Norman Wells Airport","city":"Norman Wells","country":"CA","runway_length":0,"runway_show":0,"points":"","url":"","address":"","is_web":0},{"area_id":9274,"type":0,"shape":0,"lat":65.192332,"lng":-123.430047,"radius":472,"level":2,"updated_at":1474299064,"begin_at":0,"end_at":0,"name":"Déline Airport","city":"Déline","country":"CA","runway_length":0,"runway_show":0,"points":"","url":"","address":"","is_web":0},{"area_id":8759,"type":0,"shape":0,"lat":64.909248,"lng":-125.572466,"radius":557,"level":2,"updated_at":1447945800,"begin_at":0,"end_at":0,"name":"Tulita Airport","city":"Tulita","country":"CA","runway_length":0,"runway_show":0,"points":"","url":"","address":"","is_web":0},{"area_id":9122,"type":0,"shape":0,"lat":64.698889,"lng":-110.614722,"radius":978,"level":2,"updated_at":1447945800,"begin_at":0,"end_at":0,"name":"Ekati Airport","city":"Ekati","country":"CA","runway_length":0,"runway_show":0,"points":"","url":"","address":"","is_web":0},{"area_id":752,"type":0,"shape":0,"lat":64.51139,"lng":-110.289444,"radius":910,"level":2,"updated_at":1447945800,"begin_at":0,"end_at":0,"name":"Diavik Airport","city":"Diavik","country":"CA","runway_length":0,"runway_show":0,"points":"","url":"","address":"","is_web":0},{"area_id":9067,"type":0,"shape":0,"lat":64.475191,"lng":-140.74287,"radius":828,"level":2,"updated_at":1447945800,"begin_at":0,"end_at":0,"name":"Clinton Creek Airport","city":"Clinton Creek","country":"CA","runway_length":0,"runway_show":0,"points":"","url":"","address":"","is_web":0},{"area_id":8890,"type":0,"shape":0,"lat":64.298889,"lng":-96.077778,"radius":775,"level":2,"updated_at":1447945800,"begin_at":0,"end_at":0,"name":"Baker Lake Airport","city":"Baker Lake","country":"CA","runway_length":0,"runway_show":0,"points":"","url":"","address":"","is_web":0},{"area_id":9228,"type":0,"shape":0,"lat":64.230096,"lng":-76.524657,"radius":739,"level":2,"updated_at":1447945800,"begin_at":0,"end_at":0,"name":"Cape Dorset Airport","city":"Cape Dorset","country":"CA","runway_length":0,"runway_show":0,"points":"","url":"","address":"","is_web":0},{"area_id":9332,"type":0,"shape":0,"lat":64.194897,"lng":-83.360982,"radius":1077,"level":2,"updated_at":1447945800,"begin_at":0,"end_at":0,"name":"Coral Harbour Airport","city":"Coral Harbour","country":"CA","runway_length":0,"runway_show":0,"points":"","url":"","address":"","is_web":0},{"area_id":9182,"type":0,"shape":0,"lat":64.116164,"lng":-117.309199,"radius":563,"level":2,"updated_at":1447945800,"begin_at":0,"end_at":0,"name":"Rae Lakes Airport","city":"Gamètì","country":"CA","runway_length":0,"runway_show":0,"points":"","url":"","address":"","is_web":0},{"area_id":8929,"type":0,"shape":0,"lat":64.042339,"lng":-139.129494,"radius":974,"level":2,"updated_at":1447945800,"begin_at":0,"end_at":0,"name":"Dawson City Airport","city":"Dawson City","country":"CA","runway_length":0,"runway_show":0,"points":"","url":"","address":"","is_web":0},{"area_id":8968,"type":0,"shape":0,"lat":63.756642,"lng":-68.556145,"radius":1439,"level":2,"updated_at":1447945800,"begin_at":0,"end_at":0,"name":"Iqaluit Airport","city":"Iqaluit","country":"CA","runway_length":0,"runway_show":0,"points":"","url":"","address":"","is_web":0},{"area_id":8921,"type":0,"shape":0,"lat":63.347181,"lng":-90.731003,"radius":691,"level":2,"updated_at":1447945800,"begin_at":0,"end_at":0,"name":"Chesterfield Inlet Airport","city":"Chesterfield Inlet","country":"CA","runway_length":0,"runway_show":0,"points":"","url":"","address":"","is_web":0},{"area_id":9283,"type":0,"shape":0,"lat":63.20983,"lng":-123.437067,"radius":638,"level":2,"updated_at":1447945800,"begin_at":0,"end_at":0,"name":"Wrigley Airport","city":"Wrigley","country":"CA","runway_length":0,"runway_show":0,"points":"","url":"","address":"","is_web":0},{"area_id":9059,"type":0,"shape":0,"lat":63.131519,"lng":-117.244542,"radius":592,"level":2,"updated_at":1447945800,"begin_at":0,"end_at":0,"name":"Whatì Airport","city":"Whatì","country":"CA","runway_length":0,"runway_show":0,"points":"","url":"","address":"","is_web":0},{"area_id":9057,"type":0,"shape":0,"lat":62.847877,"lng":-69.876177,"radius":235,"level":2,"updated_at":1447945800,"begin_at":0,"end_at":0,"name":"Kimmirut Airport","city":"Kimmirut","country":"CA","runway_length":0,"runway_show":0,"points":"","url":"","address":"","is_web":0},{"area_id":9197,"type":0,"shape":0,"lat":62.810636,"lng":-92.11336,"radius":986,"level":2,"updated_at":1447945800,"begin_at":0,"end_at":0,"name":"Rankin Inlet Airport","city":"Rankin Inlet","country":"CA","runway_length":0,"runway_show":0,"points":"","url":"","address":"","is_web":0},{"area_id":9326,"type":0,"shape":0,"lat":62.462977,"lng":-114.436625,"radius":1394,"level":2,"updated_at":1447945800,"begin_at":0,"end_at":0,"name":"Yellowknife Airport","city":"Yellowknife","country":"CA","runway_length":0,"runway_show":0,"points":"","url":"","address":"","is_web":0},{"area_id":9293,"type":0,"shape":0,"lat":62.240499,"lng":-92.597881,"radius":727,"level":2,"updated_at":1447945800,"begin_at":0,"end_at":0,"name":"Whale Cove Airport","city":"Whale Cove","country":"CA","runway_length":0,"runway_show":0,"points":"","url":"","address":"","is_web":0},{"area_id":9327,"type":0,"shape":0,"lat":62.179336,"lng":-75.667254,"radius":552,"level":2,"updated_at":1447945800,"begin_at":0,"end_at":0,"name":"Salluit Airport","city":"Salluit","country":"CA","runway_length":0,"runway_show":0,"points":"","url":"","address":"","is_web":0},{"area_id":9000,"type":0,"shape":0,"lat":62.112114,"lng":-74.555626,"radius":868,"level":2,"updated_at":1447945800,"begin_at":0,"end_at":0,"name":"Deception Airport","city":"","country":"CA","runway_length":0,"runway_show":0,"points":"","url":"","address":"","is_web":0},{"area_id":8978,"type":0,"shape":0,"lat":61.760379,"lng":-121.237001,"radius":968,"level":2,"updated_at":1447945800,"begin_at":0,"end_at":0,"name":"Fort Simpson Airport","city":"Fort Simpson","country":"CA","runway_length":0,"runway_show":0,"points":"","url":"","address":"","is_web":0},{"area_id":9270,"type":0,"shape":0,"lat":61.588465,"lng":-71.92912,"radius":613,"level":2,"updated_at":1447945800,"begin_at":0,"end_at":0,"name":"Kangiqsujuaq (Wakeham Bay) Airport","city":"Kangiqsujuaq","country":"CA","runway_length":0,"runway_show":0,"points":"","url":"","address":"","is_web":0},{"area_id":8930,"type":0,"shape":0,"lat":61.3711,"lng":-139.041,"radius":1034,"level":2,"updated_at":1447945800,"begin_at":0,"end_at":0,"name":"Burwash Airport","city":"Burwash","country":"CA","runway_length":0,"runway_show":0,"points":"","url":"","address":"","is_web":0},{"area_id":8977,"type":0,"shape":0,"lat":61.175502,"lng":-113.683031,"radius":1750,"level":2,"updated_at":1447945800,"begin_at":0,"end_at":0,"name":"Fort Resolution Airport","city":"Fort Resolution","country":"CA","runway_length":0,"runway_show":0,"points":"","url":"","address":"","is_web":0},{"area_id":8956,"type":0,"shape":0,"lat":61.093744,"lng":-94.071501,"radius":755,"level":2,"updated_at":1447945800,"begin_at":0,"end_at":0,"name":"Arviat Airport","city":"Arviat","country":"CA","runway_length":0,"runway_show":0,"points":"","url":"","address":"","is_web":0},{"area_id":9162,"type":0,"shape":0,"lat":61.046137,"lng":-69.618472,"radius":606,"level":2,"updated_at":1447945800,"begin_at":0,"end_at":0,"name":"Quaqtaq Airport","city":"Quaqtaq","country":"CA","runway_length":0,"runway_show":0,"points":"","url":"","address":"","is_web":0},{"area_id":9019,"type":0,"shape":0,"lat":60.840768,"lng":-115.784237,"radius":998,"level":2,"updated_at":1447945800,"begin_at":0,"end_at":0,"name":"Hay River / Merlyn Carter Airport","city":"Hay River","country":"CA","runway_length":0,"runway_show":0,"points":"","url":"","address":"","is_web":0},{"area_id":9017,"type":0,"shape":0,"lat":60.789105,"lng":-137.54519,"radius":972,"level":2,"updated_at":1447945800,"begin_at":0,"end_at":0,"name":"Haines Junction Airport","city":"Haines Junction","country":"CA","runway_length":0,"runway_show":0,"points":"","url":"","address":"","is_web":0},{"area_id":9301,"type":0,"shape":0,"lat":60.709523,"lng":-135.068914,"radius":1502,"level":2,"updated_at":1447945800,"begin_at":0,"end_at":0,"name":"Whitehorse / Erik Nielsen International Airport","city":"Whitehorse","country":"CA","runway_length":0,"runway_show":0,"points":"","url":"","address":"","is_web":0},{"area_id":8948,"type":0,"shape":0,"lat":60.31617,"lng":-103.131429,"radius":980,"level":2,"updated_at":1447945800,"begin_at":0,"end_at":0,"name":"Obre Lake Airport","city":"Obre Lake","country":"CA","runway_length":0,"runway_show":0,"points":"","url":"","address":"","is_web":0},{"area_id":9031,"type":0,"shape":0,"lat":60.235854,"lng":-123.470121,"radius":526,"level":2,"updated_at":1447945800,"begin_at":0,"end_at":0,"name":"Fort Liard Airport","city":"Fort Liard","country":"CA","runway_length":0,"runway_show":0,"points":"","url":"","address":"","is_web":0},{"area_id":9336,"type":0,"shape":0,"lat":60.173262,"lng":-132.744221,"radius":1207,"level":2,"updated_at":1447945800,"begin_at":0,"end_at":0,"name":"Teslin Airport","city":"Teslin","country":"CA","runway_length":0,"runway_show":0,"points":"","url":"","address":"","is_web":0},{"area_id":9211,"type":0,"shape":0,"lat":60.020712,"lng":-111.960757,"radius":1269,"level":2,"updated_at":1447945800,"begin_at":0,"end_at":0,"name":"Fort Smith Airport","city":"Fort Smith","country":"CA","runway_length":0,"runway_show":0,"points":"","url":"","address":"","is_web":0},{"area_id":8884,"type":0,"shape":0,"lat":59.562034,"lng":-108.478471,"radius":860,"level":2,"updated_at":1447945800,"begin_at":0,"end_at":0,"name":"Uranium City Airport","city":"Uranium City","country":"CA","runway_length":0,"runway_show":0,"points":"","url":"","address":"","is_web":0},{"area_id":9762,"type":0,"shape":0,"lat":59.485844,"lng":-97.782211,"radius":636,"level":2,"updated_at":1447945800,"begin_at":0,"end_at":0,"name":"Nejanilini Lake Airport","city":"NULL","country":"CA","runway_length":0,"runway_show":0,"points":"","url":"","address":"","is_web":0},{"area_id":9204,"type":0,"shape":0,"lat":59.251014,"lng":-105.841432,"radius":1443,"level":2,"updated_at":1447945800,"begin_at":0,"end_at":0,"name":"Stony Rapids Airport","city":"Stony Rapids","country":"CA","runway_length":0,"runway_show":0,"points":"","url":"","address":"","is_web":0},{"area_id":9307,"type":0,"shape":0,"lat":58.838255,"lng":-122.596275,"radius":1405,"level":2,"updated_at":1447945800,"begin_at":0,"end_at":0,"name":"Fort Nelson Airport","city":"Fort Nelson","country":"CA","runway_length":0,"runway_show":0,"points":"","url":"","address":"","is_web":0},{"area_id":9158,"type":0,"shape":0,"lat":58.767659,"lng":-111.116936,"radius":962,"level":2,"updated_at":1447945800,"begin_at":0,"end_at":0,"name":"Fort Chipewyan Airport","city":"Fort Chipewyan","country":"CA","runway_length":0,"runway_show":0,"points":"","url":"","address":"","is_web":0},{"area_id":7767,"type":0,"shape":0,"lat":58.711389,"lng":-65.992778,"radius":660,"level":2,"updated_at":1447945800,"begin_at":0,"end_at":0,"name":"Kangiqsualujjuaq (Georges River) Airport","city":"Kangiqsualujjuaq","country":"CA","runway_length":0,"runway_show":0,"points":"","url":"","address":"","is_web":0},{"area_id":7837,"type":0,"shape":0,"lat":58.707134,"lng":-98.509732,"radius":849,"level":2,"updated_at":1447945800,"begin_at":0,"end_at":0,"name":"Tadoule Lake Airport","city":"Tadoule Lake","country":"CA","runway_length":0,"runway_show":0,"points":"","url":"","address":"","is_web":0},{"area_id":9238,"type":0,"shape":0,"lat":58.66783,"lng":-69.956353,"radius":651,"level":2,"updated_at":1447945800,"begin_at":0,"end_at":0,"name":"Tasiujaq Airport","city":"Tasiujaq","country":"CA","runway_length":0,"runway_show":0,"points":"","url":"","address":"","is_web":0},{"area_id":8937,"type":0,"shape":0,"lat":58.661982,"lng":-103.539529,"radius":885,"level":2,"updated_at":1447945800,"begin_at":0,"end_at":0,"name":"Hatchet Lake Airport","city":"Hatchet Lake","country":"CA","runway_length":0,"runway_show":0,"points":"","url":"","address":"","is_web":0},{"area_id":9129,"type":0,"shape":0,"lat":58.621493,"lng":-117.164487,"radius":1533,"level":2,"updated_at":1447945800,"begin_at":0,"end_at":0,"name":"High Level Airport","city":"High Level","country":"CA","runway_length":0,"runway_show":0,"points":"","url":"","address":"","is_web":0},{"area_id":7783,"type":0,"shape":0,"lat":58.616757,"lng":-101.479048,"radius":1189,"level":2,"updated_at":1447945800,"begin_at":0,"end_at":0,"name":"Lac Brochet Airport","city":"Lac Brochet","country":"CA","runway_length":0,"runway_show":0,"points":"","url":"","address":"","is_web":0},{"area_id":9133,"type":0,"shape":0,"lat":58.493452,"lng":-119.412445,"radius":1288,"level":2,"updated_at":1447945800,"begin_at":0,"end_at":0,"name":"Rainbow Lake Airport","city":"Rainbow Lake","country":"CA","runway_length":0,"runway_show":0,"points":"","url":"","address":"","is_web":0},{"area_id":9220,"type":0,"shape":0,"lat":58.475404,"lng":-62.654985,"radius":914,"level":2,"updated_at":1447945800,"begin_at":0,"end_at":0,"name":"Saglek Airport","city":"RCAF Station Saglek","country":"CA","runway_length":0,"runway_show":0,"points":"","url":"","address":"","is_web":0},{"area_id":9144,"type":0,"shape":0,"lat":58.471802,"lng":-78.077301,"radius":659,"level":2,"updated_at":1447945800,"begin_at":0,"end_at":0,"name":"Inukjuak Airport","city":"Inukjuak","country":"CA","runway_length":0,"runway_show":0,"points":"","url":"","address":"","is_web":0},{"area_id":8939,"type":0,"shape":0,"lat":58.422885,"lng":-130.030109,"radius":1120,"level":2,"updated_at":1447945800,"begin_at":0,"end_at":0,"name":"Dease Lake Airport","city":"Dease Lake","country":"CA","runway_length":0,"runway_show":0,"points":"","url":"","address":"","is_web":0},{"area_id":7747,"type":0,"shape":0,"lat":58.391686,"lng":-109.515818,"radius":1292,"level":2,"updated_at":1447945800,"begin_at":0,"end_at":0,"name":"Cluff Lake Airport","city":"Cluff Lake","country":"CA","runway_length":0,"runway_show":0,"points":"","url":"","address":"","is_web":0},{"area_id":9112,"type":0,"shape":0,"lat":58.278182,"lng":-104.083955,"radius":1240,"level":2,"updated_at":1447945800,"begin_at":0,"end_at":0,"name":"Points North Landing Airport","city":"Points North Landing","country":"CA","runway_length":0,"runway_show":0,"points":"","url":"","address":"","is_web":0},{"area_id":8847,"type":0,"shape":0,"lat":58.106936,"lng":-103.1725,"radius":720,"level":2,"updated_at":1447945800,"begin_at":0,"end_at":0,"name":"Wollaston Lake Airport","city":"Wollaston Lake","country":"CA","runway_length":0,"runway_show":0,"points":"","url":"","address":"","is_web":0},{"area_id":9264,"type":0,"shape":0,"lat":58.094328,"lng":-68.425245,"radius":1519,"level":2,"updated_at":1447945800,"begin_at":0,"end_at":0,"name":"Kuujjuaq Airport","city":"Kuujjuaq","country":"CA","runway_length":0,"runway_show":0,"points":"","url":"","address":"","is_web":0},{"area_id":9043,"type":0,"shape":0,"lat":57.256191,"lng":-105.618711,"radius":1019,"level":2,"updated_at":1447945800,"begin_at":0,"end_at":0,"name":"Key Lake Airport","city":"Key Lake","country":"CA","runway_length":0,"runway_show":0,"points":"","url":"","address":"","is_web":0},{"area_id":8894,"type":0,"shape":0,"lat":56.967954,"lng":-130.249485,"radius":936,"level":2,"updated_at":1447945800,"begin_at":0,"end_at":0,"name":"Bob Quinn Lake Airport","city":"Bob Quinn Lake","country":"CA","runway_length":0,"runway_show":0,"points":"","url":"","address":"","is_web":0},{"area_id":9312,"type":0,"shape":0,"lat":56.864444,"lng":-101.076111,"radius":875,"level":2,"updated_at":1447945800,"begin_at":0,"end_at":0,"name":"Lynn Lake Airport","city":"Lynn Lake","country":"CA","runway_length":0,"runway_show":0,"points":"","url":"","address":"","is_web":0},{"area_id":9090,"type":0,"shape":0,"lat":56.653473,"lng":-111.224179,"radius":1823,"level":2,"updated_at":1447945800,"begin_at":0,"end_at":0,"name":"Fort McMurray Airport","city":"Fort McMurray","country":"CA","runway_length":0,"runway_show":0,"points":"","url":"","address":"","is_web":0},{"area_id":8942,"type":0,"shape":0,"lat":56.55048,"lng":-61.682501,"radius":347,"level":2,"updated_at":1447945800,"begin_at":0,"end_at":0,"name":"Nain Airport","city":"Nain","country":"CA","runway_length":0,"runway_show":0,"points":"","url":"","address":"","is_web":0},{"area_id":9247,"type":0,"shape":0,"lat":56.536111,"lng":-76.518333,"radius":584,"level":2,"updated_at":1447945800,"begin_at":0,"end_at":0,"name":"Umiujaq Airport","city":"Umiujaq","country":"CA","runway_length":0,"runway_show":0,"points":"","url":"","address":"","is_web":0},{"area_id":9072,"type":0,"shape":0,"lat":56.512433,"lng":-99.985707,"radius":838,"level":2,"updated_at":1447945800,"begin_at":0,"end_at":0,"name":"Leaf Rapids Airport","city":"Leaf Rapids","country":"CA","runway_length":0,"runway_show":0,"points":"","url":"","address":"","is_web":0},{"area_id":8999,"type":0,"shape":0,"lat":56.356919,"lng":-94.712241,"radius":1021,"level":2,"updated_at":1447945800,"begin_at":0,"end_at":0,"name":"Gillam Airport","city":"Gillam","country":"CA","runway_length":0,"runway_show":0,"points":"","url":"","address":"","is_web":0},{"area_id":3981,"type":0,"shape":0,"lat":56.24835,"lng":-101.304025,"radius":476,"level":2,"updated_at":1447945800,"begin_at":0,"end_at":0,"name":"Laurie River Airport","city":"Laurie River","country":"CA","runway_length":0,"runway_show":0,"points":"","url":"","address":"","is_web":0},{"area_id":9290,"type":0,"shape":0,"lat":56.239245,"lng":-120.740636,"radius":1299,"level":2,"updated_at":1447945800,"begin_at":0,"end_at":0,"name":"Fort St John Airport","city":"Fort St.John","country":"CA","runway_length":0,"runway_show":0,"points":"","url":"","address":"","is_web":0},{"area_id":9142,"type":0,"shape":0,"lat":56.22804,"lng":-117.44927,"radius":838,"level":2,"updated_at":1447945800,"begin_at":0,"end_at":0,"name":"Peace River Airport","city":"Peace River","country":"CA","runway_length":0,"runway_show":0,"points":"","url":"","address":"","is_web":0},{"area_id":2856,"type":0,"shape":0,"lat":56.05165,"lng":-95.619246,"radius":783,"level":2,"updated_at":1447945800,"begin_at":0,"end_at":0,"name":"Ilford Airport","city":"Ilford","country":"CA","runway_length":0,"runway_show":0,"points":"","url":"","address":"","is_web":0},{"area_id":4840,"type":0,"shape":0,"lat":56.037577,"lng":-96.508791,"radius":460,"level":2,"updated_at":1447945800,"begin_at":0,"end_at":0,"name":"Kelsey Airport","city":"Kelsey","country":"CA","runway_length":0,"runway_show":0,"points":"","url":"","address":"","is_web":0},{"area_id":9108,"type":0,"shape":0,"lat":56.035682,"lng":-121.977901,"radius":818,"level":2,"updated_at":1447945800,"begin_at":0,"end_at":0,"name":"Hudsons Hope Airport","city":"Hudson's Hope","country":"CA","runway_length":0,"runway_show":0,"points":"","url":"","address":"","is_web":0},{"area_id":8834,"type":0,"shape":0,"lat":55.862551,"lng":-92.081314,"radius":947,"level":2,"updated_at":1447945800,"begin_at":0,"end_at":0,"name":"Shamattawa Airport","city":"Shamattawa","country":"CA","runway_length":0,"runway_show":0,"points":"","url":"","address":"","is_web":0},{"area_id":9267,"type":0,"shape":0,"lat":55.841828,"lng":-108.417099,"radius":1162,"level":2,"updated_at":1447945800,"begin_at":0,"end_at":0,"name":"Buffalo Narrows Airport","city":"Buffalo Narrows","country":"CA","runway_length":0,"runway_show":0,"points":"","url":"","address":"","is_web":0},{"area_id":7814,"type":0,"shape":0,"lat":55.748583,"lng":-101.265968,"radius":618,"level":2,"updated_at":1447945800,"begin_at":0,"end_at":0,"name":"Pukatawagan Airport","city":"Pukatawagan","country":"CA","runway_length":0,"runway_show":0,"points":"","url":"","address":"","is_web":0},{"area_id":8919,"type":0,"shape":0,"lat":55.687154,"lng":-121.626726,"radius":794,"level":2,"updated_at":1447945800,"begin_at":0,"end_at":0,"name":"Chetwynd Airport","city":"Chetwynd","country":"CA","runway_length":0,"runway_show":0,"points":"","url":"","address":"","is_web":0},{"area_id":5891,"type":0,"shape":0,"lat":55.58929,"lng":-97.164072,"radius":410,"level":2,"updated_at":1447945800,"begin_at":0,"end_at":0,"name":"Pikwitonei Airport","city":"Pikwitonei","country":"CA","runway_length":0,"runway_show":0,"points":"","url":"","address":"","is_web":0},{"area_id":8813,"type":0,"shape":0,"lat":55.527561,"lng":-106.581454,"radius":670,"level":2,"updated_at":1447945800,"begin_at":0,"end_at":0,"name":"Pinehouse Lake Airport","city":"Pinehouse Lake","country":"CA","runway_length":0,"runway_show":0,"points":"","url":"","address":"","is_web":0},{"area_id":8774,"type":0,"shape":0,"lat":55.393587,"lng":-116.475276,"radius":615,"level":2,"updated_at":1447945800,"begin_at":0,"end_at":0,"name":"High Prairie Airport","city":"High Prairie","country":"CA","runway_length":0,"runway_show":0,"points":"","url":"","address":"","is_web":0},{"area_id":9227,"type":0,"shape":0,"lat":55.319402,"lng":-97.707757,"radius":464,"level":2,"updated_at":1447945800,"begin_at":0,"end_at":0,"name":"Thicket Portage Airport","city":"Thicket Portage","country":"CA","runway_length":0,"runway_show":0,"points":"","url":"","address":"","is_web":0},{"area_id":9766,"type":0,"shape":0,"lat":55.297668,"lng":-123.134504,"radius":1302,"level":2,"updated_at":1447945800,"begin_at":0,"end_at":0,"name":"Mackenzie Airport","city":"NULL","country":"CA","runway_length":0,"runway_show":0,"points":"","url":"","address":"","is_web":0},{"area_id":9328,"type":0,"shape":0,"lat":55.29276,"lng":-114.777011,"radius":891,"level":2,"updated_at":1447945800,"begin_at":0,"end_at":0,"name":"Slave Lake Airport","city":"Slave Lake","country":"CA","runway_length":0,"runway_show":0,"points":"","url":"","address":"","is_web":0},{"area_id":8998,"type":0,"shape":0,"lat":55.281955,"lng":-77.764298,"radius":889,"level":2,"updated_at":1447945800,"begin_at":0,"end_at":0,"name":"Kuujjuarapik Airport","city":"Kuujjuarapik","country":"CA","runway_length":0,"runway_show":0,"points":"","url":"","address":"","is_web":0},{"area_id":9176,"type":0,"shape":0,"lat":55.181906,"lng":-118.88515,"radius":1131,"level":2,"updated_at":1447945800,"begin_at":0,"end_at":0,"name":"Grande Prairie Airport","city":"Grande Prairie","country":"CA","runway_length":0,"runway_show":0,"points":"","url":"","address":"","is_web":0},{"area_id":9258,"type":0,"shape":0,"lat":55.149901,"lng":-105.266018,"radius":1028,"level":2,"updated_at":1447945800,"begin_at":0,"end_at":0,"name":"La Ronge Airport","city":"La Ronge","country":"CA","runway_length":0,"runway_show":0,"points":"","url":"","address":"","is_web":0},{"area_id":9091,"type":0,"shape":0,"lat":55.077166,"lng":-59.187924,"radius":444,"level":2,"updated_at":1447945800,"begin_at":0,"end_at":0,"name":"Makkovik Airport","city":"Makkovik","country":"CA","runway_length":0,"runway_show":0,"points":"","url":"","address":"","is_web":0},{"area_id":7674,"type":0,"shape":0,"lat":55.026667,"lng":-120.93349,"radius":806,"level":2,"updated_at":1447945800,"begin_at":0,"end_at":0,"name":"Tumbler Ridge Airport","city":"Tumbler Ridge","country":"CA","runway_length":0,"runway_show":0,"points":"","url":"","address":"","is_web":0},{"area_id":9150,"type":0,"shape":0,"lat":54.987691,"lng":-85.44424,"radius":796,"level":2,"updated_at":1447945800,"begin_at":0,"end_at":0,"name":"Peawanuck Airport","city":"Peawanuck","country":"CA","runway_length":0,"runway_show":0,"points":"","url":"","address":"","is_web":0},{"area_id":9127,"type":0,"shape":0,"lat":54.933449,"lng":-95.277254,"radius":805,"level":2,"updated_at":1447945800,"begin_at":0,"end_at":0,"name":"Oxford House Airport","city":"Oxford House","country":"CA","runway_length":0,"runway_show":0,"points":"","url":"","address":"","is_web":0},{"area_id":9306,"type":0,"shape":0,"lat":54.825251,"lng":-127.18348,"radius":843,"level":2,"updated_at":1447945800,"begin_at":0,"end_at":0,"name":"Smithers Airport","city":"Smithers","country":"CA","runway_length":0,"runway_show":0,"points":"","url":"","address":"","is_web":0},{"area_id":9045,"type":0,"shape":0,"lat":54.805614,"lng":-66.805691,"radius":865,"level":2,"updated_at":1447945800,"begin_at":0,"end_at":0,"name":"Schefferville Airport","city":"Schefferville","country":"CA","runway_length":0,"runway_show":0,"points":"","url":"","address":"","is_web":0},{"area_id":9056,"type":0,"shape":0,"lat":54.770383,"lng":-112.031637,"radius":954,"level":2,"updated_at":1447945800,"begin_at":0,"end_at":0,"name":"Lac La Biche Airport","city":"Lac La Biche","country":"CA","runway_length":0,"runway_show":0,"points":"","url":"","address":"","is_web":0},{"area_id":8976,"type":0,"shape":0,"lat":54.677835,"lng":-101.681493,"radius":809,"level":2,"updated_at":1447945800,"begin_at":0,"end_at":0,"name":"Flin Flon Airport","city":"Flin Flon","country":"CA","runway_length":0,"runway_show":0,"points":"","url":"","address":"","is_web":0},{"area_id":8991,"type":0,"shape":0,"lat":54.557732,"lng":-94.489845,"radius":748,"level":2,"updated_at":1447945800,"begin_at":0,"end_at":0,"name":"Gods Lake Narrows Airport","city":"Gods Lake Narrows","country":"CA","runway_length":0,"runway_show":0,"points":"","url":"","address":"","is_web":0},{"area_id":8971,"type":0,"shape":0,"lat":54.554069,"lng":-71.17321,"radius":994,"level":2,"updated_at":1447945800,"begin_at":0,"end_at":0,"name":"Fontanges Airport","city":"Fontanges","country":"CA","runway_length":0,"runway_show":0,"points":"","url":"","address":"","is_web":0},{"area_id":8781,"type":0,"shape":0,"lat":54.518561,"lng":-98.045469,"radius":1353,"level":2,"updated_at":1447945800,"begin_at":0,"end_at":0,"name":"Jenpeg Airport","city":"Jenpeg","country":"CA","runway_length":0,"runway_show":0,"points":"","url":"","address":"","is_web":0},{"area_id":9763,"type":0,"shape":0,"lat":54.407836,"lng":-110.283326,"radius":2592,"level":2,"updated_at":1447945800,"begin_at":0,"end_at":0,"name":"Canadian Forces Base Cold Lake","city":"Cold Lake","country":"CA","runway_length":0,"runway_show":0,"points":"","url":"","address":"","is_web":0},{"area_id":8903,"type":0,"shape":0,"lat":54.305286,"lng":-110.742712,"radius":844,"level":2,"updated_at":1447945800,"begin_at":0,"end_at":0,"name":"Bonnyville Airport","city":"Bonnyville","country":"CA","runway_length":0,"runway_show":0,"points":"","url":"","address":"","is_web":0},{"area_id":9153,"type":0,"shape":0,"lat":54.285785,"lng":-130.44455,"radius":1154,"level":2,"updated_at":1447945800,"begin_at":0,"end_at":0,"name":"Prince Rupert Airport","city":"Prince Rupert","country":"CA","runway_length":0,"runway_show":0,"points":"","url":"","address":"","is_web":0},{"area_id":9196,"type":0,"shape":0,"lat":54.167251,"lng":-93.557475,"radius":684,"level":2,"updated_at":1447945800,"begin_at":0,"end_at":0,"name":"Red Sucker Lake Airport","city":"Red Sucker Lake","country":"CA","runway_length":0,"runway_show":0,"points":"","url":"","address":"","is_web":0},{"area_id":9334,"type":0,"shape":0,"lat":54.142327,"lng":-115.787715,"radius":1152,"level":2,"updated_at":1447945800,"begin_at":0,"end_at":0,"name":"Whitecourt Airport","city":"Whitecourt","country":"CA","runway_length":0,"runway_show":0,"points":"","url":"","address":"","is_web":0},{"area_id":9064,"type":0,"shape":0,"lat":54.123733,"lng":-108.522573,"radius":794,"level":2,"updated_at":1447945800,"begin_at":0,"end_at":0,"name":"Meadow Lake Airport","city":"Meadow Lake","country":"CA","runway_length":0,"runway_show":0,"points":"","url":"","address":"","is_web":0},{"area_id":8798,"type":0,"shape":0,"lat":54.027115,"lng":-132.124832,"radius":840,"level":2,"updated_at":1447945800,"begin_at":0,"end_at":0,"name":"Masset Airport","city":"Masset","country":"CA","runway_length":0,"runway_show":0,"points":"","url":"","address":"","is_web":0},{"area_id":7734,"type":0,"shape":0,"lat":53.964797,"lng":-91.028465,"radius":1224,"level":2,"updated_at":1447945800,"begin_at":0,"end_at":0,"name":"Bearskin Lake Airport","city":"Bearskin Lake","country":"CA","runway_length":0,"runway_show":0,"points":"","url":"","address":"","is_web":0},{"area_id":8982,"type":0,"shape":0,"lat":53.916944,"lng":-118.874444,"radius":876,"level":2,"updated_at":1447945800,"begin_at":0,"end_at":0,"name":"Grande Cache Airport","city":"Grande Cache","country":"CA","runway_length":0,"runway_show":0,"points":"","url":"","address":"","is_web":0},{"area_id":8810,"type":0,"shape":0,"lat":53.890732,"lng":-92.197313,"radius":747,"level":2,"updated_at":1447945800,"begin_at":0,"end_at":0,"name":"Sachigo Lake Airport","city":"Sachigo Lake","country":"CA","runway_length":0,"runway_show":0,"points":"","url":"","address":"","is_web":0},{"area_id":9297,"type":0,"shape":0,"lat":53.885449,"lng":-122.671608,"radius":2229,"level":2,"updated_at":1447945800,"begin_at":0,"end_at":0,"name":"Prince George Airport","city":"Prince George","country":"CA","runway_length":0,"runway_show":0,"points":"","url":"","address":"","is_web":0},{"area_id":8877,"type":0,"shape":0,"lat":53.848845,"lng":-89.578853,"radius":1125,"level":2,"updated_at":1447945800,"begin_at":0,"end_at":0,"name":"Wapekeka Airport","city":"Angling Lake","country":"CA","runway_length":0,"runway_show":0,"points":"","url":"","address":"","is_web":0},{"area_id":9218,"type":0,"shape":0,"lat":53.845338,"lng":-94.852452,"radius":697,"level":2,"updated_at":1447945800,"begin_at":0,"end_at":0,"name":"St. Theresa Point Airport","city":"St. Theresa Point","country":"CA","runway_length":0,"runway_show":0,"points":"","url":"","address":"","is_web":0},{"area_id":9234,"type":0,"shape":0,"lat":53.817679,"lng":-89.896831,"radius":703,"level":2,"updated_at":1447945800,"begin_at":0,"end_at":0,"name":"Big Trout Lake Airport","city":"Big Trout Lake","country":"CA","runway_length":0,"runway_show":0,"points":"","url":"","address":"","is_web":0},{"area_id":9051,"type":0,"shape":0,"lat":53.805962,"lng":-78.916941,"radius":816,"level":2,"updated_at":1447945800,"begin_at":0,"end_at":0,"name":"Chisasibi Airport","city":"Chisasibi","country":"CA","runway_length":0,"runway_show":0,"points":"","url":"","address":"","is_web":0},{"area_id":8861,"type":0,"shape":0,"lat":53.754238,"lng":-73.675586,"radius":1060,"level":2,"updated_at":1447945800,"begin_at":0,"end_at":0,"name":"La Grande-4 Airport","city":"La Grande-4","country":"CA","runway_length":0,"runway_show":0,"points":"","url":"","address":"","is_web":0},{"area_id":9187,"type":0,"shape":0,"lat":53.68229,"lng":-57.04153,"radius":705,"level":2,"updated_at":1447945800,"begin_at":0,"end_at":0,"name":"Cartwright Airport","city":"Cartwright","country":"CA","runway_length":0,"runway_show":0,"points":"","url":"","address":"","is_web":0},{"area_id":8952,"type":0,"shape":0,"lat":53.673947,"lng":-113.466029,"radius":2240,"level":2,"updated_at":1447945800,"begin_at":0,"end_at":0,"name":"Edmonton (CFB Namao) Airport","city":"Edmonton","country":"CA","runway_length":0,"runway_show":0,"points":"","url":"","address":"","is_web":0},{"area_id":8988,"type":0,"shape":0,"lat":53.625168,"lng":-77.703635,"radius":1216,"level":2,"updated_at":1447945800,"begin_at":0,"end_at":0,"name":"La Grande Rivière Airport","city":"La Grande Rivière","country":"CA","runway_length":0,"runway_show":0,"points":"","url":"","address":"","is_web":0},{"area_id":8964,"type":0,"shape":0,"lat":53.578876,"lng":-116.464801,"radius":951,"level":2,"updated_at":1447945800,"begin_at":0,"end_at":0,"name":"Edson Airport","city":"Edson","country":"CA","runway_length":0,"runway_show":0,"points":"","url":"","address":"","is_web":0},{"area_id":8871,"type":0,"shape":0,"lat":53.571841,"lng":-76.195316,"radius":962,"level":2,"updated_at":1447945800,"begin_at":0,"end_at":0,"name":"La Grande-3 Airport","city":"La Grande-3","country":"CA","runway_length":0,"runway_show":0,"points":"","url":"","address":"","is_web":0},{"area_id":8843,"type":0,"shape":0,"lat":53.562406,"lng":-64.104244,"radius":1039,"level":2,"updated_at":1447945800,"begin_at":0,"end_at":0,"name":"Churchill Falls Airport","city":"Churchill Falls","country":"CA","runway_length":0,"runway_show":0,"points":"","url":"","address":"","is_web":0},{"area_id":7781,"type":0,"shape":0,"lat":53.52439,"lng":-88.642821,"radius":869,"level":2,"updated_at":1447945800,"begin_at":0,"end_at":0,"name":"Kasabonika Airport","city":"Kasabonika","country":"CA","runway_length":0,"runway_show":0,"points":"","url":"","address":"","is_web":0},{"area_id":8888,"type":0,"shape":0,"lat":53.469728,"lng":-55.78703,"radius":452,"level":2,"updated_at":1447945800,"begin_at":0,"end_at":0,"name":"Black Tickle Airport","city":"Black Tickle","country":"CA","runway_length":0,"runway_show":0,"points":"","url":"","address":"","is_web":0},{"area_id":6644,"type":0,"shape":0,"lat":53.44109,"lng":-91.762899,"radius":748,"level":2,"updated_at":1447945800,"begin_at":0,"end_at":0,"name":"Muskrat Dam Airport","city":"Muskrat Dam","country":"CA","runway_length":0,"runway_show":0,"points":"","url":"","address":"","is_web":0},{"area_id":9261,"type":0,"shape":0,"lat":53.357404,"lng":-110.824922,"radius":527,"level":2,"updated_at":1447945800,"begin_at":0,"end_at":0,"name":"Vermilion Airport","city":"Vermilion","country":"CA","runway_length":0,"runway_show":0,"points":"","url":"","address":"","is_web":0},{"area_id":9756,"type":0,"shape":0,"lat":53.332794,"lng":-104.008421,"radius":653,"level":2,"updated_at":1447945800,"begin_at":0,"end_at":0,"name":"Nipawin Airport","city":"Nipawin","country":"CA","runway_length":0,"runway_show":0,"points":"","url":"","address":"","is_web":0},{"area_id":9034,"type":0,"shape":0,"lat":53.319074,"lng":-117.753322,"radius":807,"level":2,"updated_at":1447945800,"begin_at":0,"end_at":0,"name":"Jasper-Hinton Airport","city":"Jasper-Hinton, AL","country":"CA","runway_length":0,"runway_show":0,"points":"","url":"","address":"","is_web":0},{"area_id":8953,"type":0,"shape":0,"lat":53.309823,"lng":-113.577379,"radius":3145,"level":2,"updated_at":1447945800,"begin_at":0,"end_at":0,"name":"Edmonton International Airport","city":"Edmonton","country":"CA","runway_length":0,"runway_show":0,"points":"","url":"","address":"","is_web":0},{"area_id":9066,"type":0,"shape":0,"lat":53.309544,"lng":-110.072954,"radius":905,"level":2,"updated_at":1447945800,"begin_at":0,"end_at":0,"name":"Lloydminster Airport","city":"Lloydminster","country":"CA","runway_length":0,"runway_show":0,"points":"","url":"","address":"","is_web":0},{"area_id":9330,"type":0,"shape":0,"lat":53.2542,"lng":-131.813944,"radius":786,"level":2,"updated_at":1447945800,"begin_at":0,"end_at":0,"name":"Sandspit Airport","city":"Sandspit","country":"CA","runway_length":0,"runway_show":0,"points":"","url":"","address":"","is_web":0},{"area_id":9109,"type":0,"shape":0,"lat":53.201695,"lng":-70.897175,"radius":643,"level":2,"updated_at":1474298650,"begin_at":0,"end_at":0,"name":"Nitchequon Airport","city":"Nitchequon, QC","country":"CA","runway_length":0,"runway_show":0,"points":"","url":"","address":"","is_web":0},{"area_id":8826,"type":0,"shape":0,"lat":53.064165,"lng":-93.344437,"radius":639,"level":2,"updated_at":1447945800,"begin_at":0,"end_at":0,"name":"Sandy Lake Airport","city":"Sandy Lake","country":"CA","runway_length":0,"runway_show":0,"points":"","url":"","address":"","is_web":0},{"area_id":9181,"type":0,"shape":0,"lat":53.026079,"lng":-122.509853,"radius":898,"level":2,"updated_at":1447945800,"begin_at":0,"end_at":0,"name":"Quesnel Airport","city":"Quesnel","country":"CA","runway_length":0,"runway_show":0,"points":"","url":"","address":"","is_web":0},{"area_id":4900,"type":0,"shape":0,"lat":53.013199,"lng":-89.856955,"radius":559,"level":2,"updated_at":1447945800,"begin_at":0,"end_at":0,"name":"Kingfisher Lake Airport","city":"Kingfisher Lake","country":"CA","runway_length":0,"runway_show":0,"points":"","url":"","address":"","is_web":0},{"area_id":9103,"type":0,"shape":0,"lat":53.010833,"lng":-78.830621,"radius":657,"level":2,"updated_at":1447945800,"begin_at":0,"end_at":0,"name":"Wemindji Airport","city":"Wemindji","country":"CA","runway_length":0,"runway_show":0,"points":"","url":"","address":"","is_web":0},{"area_id":7816,"type":0,"shape":0,"lat":52.99621,"lng":-97.273374,"radius":446,"level":2,"updated_at":1447945800,"begin_at":0,"end_at":0,"name":"Poplar River Airport","city":"Poplar River","country":"CA","runway_length":0,"runway_show":0,"points":"","url":"","address":"","is_web":0},{"area_id":4844,"type":0,"shape":0,"lat":52.991151,"lng":-92.835898,"radius":640,"level":2,"updated_at":1447945800,"begin_at":0,"end_at":0,"name":"Keewaywin Airport","city":"Keewaywin","country":"CA","runway_length":0,"runway_show":0,"points":"","url":"","address":"","is_web":0},{"area_id":9280,"type":0,"shape":0,"lat":52.96003,"lng":-87.374665,"radius":767,"level":2,"updated_at":1447945800,"begin_at":0,"end_at":0,"name":"Webequie Airport","city":"Webequie","country":"CA","runway_length":0,"runway_show":0,"points":"","url":"","address":"","is_web":0},{"area_id":8822,"type":0,"shape":0,"lat":52.943807,"lng":-91.31224,"radius":649,"level":2,"updated_at":1447945800,"begin_at":0,"end_at":0,"name":"Round Lake (Weagamow Lake) Airport","city":"Round Lake","country":"CA","runway_length":0,"runway_show":0,"points":"","url":"","address":"","is_web":0},{"area_id":8873,"type":0,"shape":0,"lat":52.927774,"lng":-82.431531,"radius":647,"level":2,"updated_at":1447945800,"begin_at":0,"end_at":0,"name":"Attawapiskat Airport","city":"Attawapiskat","country":"CA","runway_length":0,"runway_show":0,"points":"","url":"","address":"","is_web":0},{"area_id":9275,"type":0,"shape":0,"lat":52.922203,"lng":-66.864444,"radius":1016,"level":2,"updated_at":1447945800,"begin_at":0,"end_at":0,"name":"Wabush Airport","city":"Wabush","country":"CA","runway_length":0,"runway_show":0,"points":"","url":"","address":"","is_web":0},{"area_id":9241,"type":0,"shape":0,"lat":52.836303,"lng":-104.065894,"radius":463,"level":2,"updated_at":1447945800,"begin_at":0,"end_at":0,"name":"Tisdale Airport","city":"Tisdale, sk","country":"CA","runway_length":0,"runway_show":0,"points":"","url":"","address":"","is_web":0},{"area_id":9003,"type":0,"shape":0,"lat":52.816975,"lng":-102.310723,"radius":795,"level":2,"updated_at":1447945800,"begin_at":0,"end_at":0,"name":"Hudson Bay Airport","city":"Hudson Bay","country":"CA","runway_length":0,"runway_show":0,"points":"","url":"","address":"","is_web":0},{"area_id":9178,"type":0,"shape":0,"lat":52.76905,"lng":-108.243064,"radius":764,"level":2,"updated_at":1447945800,"begin_at":0,"end_at":0,"name":"North Battleford Airport","city":"North Battleford","country":"CA","runway_length":0,"runway_show":0,"points":"","url":"","address":"","is_web":0},{"area_id":8597,"type":0,"shape":0,"lat":52.709495,"lng":-88.541858,"radius":788,"level":2,"updated_at":1447945800,"begin_at":0,"end_at":0,"name":"Summer Beaver Airport","city":"Summer Beaver","country":"CA","runway_length":0,"runway_show":0,"points":"","url":"","address":"","is_web":0},{"area_id":8898,"type":0,"shape":0,"lat":52.60891,"lng":-90.377621,"radius":813,"level":2,"updated_at":1447945800,"begin_at":0,"end_at":0,"name":"Opapimiskan Lake Airport","city":"Opapimiskan Lake","country":"CA","runway_length":0,"runway_show":0,"points":"","url":"","address":"","is_web":0},{"area_id":9002,"type":0,"shape":0,"lat":52.528059,"lng":-56.285511,"radius":448,"level":2,"updated_at":1447945800,"begin_at":0,"end_at":0,"name":"Port Hope Simpson Airport","city":"Port Hope Simpson","country":"CA","runway_length":0,"runway_show":0,"points":"","url":"","address":"","is_web":0},{"area_id":8854,"type":0,"shape":0,"lat":52.452247,"lng":-125.302817,"radius":845,"level":2,"updated_at":1447945800,"begin_at":0,"end_at":0,"name":"Anahim Lake Airport","city":"Anahim Lake","country":"CA","runway_length":0,"runway_show":0,"points":"","url":"","address":"","is_web":0},{"area_id":9192,"type":0,"shape":0,"lat":52.429899,"lng":-114.903762,"radius":944,"level":2,"updated_at":1447945800,"begin_at":0,"end_at":0,"name":"Rocky Mountain House Airport","city":"Rocky Mountain House","country":"CA","runway_length":0,"runway_show":0,"points":"","url":"","address":"","is_web":0},{"area_id":5566,"type":0,"shape":0,"lat":52.387695,"lng":-126.595084,"radius":1213,"level":2,"updated_at":1447945800,"begin_at":0,"end_at":0,"name":"Bella Coola Airport","city":"Bella Coola","country":"CA","runway_length":0,"runway_show":0,"points":"","url":"","address":"","is_web":0},{"area_id":8979,"type":0,"shape":0,"lat":52.372771,"lng":-55.674167,"radius":397,"level":2,"updated_at":1447945800,"begin_at":0,"end_at":0,"name":"St. Lewis (Fox Harbour) Airport","city":"St. Lewis","country":"CA","runway_length":0,"runway_show":0,"points":"","url":"","address":"","is_web":0},{"area_id":8900,"type":0,"shape":0,"lat":52.359029,"lng":-97.018437,"radius":598,"level":2,"updated_at":1447945800,"begin_at":0,"end_at":0,"name":"Berens River Airport","city":"Berens River","country":"CA","runway_length":0,"runway_show":0,"points":"","url":"","address":"","is_web":0},{"area_id":9085,"type":0,"shape":0,"lat":52.302778,"lng":-55.847222,"radius":491,"level":2,"updated_at":1447945800,"begin_at":0,"end_at":0,"name":"Mary's Harbour Airport","city":"Mary's Harbour","country":"CA","runway_length":0,"runway_show":0,"points":"","url":"","address":"","is_web":0},{"area_id":8785,"type":0,"shape":0,"lat":52.281949,"lng":-81.676023,"radius":871,"level":2,"updated_at":1447945800,"begin_at":0,"end_at":0,"name":"Kashechewan Airport","city":"Kashechewan","country":"CA","runway_length":0,"runway_show":0,"points":"","url":"","address":"","is_web":0},{"area_id":9128,"type":0,"shape":0,"lat":52.221655,"lng":-76.611881,"radius":995,"level":2,"updated_at":1447945800,"begin_at":0,"end_at":0,"name":"Opinaca Aerodrome Airport","city":"","country":"CA","runway_length":0,"runway_show":0,"points":"","url":"","address":"","is_web":0},{"area_id":9062,"type":0,"shape":0,"lat":52.195593,"lng":-87.933389,"radius":738,"level":2,"updated_at":1447945800,"begin_at":0,"end_at":0,"name":"Lansdowne House Airport","city":"Lansdowne House","country":"CA","runway_length":0,"runway_show":0,"points":"","url":"","address":"","is_web":0},{"area_id":9276,"type":0,"shape":0,"lat":52.183056,"lng":-122.054167,"radius":1283,"level":2,"updated_at":1447945800,"begin_at":0,"end_at":0,"name":"Williams Lake Airport","city":"Williams Lake","country":"CA","runway_length":0,"runway_show":0,"points":"","url":"","address":"","is_web":0},{"area_id":9164,"type":0,"shape":0,"lat":52.182187,"lng":-113.892698,"radius":1342,"level":2,"updated_at":1447945800,"begin_at":0,"end_at":0,"name":"Red Deer Regional Airport","city":"Red Deer","country":"CA","runway_length":0,"runway_show":0,"points":"","url":"","address":"","is_web":0},{"area_id":9286,"type":0,"shape":0,"lat":52.174587,"lng":-106.700485,"radius":2072,"level":2,"updated_at":1447945800,"begin_at":0,"end_at":0,"name":"Saskatoon John G. Diefenbaker International Airport","city":"Saskatoon","country":"CA","runway_length":0,"runway_show":0,"points":"","url":"","address":"","is_web":0},{"area_id":8751,"type":0,"shape":0,"lat":52.13695,"lng":-128.057246,"radius":528,"level":2,"updated_at":1447945800,"begin_at":0,"end_at":0,"name":"Denny Island Airport","city":"Bella Bella","country":"CA","runway_length":0,"runway_show":0,"points":"","url":"","address":"","is_web":0},{"area_id":9758,"type":0,"shape":0,"lat":52.124645,"lng":-119.293061,"radius":997,"level":2,"updated_at":1447945800,"begin_at":0,"end_at":0,"name":"Blue River Airport","city":"Blue River","country":"CA","runway_length":0,"runway_show":0,"points":"","url":"","address":"","is_web":0},{"area_id":8783,"type":0,"shape":0,"lat":52.121598,"lng":-101.233845,"radius":695,"level":2,"updated_at":1447945800,"begin_at":0,"end_at":0,"name":"Swan River Airport","city":"Swan River","country":"CA","runway_length":0,"runway_show":0,"points":"","url":"","address":"","is_web":0},{"area_id":9014,"type":0,"shape":0,"lat":52.113333,"lng":-94.255556,"radius":604,"level":2,"updated_at":1447945800,"begin_at":0,"end_at":0,"name":"Poplar Hill Airport","city":"Poplar Hill","country":"CA","runway_length":0,"runway_show":0,"points":"","url":"","address":"","is_web":0},{"area_id":2813,"type":0,"shape":0,"lat":52.080407,"lng":-114.023931,"radius":957,"level":2,"updated_at":1447945800,"begin_at":0,"end_at":0,"name":"Innisfail Airport","city":"","country":"CA","runway_length":0,"runway_show":0,"points":"","url":"","address":"","is_web":0},{"area_id":8922,"type":0,"shape":0,"lat":52.075279,"lng":-111.445261,"radius":537,"level":2,"updated_at":1447945800,"begin_at":0,"end_at":0,"name":"Coronation Airport","city":"Coronation","country":"CA","runway_length":0,"runway_show":0,"points":"","url":"","address":"","is_web":0},{"area_id":8768,"type":0,"shape":0,"lat":52.045023,"lng":-95.465731,"radius":576,"level":2,"updated_at":1447945800,"begin_at":0,"end_at":0,"name":"Little Grand Rapids Airport","city":"Little Grand Rapids","country":"CA","runway_length":0,"runway_show":0,"points":"","url":"","address":"","is_web":0},{"area_id":8980,"type":0,"shape":0,"lat":51.956286,"lng":-68.13951,"radius":839,"level":2,"updated_at":1447945800,"begin_at":0,"end_at":0,"name":"Gagnon Airport","city":"Gagnon","country":"CA","runway_length":0,"runway_show":0,"points":"","url":"","address":"","is_web":0},{"area_id":9148,"type":0,"shape":0,"lat":51.819984,"lng":-93.973384,"radius":655,"level":2,"updated_at":1447945800,"begin_at":0,"end_at":0,"name":"Pikangikum Airport","city":"Pikangikum","country":"CA","runway_length":0,"runway_show":0,"points":"","url":"","address":"","is_web":0},{"area_id":8947,"type":0,"shape":0,"lat":51.784417,"lng":-96.692653,"radius":581,"level":2,"updated_at":1447945800,"begin_at":0,"end_at":0,"name":"Bloodvein River Airport","city":"Bloodvein River","country":"CA","runway_length":0,"runway_show":0,"points":"","url":"","address":"","is_web":0},{"area_id":8796,"type":0,"shape":0,"lat":51.742483,"lng":-121.33805,"radius":1002,"level":2,"updated_at":1447945800,"begin_at":0,"end_at":0,"name":"South Cariboo Region / 108 Mile Airport","city":"108 Mile","country":"CA","runway_length":0,"runway_show":0,"points":"","url":"","address":"","is_web":0},{"area_id":8856,"type":0,"shape":0,"lat":51.726965,"lng":-91.824989,"radius":736,"level":2,"updated_at":1447945800,"begin_at":0,"end_at":0,"name":"Cat Lake Airport","city":"Cat Lake","country":"CA","runway_length":0,"runway_show":0,"points":"","url":"","address":"","is_web":0},{"area_id":9117,"type":0,"shape":0,"lat":51.690877,"lng":-76.136856,"radius":944,"level":2,"updated_at":1447945800,"begin_at":0,"end_at":0,"name":"Nemiscau Airport","city":"Nemiscau","country":"CA","runway_length":0,"runway_show":0,"points":"","url":"","address":"","is_web":0},{"area_id":1853,"type":0,"shape":0,"lat":51.626157,"lng":-124.144345,"radius":535,"level":2,"updated_at":1447945800,"begin_at":0,"end_at":0,"name":"Chilko Lake Airport","city":"Chilko Lake","country":"CA","runway_length":0,"runway_show":0,"points":"","url":"","address":"","is_web":0},{"area_id":8972,"type":0,"shape":0,"lat":51.561551,"lng":-87.908412,"radius":824,"level":2,"updated_at":1447945800,"begin_at":0,"end_at":0,"name":"Fort Hope Airport","city":"Fort Hope","country":"CA","runway_length":0,"runway_show":0,"points":"","url":"","address":"","is_web":0},{"area_id":9053,"type":0,"shape":0,"lat":51.517695,"lng":-109.179805,"radius":870,"level":2,"updated_at":1447945800,"begin_at":0,"end_at":0,"name":"Kindersley Airport","city":"Kindersley","country":"CA","runway_length":0,"runway_show":0,"points":"","url":"","address":"","is_web":0},{"area_id":9147,"type":0,"shape":0,"lat":51.446463,"lng":-90.215175,"radius":896,"level":2,"updated_at":1447945800,"begin_at":0,"end_at":0,"name":"Pickle Lake Airport","city":"Pickle Lake","country":"CA","runway_length":0,"runway_show":0,"points":"","url":"","address":"","is_web":0},{"area_id":9761,"type":0,"shape":0,"lat":51.299028,"lng":-116.982867,"radius":918,"level":2,"updated_at":1447945800,"begin_at":0,"end_at":0,"name":"Golden Airport","city":"Golden","country":"CA","runway_length":0,"runway_show":0,"points":"","url":"","address":"","is_web":0},{"area_id":9092,"type":0,"shape":0,"lat":51.296909,"lng":-80.607176,"radius":1316,"level":2,"updated_at":1447945800,"begin_at":0,"end_at":0,"name":"Moosonee Airport","city":"Moosonee","country":"CA","runway_length":0,"runway_show":0,"points":"","url":"","address":"","is_web":0},{"area_id":9177,"type":0,"shape":0,"lat":51.264383,"lng":-102.460062,"radius":805,"level":2,"updated_at":1447945800,"begin_at":0,"end_at":0,"name":"Yorkton Municipal Airport","city":"Yorkton","country":"CA","runway_length":0,"runway_show":0,"points":"","url":"","address":"","is_web":0},{"area_id":9022,"type":0,"shape":0,"lat":51.211283,"lng":-58.658682,"radius":1473,"level":2,"updated_at":1447945800,"begin_at":0,"end_at":0,"name":"St Augustin Airport","city":"St-Augustin","country":"CA","runway_length":0,"runway_show":0,"points":"","url":"","address":"","is_web":0},{"area_id":8566,"type":0,"shape":0,"lat":51.134018,"lng":-113.559806,"radius":884,"level":2,"updated_at":1447945800,"begin_at":0,"end_at":0,"name":"Strathmore Airport","city":"","country":"CA","runway_length":0,"runway_show":0,"points":"","url":"","address":"","is_web":0},{"area_id":9305,"type":0,"shape":0,"lat":51.129155,"lng":-114.010198,"radius":2941,"level":2,"updated_at":1447945800,"begin_at":0,"end_at":0,"name":"Calgary International Airport","city":"Calgary","country":"CA","runway_length":0,"runway_show":0,"points":"","url":"","address":"","is_web":0},{"area_id":9757,"type":0,"shape":0,"lat":51.104428,"lng":-114.372644,"radius":1246,"level":2,"updated_at":1447945800,"begin_at":0,"end_at":0,"name":"Springbank Airport","city":"Calgary","country":"CA","runway_length":0,"runway_show":0,"points":"","url":"","address":"","is_web":0},{"area_id":8940,"type":0,"shape":0,"lat":51.1013,"lng":-100.053463,"radius":841,"level":2,"updated_at":1447945800,"begin_at":0,"end_at":0,"name":"Dauphin Barker Airport","city":"Dauphin","country":"CA","runway_length":0,"runway_show":0,"points":"","url":"","address":"","is_web":0},{"area_id":32014,"type":0,"shape":0,"lat":51.078886,"lng":-115.337777,"radius":3000,"level":2,"updated_at":1459852680,"begin_at":0,"end_at":0,"name":"Canmore Municipal Heliport ","city":"Canmore","country":"CA","runway_length":0,"runway_show":0,"points":"{\"gcj\":[\"51.078885641765,-115.33777713776\"],\"wgs\":[\"51.078885641765,-115.33777713776\"]}","url":"","address":"","is_web":0},{"area_id":9191,"type":0,"shape":0,"lat":51.067429,"lng":-93.790867,"radius":1426,"level":2,"updated_at":1447945800,"begin_at":0,"end_at":0,"name":"Red Lake Airport","city":"Red Lake","country":"CA","runway_length":0,"runway_show":0,"points":"","url":"","address":"","is_web":0},{"area_id":9198,"type":0,"shape":0,"lat":50.963868,"lng":-118.181904,"radius":975,"level":2,"updated_at":1447945800,"begin_at":0,"end_at":0,"name":"Revelstoke Airport","city":"Revelstoke","country":"CA","runway_length":0,"runway_show":0,"points":"","url":"","address":"","is_web":0},{"area_id":8793,"type":0,"shape":0,"lat":50.830853,"lng":-58.975592,"radius":347,"level":2,"updated_at":1447945800,"begin_at":0,"end_at":0,"name":"La Tabatière Airport","city":"La Tabatière","country":"CA","runway_length":0,"runway_show":0,"points":"","url":"","address":"","is_web":0},{"area_id":9037,"type":0,"shape":0,"lat":50.703255,"lng":-120.448295,"radius":1540,"level":2,"updated_at":1447945800,"begin_at":0,"end_at":0,"name":"Kamloops Airport","city":"Kamloops","country":"CA","runway_length":0,"runway_show":0,"points":"","url":"","address":"","is_web":0},{"area_id":9333,"type":0,"shape":0,"lat":50.679549,"lng":-127.36603,"radius":984,"level":2,"updated_at":1447945800,"begin_at":0,"end_at":0,"name":"Port Hardy Airport","city":"Port Hardy","country":"CA","runway_length":0,"runway_show":0,"points":"","url":"","address":"","is_web":0},{"area_id":8832,"type":0,"shape":0,"lat":50.674494,"lng":-59.383613,"radius":293,"level":2,"updated_at":1447945800,"begin_at":0,"end_at":0,"name":"Tête-à-la-Baleine Airport","city":"Tête-à-la-Baleine","country":"CA","runway_length":0,"runway_show":0,"points":"","url":"","address":"","is_web":0},{"area_id":8989,"type":0,"shape":0,"lat":50.627711,"lng":-97.045869,"radius":1354,"level":2,"updated_at":1447945800,"begin_at":0,"end_at":0,"name":"Gimli Industrial Park Airport","city":"Gimli","country":"CA","runway_length":0,"runway_show":0,"points":"","url":"","address":"","is_web":0},{"area_id":8865,"type":0,"shape":0,"lat":50.582442,"lng":-126.91571,"radius":482,"level":2,"updated_at":1447945800,"begin_at":0,"end_at":0,"name":"Alert Bay Airport","city":"Alert Bay","country":"CA","runway_length":0,"runway_show":0,"points":"","url":"","address":"","is_web":0},{"area_id":9093,"type":0,"shape":0,"lat":50.575221,"lng":-127.028791,"radius":800,"level":2,"updated_at":1447945800,"begin_at":0,"end_at":0,"name":"Port McNeil Airport","city":"Port McNeil","country":"CA","runway_length":0,"runway_show":0,"points":"","url":"","address":"","is_web":0},{"area_id":9173,"type":0,"shape":0,"lat":50.433131,"lng":-104.665239,"radius":1714,"level":2,"updated_at":1447945800,"begin_at":0,"end_at":0,"name":"Regina International Airport","city":"Regina","country":"CA","runway_length":0,"runway_show":0,"points":"","url":"","address":"","is_web":0},{"area_id":2289,"type":0,"shape":0,"lat":50.418992,"lng":-102.934999,"radius":358,"level":2,"updated_at":1447945800,"begin_at":0,"end_at":0,"name":"Grenfell Airport","city":"Grenfell","country":"CA","runway_length":0,"runway_show":0,"points":"","url":"","address":"","is_web":0},{"area_id":8928,"type":0,"shape":0,"lat":50.330332,"lng":-115.873635,"radius":1060,"level":2,"updated_at":1447945800,"begin_at":0,"end_at":0,"name":"Fairmont Hot Springs Airport","city":"Fairmont Hot Springs","country":"CA","runway_length":0,"runway_show":0,"points":"","url":"","address":"","is_web":0},{"area_id":9755,"type":0,"shape":0,"lat":50.294179,"lng":-96.010079,"radius":631,"level":2,"updated_at":1447945800,"begin_at":0,"end_at":0,"name":"Lac Du Bonnet Airport","city":"Lac du Bonnet","country":"CA","runway_length":0,"runway_show":0,"points":"","url":"","address":"","is_web":0},{"area_id":9314,"type":0,"shape":0,"lat":50.29116,"lng":-107.690727,"radius":680,"level":2,"updated_at":1447945800,"begin_at":0,"end_at":0,"name":"Swift Current Airport","city":"Swift Current","country":"CA","runway_length":0,"runway_show":0,"points":"","url":"","address":"","is_web":0},{"area_id":9070,"type":0,"shape":0,"lat":50.289511,"lng":-64.145496,"radius":1113,"level":2,"updated_at":1447945800,"begin_at":0,"end_at":0,"name":"Mingan Airport","city":"Mingan","country":"CA","runway_length":0,"runway_show":0,"points":"","url":"","address":"","is_web":0},{"area_id":8769,"type":0,"shape":0,"lat":50.25983,"lng":-60.673391,"radius":707,"level":2,"updated_at":1447945800,"begin_at":0,"end_at":0,"name":"Gethsemani Airport","city":"Gethsemani","country":"CA","runway_length":0,"runway_show":0,"points":"","url":"","address":"","is_web":0},{"area_id":9260,"type":0,"shape":0,"lat":50.246953,"lng":-119.330913,"radius":582,"level":2,"updated_at":1447945800,"begin_at":0,"end_at":0,"name":"Vernon Airport","city":"Vernon","country":"CA","runway_length":0,"runway_show":0,"points":"","url":"","address":"","is_web":0},{"area_id":9335,"type":0,"shape":0,"lat":50.226079,"lng":-66.266243,"radius":1952,"level":2,"updated_at":1447945800,"begin_at":0,"end_at":0,"name":"Sept-Îles Airport","city":"Sept-Îles","country":"CA","runway_length":0,"runway_show":0,"points":"","url":"","address":"","is_web":0},{"area_id":8786,"type":0,"shape":0,"lat":50.195833,"lng":-61.265833,"radius":381,"level":2,"updated_at":1447945800,"begin_at":0,"end_at":0,"name":"Kegaska Airport","city":"Kegaska","country":"CA","runway_length":0,"runway_show":0,"points":"","url":"","address":"","is_web":0},{"area_id":9101,"type":0,"shape":0,"lat":50.190154,"lng":-61.788973,"radius":766,"level":2,"updated_at":1447945800,"begin_at":0,"end_at":0,"name":"Natashquan Airport","city":"Natashquan","country":"CA","runway_length":0,"runway_show":0,"points":"","url":"","address":"","is_web":0},{"area_id":9171,"type":0,"shape":0,"lat":50.183053,"lng":-86.698012,"radius":656,"level":2,"updated_at":1447945800,"begin_at":0,"end_at":0,"name":"Nakina Airport","city":"Nakina","country":"CA","runway_length":0,"runway_show":0,"points":"","url":"","address":"","is_web":0},{"area_id":9292,"type":0,"shape":0,"lat":50.113036,"lng":-91.904506,"radius":1248,"level":2,"updated_at":1447945800,"begin_at":0,"end_at":0,"name":"Sioux Lookout Airport","city":"Sioux Lookout","country":"CA","runway_length":0,"runway_show":0,"points":"","url":"","address":"","is_web":0},{"area_id":9754,"type":0,"shape":0,"lat":50.056946,"lng":-97.030281,"radius":1020,"level":2,"updated_at":1447945800,"begin_at":0,"end_at":0,"name":"St. Andrews Airport","city":"Saint Andrews","country":"CA","runway_length":0,"runway_show":0,"points":"","url":"","address":"","is_web":0},{"area_id":9288,"type":0,"shape":0,"lat":50.019182,"lng":-110.721335,"radius":769,"level":2,"updated_at":1447945800,"begin_at":0,"end_at":0,"name":"Medicine Hat Airport","city":"Medicine Hat","country":"CA","runway_length":0,"runway_show":0,"points":"","url":"","address":"","is_web":0},{"area_id":9086,"type":0,"shape":0,"lat":49.971527,"lng":-94.700162,"radius":490,"level":2,"updated_at":1447945800,"begin_at":0,"end_at":0,"name":"Minaki Airport","city":"Minaki","country":"CA","runway_length":0,"runway_show":0,"points":"","url":"","address":"","is_web":0},{"area_id":9075,"type":0,"shape":0,"lat":49.956928,"lng":-119.378731,"radius":1692,"level":2,"updated_at":1447945800,"begin_at":0,"end_at":0,"name":"Kelowna International Airport","city":"Kelowna","country":"CA","runway_length":0,"runway_show":0,"points":"","url":"","address":"","is_web":0},{"area_id":8891,"type":0,"shape":0,"lat":49.950287,"lng":-125.27027,"radius":933,"level":2,"updated_at":1447945800,"begin_at":0,"end_at":0,"name":"Campbell River Airport","city":"Campbell River","country":"CA","runway_length":0,"runway_show":0,"points":"","url":"","address":"","is_web":0},{"area_id":9272,"type":0,"shape":0,"lat":49.909828,"lng":-97.236546,"radius":1780,"level":2,"updated_at":1447945800,"begin_at":0,"end_at":0,"name":"Winnipeg / James Armstrong Richardson International Airport","city":"Winnipeg","country":"CA","runway_length":0,"runway_show":0,"points":"","url":"","address":"","is_web":0},{"area_id":8897,"type":0,"shape":0,"lat":49.907223,"lng":-99.951903,"radius":1041,"level":2,"updated_at":1447945800,"begin_at":0,"end_at":0,"name":"Brandon Municipal Airport","city":"Brandon","country":"CA","runway_length":0,"runway_show":0,"points":"","url":"","address":"","is_web":0},{"area_id":8288,"type":0,"shape":0,"lat":49.903814,"lng":-98.270477,"radius":1355,"level":2,"updated_at":1447945800,"begin_at":0,"end_at":0,"name":"Southport Airport","city":"Portage","country":"CA","runway_length":0,"runway_show":0,"points":"","url":"","address":"","is_web":0},{"area_id":9149,"type":0,"shape":0,"lat":49.83656,"lng":-64.293513,"radius":1760,"level":2,"updated_at":1447945800,"begin_at":0,"end_at":0,"name":"Port Menier Airport","city":"Port-Menier","country":"CA","runway_length":0,"runway_show":0,"points":"","url":"","address":"","is_web":0},{"area_id":9156,"type":0,"shape":0,"lat":49.83391,"lng":-124.499586,"radius":663,"level":2,"updated_at":1447945800,"begin_at":0,"end_at":0,"name":"Powell River Airport","city":"Powell River","country":"CA","runway_length":0,"runway_show":0,"points":"","url":"","address":"","is_web":0},{"area_id":9005,"type":0,"shape":0,"lat":49.831667,"lng":-92.744167,"radius":935,"level":2,"updated_at":1447945800,"begin_at":0,"end_at":0,"name":"Dryden Regional Airport","city":"Dryden","country":"CA","runway_length":0,"runway_show":0,"points":"","url":"","address":"","is_web":0},{"area_id":9168,"type":0,"shape":0,"lat":49.7885,"lng":-94.36277,"radius":1253,"level":2,"updated_at":1447945800,"begin_at":0,"end_at":0,"name":"Kenora Airport","city":"Kenora","country":"CA","runway_length":0,"runway_show":0,"points":"","url":"","address":"","is_web":0},{"area_id":9203,"type":0,"shape":0,"lat":49.781555,"lng":-123.161385,"radius":683,"level":2,"updated_at":1447945800,"begin_at":0,"end_at":0,"name":"Squamish Airport","city":"Squamish","country":"CA","runway_length":0,"runway_show":0,"points":"","url":"","address":"","is_web":0},{"area_id":9096,"type":0,"shape":0,"lat":49.772105,"lng":-74.529093,"radius":1216,"level":2,"updated_at":1447945800,"begin_at":0,"end_at":0,"name":"Chapais Airport","city":"Chibougamau","country":"CA","runway_length":0,"runway_show":0,"points":"","url":"","address":"","is_web":0},{"area_id":9007,"type":0,"shape":0,"lat":49.713629,"lng":-83.687061,"radius":801,"level":2,"updated_at":1447945800,"begin_at":0,"end_at":0,"name":"Hearst René Fontaine Municipal Airport","city":"Hearst","country":"CA","runway_length":0,"runway_show":0,"points":"","url":"","address":"","is_web":0},{"area_id":9172,"type":0,"shape":0,"lat":49.711192,"lng":-124.888092,"radius":2095,"level":2,"updated_at":1447945800,"begin_at":0,"end_at":0,"name":"Comox Airport","city":"Comox","country":"CA","runway_length":0,"runway_show":0,"points":"","url":"","address":"","is_web":0},{"area_id":8981,"type":0,"shape":0,"lat":49.694273,"lng":-124.517535,"radius":940,"level":2,"updated_at":1447945800,"begin_at":0,"end_at":0,"name":"Texada Gillies Bay Airport","city":"Texada","country":"CA","runway_length":0,"runway_show":0,"points":"","url":"","address":"","is_web":0},{"area_id":8904,"type":0,"shape":0,"lat":49.679342,"lng":-124.980414,"radius":365,"level":2,"updated_at":1447945800,"begin_at":0,"end_at":0,"name":"Courtenay Airport","city":"Courtenay","country":"CA","runway_length":0,"runway_show":0,"points":"","url":"","address":"","is_web":0},{"area_id":9169,"type":0,"shape":0,"lat":49.628958,"lng":-112.799568,"radius":1306,"level":2,"updated_at":1447945800,"begin_at":0,"end_at":0,"name":"Lethbridge County Airport","city":"Lethbridge","country":"CA","runway_length":0,"runway_show":0,"points":"","url":"","address":"","is_web":0},{"area_id":9284,"type":0,"shape":0,"lat":49.612145,"lng":-115.781875,"radius":1412,"level":2,"updated_at":1447945800,"begin_at":0,"end_at":0,"name":"Cranbrook Airport","city":"Cranbrook","country":"CA","runway_length":0,"runway_show":0,"points":"","url":"","address":"","is_web":0},{"area_id":8026,"type":0,"shape":0,"lat":49.520556,"lng":-113.997222,"radius":1166,"level":2,"updated_at":1447945800,"begin_at":0,"end_at":0,"name":"Pincher Creek Airport","city":"Pincher Creek","country":"CA","runway_length":0,"runway_show":0,"points":"","url":"","address":"","is_web":0},{"area_id":9308,"type":0,"shape":0,"lat":49.462498,"lng":-119.602694,"radius":963,"level":2,"updated_at":1447945800,"begin_at":0,"end_at":0,"name":"Penticton Airport","city":"Penticton","country":"CA","runway_length":0,"runway_show":0,"points":"","url":"","address":"","is_web":0},{"area_id":8838,"type":0,"shape":0,"lat":49.428494,"lng":-91.719583,"radius":637,"level":2,"updated_at":1447945800,"begin_at":0,"end_at":0,"name":"Ignace Municipal Airport","city":"Ignace","country":"CA","runway_length":0,"runway_show":0,"points":"","url":"","address":"","is_web":0},{"area_id":9318,"type":0,"shape":0,"lat":49.411522,"lng":-82.469091,"radius":970,"level":2,"updated_at":1447945800,"begin_at":0,"end_at":0,"name":"Kapuskasing Airport","city":"Kapuskasing","country":"CA","runway_length":0,"runway_show":0,"points":"","url":"","address":"","is_web":0},{"area_id":7820,"type":0,"shape":0,"lat":49.337474,"lng":-124.393296,"radius":694,"level":2,"updated_at":1447945800,"begin_at":0,"end_at":0,"name":"Qualicum Airport","city":"Qualicum","country":"CA","runway_length":0,"runway_show":0,"points":"","url":"","address":"","is_web":0},{"area_id":9139,"type":0,"shape":0,"lat":49.32172,"lng":-124.930639,"radius":834,"level":2,"updated_at":1447945800,"begin_at":0,"end_at":0,"name":"Alberni Valley Regional Airport","city":"Port Alberni, BC","country":"CA","runway_length":0,"runway_show":0,"points":"","url":"","address":"","is_web":0},{"area_id":8910,"type":0,"shape":0,"lat":49.295931,"lng":-117.632284,"radius":959,"level":2,"updated_at":1447945800,"begin_at":0,"end_at":0,"name":"Castlegar/West Kootenay Regional Airport","city":"Castlegar","country":"CA","runway_length":0,"runway_show":0,"points":"","url":"","address":"","is_web":0},{"area_id":8933,"type":0,"shape":0,"lat":49.211141,"lng":-57.390994,"radius":983,"level":2,"updated_at":1447945800,"begin_at":0,"end_at":0,"name":"Deer Lake Airport","city":"Deer Lake","country":"CA","runway_length":0,"runway_show":0,"points":"","url":"","address":"","is_web":0},{"area_id":8959,"type":0,"shape":0,"lat":49.209382,"lng":-102.965468,"radius":867,"level":2,"updated_at":1447945800,"begin_at":0,"end_at":0,"name":"Estevan Airport","city":"Estevan","country":"CA","runway_length":0,"runway_show":0,"points":"","url":"","address":"","is_web":0},{"area_id":9266,"type":0,"shape":0,"lat":49.19669,"lng":-123.181511,"radius":2306,"level":2,"updated_at":1447945800,"begin_at":0,"end_at":0,"name":"Vancouver International Airport","city":"Vancouver","country":"CA","runway_length":0,"runway_show":0,"points":"","url":"","address":"","is_web":0},{"area_id":9012,"type":0,"shape":0,"lat":49.192643,"lng":-84.759951,"radius":752,"level":2,"updated_at":1447945800,"begin_at":0,"end_at":0,"name":"Hornepayne Municipal Airport","city":"Hornepayne","country":"CA","runway_length":0,"runway_show":0,"points":"","url":"","address":"","is_web":0},{"area_id":8925,"type":0,"shape":0,"lat":49.154203,"lng":-121.940928,"radius":856,"level":2,"updated_at":1447945800,"begin_at":0,"end_at":0,"name":"Chilliwack Airport","city":"Chilliwack","country":"CA","runway_length":0,"runway_show":0,"points":"","url":"","address":"","is_web":0},{"area_id":8882,"type":0,"shape":0,"lat":49.133174,"lng":-68.203672,"radius":1331,"level":2,"updated_at":1447945800,"begin_at":0,"end_at":0,"name":"Baie Comeau Airport","city":"Baie-Comeau","country":"CA","runway_length":0,"runway_show":0,"points":"","url":"","address":"","is_web":0},{"area_id":9077,"type":0,"shape":0,"lat":49.100427,"lng":-122.62815,"radius":381,"level":2,"updated_at":1447945800,"begin_at":0,"end_at":0,"name":"Langley Airport","city":"Langley","country":"CA","runway_length":0,"runway_show":0,"points":"","url":"","address":"","is_web":0},{"area_id":9084,"type":0,"shape":0,"lat":49.083889,"lng":-85.860556,"radius":652,"level":2,"updated_at":1447945800,"begin_at":0,"end_at":0,"name":"Manitouwadge Airport","city":"Manitouwadge","country":"CA","runway_length":0,"runway_show":0,"points":"","url":"","address":"","is_web":0},{"area_id":8879,"type":0,"shape":0,"lat":49.081511,"lng":-125.773273,"radius":1110,"level":2,"updated_at":1447945800,"begin_at":0,"end_at":0,"name":"Tofino / Long Beach Airport","city":"Tofino","country":"CA","runway_length":0,"runway_show":0,"points":"","url":"","address":"","is_web":0},{"area_id":9767,"type":0,"shape":0,"lat":49.075665,"lng":-123.008423,"radius":1151,"level":2,"updated_at":1447945800,"begin_at":0,"end_at":0,"name":"Boundary Bay Airport","city":"Vancouver","country":"CA","runway_length":0,"runway_show":0,"points":"","url":"","address":"","is_web":0},{"area_id":8907,"type":0,"shape":0,"lat":49.054805,"lng":-123.869865,"radius":1123,"level":2,"updated_at":1447945800,"begin_at":0,"end_at":0,"name":"Nanaimo Airport","city":"Nanaimo","country":"CA","runway_length":0,"runway_show":0,"points":"","url":"","address":"","is_web":0},{"area_id":1773,"type":0,"shape":0,"lat":49.036599,"lng":-116.498034,"radius":704,"level":2,"updated_at":1447945800,"begin_at":0,"end_at":0,"name":"Creston Valley Regional Airport","city":"Creston, BC","country":"CA","runway_length":0,"runway_show":0,"points":"","url":"","address":"","is_web":0},{"area_id":9073,"type":0,"shape":0,"lat":49.029999,"lng":-77.016945,"radius":930,"level":2,"updated_at":1447945800,"begin_at":0,"end_at":0,"name":"Lebel-Sur-Quevillon Airport","city":"Lebel-Sur-Quevillon","country":"CA","runway_length":0,"runway_show":0,"points":"","url":"","address":"","is_web":0},{"area_id":9300,"type":0,"shape":0,"lat":49.023884,"lng":-122.360334,"radius":1657,"level":2,"updated_at":1447945800,"begin_at":0,"end_at":0,"name":"Abbotsford Airport","city":"Abbotsford","country":"CA","runway_length":0,"runway_show":0,"points":"","url":"","address":"","is_web":0},{"area_id":9179,"type":0,"shape":0,"lat":48.939282,"lng":-54.568996,"radius":2469,"level":2,"updated_at":1447945800,"begin_at":0,"end_at":0,"name":"Gander International Airport","city":"Gander","country":"CA","runway_length":0,"runway_show":0,"points":"","url":"","address":"","is_web":0},{"area_id":9082,"type":0,"shape":0,"lat":48.855852,"lng":-67.45276,"radius":1049,"level":2,"updated_at":1447945800,"begin_at":0,"end_at":0,"name":"Matane Airport","city":"Matane","country":"CA","runway_length":0,"runway_show":0,"points":"","url":"","address":"","is_web":0},{"area_id":8992,"type":0,"shape":0,"lat":48.775245,"lng":-64.480644,"radius":1132,"level":2,"updated_at":1447945800,"begin_at":0,"end_at":0,"name":"Gaspé (Michel-Pouliot) Airport","city":"Gaspé","country":"CA","runway_length":0,"runway_show":0,"points":"","url":"","address":"","is_web":0},{"area_id":9021,"type":0,"shape":0,"lat":48.773888,"lng":-91.638611,"radius":610,"level":2,"updated_at":1447945800,"begin_at":0,"end_at":0,"name":"Atikokan Municipal Airport","city":"Atikokan","country":"CA","runway_length":0,"runway_show":0,"points":"","url":"","address":"","is_web":0},{"area_id":9214,"type":0,"shape":0,"lat":48.757097,"lng":-86.346532,"radius":811,"level":2,"updated_at":1447945800,"begin_at":0,"end_at":0,"name":"Marathon Airport","city":"Marathon","country":"CA","runway_length":0,"runway_show":0,"points":"","url":"","address":"","is_web":0},{"area_id":8970,"type":0,"shape":0,"lat":48.745658,"lng":-69.100398,"radius":1272,"level":2,"updated_at":1447945800,"begin_at":0,"end_at":0,"name":"Forestville Airport","city":"Forestville","country":"CA","runway_length":0,"runway_show":0,"points":"","url":"","address":"","is_web":0},{"area_id":8860,"type":0,"shape":0,"lat":48.654224,"lng":-93.440323,"radius":762,"level":2,"updated_at":1447945800,"begin_at":0,"end_at":0,"name":"Fort Frances Municipal Airport","city":"Fort Frances","country":"CA","runway_length":0,"runway_show":0,"points":"","url":"","address":"","is_web":0},{"area_id":9311,"type":0,"shape":0,"lat":48.647762,"lng":-123.426255,"radius":1514,"level":2,"updated_at":1447945800,"begin_at":0,"end_at":0,"name":"Victoria International Airport","city":"Victoria","country":"CA","runway_length":0,"runway_show":0,"points":"","url":"","address":"","is_web":0},{"area_id":9320,"type":0,"shape":0,"lat":48.60949,"lng":-68.206491,"radius":1022,"level":2,"updated_at":1447945800,"begin_at":0,"end_at":0,"name":"Mont Joli Airport","city":"Mont-Joli","country":"CA","runway_length":0,"runway_show":0,"points":"","url":"","address":"","is_web":0},{"area_id":9240,"type":0,"shape":0,"lat":48.572344,"lng":-81.373944,"radius":1364,"level":2,"updated_at":1447945800,"begin_at":0,"end_at":0,"name":"Timmins/Victor M. Power Airport","city":"Timmins","country":"CA","runway_length":0,"runway_show":0,"points":"","url":"","address":"","is_web":0},{"area_id":8966,"type":0,"shape":0,"lat":48.565,"lng":-78.249167,"radius":1029,"level":2,"updated_at":1447945800,"begin_at":0,"end_at":0,"name":"Amos Magny Airport","city":"Amos","country":"CA","runway_length":0,"runway_show":0,"points":"","url":"","address":"","is_web":0},{"area_id":9036,"type":0,"shape":0,"lat":48.546671,"lng":-58.550928,"radius":2004,"level":2,"updated_at":1447945800,"begin_at":0,"end_at":0,"name":"Stephenville Airport","city":"Stephenville","country":"CA","runway_length":0,"runway_show":0,"points":"","url":"","address":"","is_web":0},{"area_id":9190,"type":0,"shape":0,"lat":48.519431,"lng":-72.265684,"radius":853,"level":2,"updated_at":1447945800,"begin_at":0,"end_at":0,"name":"Roberval Airport","city":"Roberval","country":"CA","runway_length":0,"runway_show":0,"points":"","url":"","address":"","is_web":0},{"area_id":9291,"type":0,"shape":0,"lat":48.4783,"lng":-68.497571,"radius":790,"level":2,"updated_at":1447945800,"begin_at":0,"end_at":0,"name":"Rimouski Airport","city":"Rimouski","country":"CA","runway_length":0,"runway_show":0,"points":"","url":"","address":"","is_web":0},{"area_id":9175,"type":0,"shape":0,"lat":48.373291,"lng":-89.323962,"radius":1299,"level":2,"updated_at":1447945800,"begin_at":0,"end_at":0,"name":"Thunder Bay Airport","city":"Thunder Bay","country":"CA","runway_length":0,"runway_show":0,"points":"","url":"","address":"","is_web":0},{"area_id":8886,"type":0,"shape":0,"lat":48.333816,"lng":-70.997811,"radius":1986,"level":2,"updated_at":1447945800,"begin_at":0,"end_at":0,"name":"CFB Bagotville Airport","city":"Bagotville","country":"CA","runway_length":0,"runway_show":0,"points":"","url":"","address":"","is_web":0},{"area_id":9052,"type":0,"shape":0,"lat":48.210536,"lng":-79.980818,"radius":1087,"level":2,"updated_at":1447945800,"begin_at":0,"end_at":0,"name":"Kirkland Lake Airport","city":"Kirkland Lake","country":"CA","runway_length":0,"runway_show":0,"points":"","url":"","address":"","is_web":0},{"area_id":9255,"type":0,"shape":0,"lat":48.206815,"lng":-78.835441,"radius":1405,"level":2,"updated_at":1447945800,"begin_at":0,"end_at":0,"name":"Rouyn Noranda Airport","city":"Rouyn-Noranda","country":"CA","runway_length":0,"runway_show":0,"points":"","url":"","address":"","is_web":0},{"area_id":9257,"type":0,"shape":0,"lat":48.07048,"lng":-65.460284,"radius":1038,"level":2,"updated_at":1447945800,"begin_at":0,"end_at":0,"name":"Bonaventure Airport","city":"Bonaventure","country":"CA","runway_length":0,"runway_show":0,"points":"","url":"","address":"","is_web":0},{"area_id":9263,"type":0,"shape":0,"lat":48.054349,"lng":-77.783005,"radius":2003,"level":2,"updated_at":1447945800,"begin_at":0,"end_at":0,"name":"Val-d'Or Airport","city":"Val-d'Or","country":"CA","runway_length":0,"runway_show":0,"points":"","url":"","address":"","is_web":0},{"area_id":8915,"type":0,"shape":0,"lat":47.990555,"lng":-66.33139,"radius":1097,"level":2,"updated_at":1447945800,"begin_at":0,"end_at":0,"name":"Charlo Airport","city":"Charlo","country":"CA","runway_length":0,"runway_show":0,"points":"","url":"","address":"","is_web":0},{"area_id":9302,"type":0,"shape":0,"lat":47.967102,"lng":-84.785928,"radius":918,"level":2,"updated_at":1447945800,"begin_at":0,"end_at":0,"name":"Wawa Airport","city":"Wawa","country":"CA","runway_length":0,"runway_show":0,"points":"","url":"","address":"","is_web":0},{"area_id":9058,"type":0,"shape":0,"lat":47.821891,"lng":-83.349257,"radius":1004,"level":2,"updated_at":1447945800,"begin_at":0,"end_at":0,"name":"Chapleau Airport","city":"Chapleau","country":"CA","runway_length":0,"runway_show":0,"points":"","url":"","address":"","is_web":0},{"area_id":9189,"type":0,"shape":0,"lat":47.763532,"lng":-69.58457,"radius":1076,"level":2,"updated_at":1447945800,"begin_at":0,"end_at":0,"name":"Rivière-du-Loup Airport","city":"Rivière-du-Loup","country":"CA","runway_length":0,"runway_show":0,"points":"","url":"","address":"","is_web":0},{"area_id":9296,"type":0,"shape":0,"lat":47.697568,"lng":-79.847053,"radius":974,"level":2,"updated_at":1447945800,"begin_at":0,"end_at":0,"name":"Earlton (Timiskaming Regional) Airport","city":"Earlton","country":"CA","runway_length":0,"runway_show":0,"points":"","url":"","address":"","is_web":0},{"area_id":9317,"type":0,"shape":0,"lat":47.621212,"lng":-52.751369,"radius":2211,"level":2,"updated_at":1447945800,"begin_at":0,"end_at":0,"name":"St. John's International Airport","city":"St. John's","country":"CA","runway_length":0,"runway_show":0,"points":"","url":"","address":"","is_web":0},{"area_id":9071,"type":0,"shape":0,"lat":47.408224,"lng":-72.788074,"radius":1167,"level":2,"updated_at":1447945800,"begin_at":0,"end_at":0,"name":"La Tuque Airport","city":"La Tuque","country":"CA","runway_length":0,"runway_show":0,"points":"","url":"","address":"","is_web":0},{"area_id":9210,"type":0,"shape":0,"lat":47.157297,"lng":-67.836011,"radius":707,"level":2,"updated_at":1447945800,"begin_at":0,"end_at":0,"name":"St Leonard Airport","city":"St Leonard","country":"CA","runway_length":0,"runway_show":0,"points":"","url":"","address":"","is_web":0},{"area_id":8911,"type":0,"shape":0,"lat":47.009137,"lng":-65.457013,"radius":1794,"level":2,"updated_at":1447945800,"begin_at":0,"end_at":0,"name":"Miramichi Airport","city":"Miramichi","country":"CA","runway_length":0,"runway_show":0,"points":"","url":"","address":"","is_web":0},{"area_id":9161,"type":0,"shape":0,"lat":46.790243,"lng":-71.391401,"radius":1415,"level":2,"updated_at":1447945800,"begin_at":0,"end_at":0,"name":"Quebec Jean Lesage International Airport","city":"Quebec","country":"CA","runway_length":0,"runway_show":0,"points":"","url":"","address":"","is_web":0},{"area_id":9219,"type":0,"shape":0,"lat":46.440507,"lng":-63.831847,"radius":1337,"level":2,"updated_at":1447945800,"begin_at":0,"end_at":0,"name":"Summerside Airport","city":"Summerside","country":"CA","runway_length":0,"runway_show":0,"points":"","url":"","address":"","is_web":0},{"area_id":8950,"type":0,"shape":0,"lat":46.419279,"lng":-84.095401,"radius":771,"level":2,"updated_at":1447945800,"begin_at":0,"end_at":0,"name":"Bar River Airport","city":"Bar River","country":"CA","runway_length":0,"runway_show":0,"points":"","url":"","address":"","is_web":0},{"area_id":9235,"type":0,"shape":0,"lat":46.408754,"lng":-74.779337,"radius":1351,"level":2,"updated_at":1447945800,"begin_at":0,"end_at":0,"name":"La Macaza / Mont-Tremblant International Inc Airport","city":"Rivière Rouge","country":"CA","runway_length":0,"runway_show":0,"points":"","url":"","address":"","is_web":0},{"area_id":9304,"type":0,"shape":0,"lat":46.363048,"lng":-79.423586,"radius":1629,"level":2,"updated_at":1447945800,"begin_at":0,"end_at":0,"name":"North Bay Airport","city":"North Bay","country":"CA","runway_length":0,"runway_show":0,"points":"","url":"","address":"","is_web":0},{"area_id":9195,"type":0,"shape":0,"lat":46.352992,"lng":-72.680568,"radius":1728,"level":2,"updated_at":1447945800,"begin_at":0,"end_at":0,"name":"Trois-Rivières Airport","city":"Trois-Rivières","country":"CA","runway_length":0,"runway_show":0,"points":"","url":"","address":"","is_web":0},{"area_id":8957,"type":0,"shape":0,"lat":46.351387,"lng":-82.561386,"radius":805,"level":2,"updated_at":1447945800,"begin_at":0,"end_at":0,"name":"Elliot Lake Municipal Airport","city":"Elliot Lake","country":"CA","runway_length":0,"runway_show":0,"points":"","url":"","address":"","is_web":0},{"area_id":9008,"type":0,"shape":0,"lat":46.288975,"lng":-63.12104,"radius":1209,"level":2,"updated_at":1447945800,"begin_at":0,"end_at":0,"name":"Charlottetown Airport","city":"Charlottetown","country":"CA","runway_length":0,"runway_show":0,"points":"","url":"","address":"","is_web":0},{"area_id":9099,"type":0,"shape":0,"lat":46.272849,"lng":-75.990387,"radius":813,"level":2,"updated_at":1447945800,"begin_at":0,"end_at":0,"name":"Maniwaki Airport","city":"Maniwaki","country":"CA","runway_length":0,"runway_show":0,"points":"","url":"","address":"","is_web":0},{"area_id":9180,"type":0,"shape":0,"lat":46.161389,"lng":-60.047778,"radius":1324,"level":2,"updated_at":1447945800,"begin_at":0,"end_at":0,"name":"Sydney / J.A. Douglas McCurdy Airport","city":"Sydney","country":"CA","runway_length":0,"runway_show":0,"points":"","url":"","address":"","is_web":0},{"area_id":9170,"type":0,"shape":0,"lat":46.115599,"lng":-64.677486,"radius":1709,"level":2,"updated_at":1447945800,"begin_at":0,"end_at":0,"name":"Greater Moncton International Airport","city":"Moncton","country":"CA","runway_length":0,"runway_show":0,"points":"","url":"","address":"","is_web":0},{"area_id":9765,"type":0,"shape":0,"lat":46.096012,"lng":-70.714219,"radius":1113,"level":2,"updated_at":1447945800,"begin_at":0,"end_at":0,"name":"St-Georges Airport","city":"Saint-Georges","country":"CA","runway_length":0,"runway_show":0,"points":"","url":"","address":"","is_web":0},{"area_id":9269,"type":0,"shape":0,"lat":45.950491,"lng":-77.316335,"radius":870,"level":2,"updated_at":1447945800,"begin_at":0,"end_at":0,"name":"Petawawa Airport","city":"Petawawa","country":"CA","runway_length":0,"runway_show":0,"points":"","url":"","address":"","is_web":0},{"area_id":9325,"type":0,"shape":0,"lat":45.88229,"lng":-82.567437,"radius":924,"level":2,"updated_at":1447945800,"begin_at":0,"end_at":0,"name":"Gore Bay Manitoulin Airport","city":"Gore Bay","country":"CA","runway_length":0,"runway_show":0,"points":"","url":"","address":"","is_web":0},{"area_id":8969,"type":0,"shape":0,"lat":45.868611,"lng":-66.536772,"radius":1324,"level":2,"updated_at":1447945800,"begin_at":0,"end_at":0,"name":"Fredericton Airport","city":"Fredericton","country":"CA","runway_length":0,"runway_show":0,"points":"","url":"","address":"","is_web":0},{"area_id":9224,"type":0,"shape":0,"lat":45.864494,"lng":-77.251646,"radius":871,"level":2,"updated_at":1447945800,"begin_at":0,"end_at":0,"name":"Pembroke Airport","city":"Pembroke","country":"CA","runway_length":0,"runway_show":0,"points":"","url":"","address":"","is_web":0},{"area_id":8958,"type":0,"shape":0,"lat":45.842472,"lng":-81.856786,"radius":605,"level":2,"updated_at":1447945800,"begin_at":0,"end_at":0,"name":"Manitoulin East Municipal Airport","city":"Manitowaning","country":"CA","runway_length":0,"runway_show":0,"points":"","url":"","address":"","is_web":0},{"area_id":9100,"type":0,"shape":0,"lat":45.677503,"lng":-74.035331,"radius":4294,"level":2,"updated_at":1447945800,"begin_at":0,"end_at":0,"name":"Montreal International (Mirabel) Airport","city":"Montréal","country":"CA","runway_length":0,"runway_show":0,"points":"","url":"","address":"","is_web":0},{"area_id":9289,"type":0,"shape":0,"lat":45.665175,"lng":-77.600546,"radius":1295,"level":2,"updated_at":1447945800,"begin_at":0,"end_at":0,"name":"Bonnechere Airport","city":"Killaloe","country":"CA","runway_length":0,"runway_show":0,"points":"","url":"","address":"","is_web":0},{"area_id":9154,"type":0,"shape":0,"lat":45.656497,"lng":-61.368396,"radius":914,"level":2,"updated_at":1447945800,"begin_at":0,"end_at":0,"name":"Port Hawkesbury Airport","city":"Port Hawkesbury","country":"CA","runway_length":0,"runway_show":0,"points":"","url":"","address":"","is_web":0},{"area_id":9018,"type":0,"shape":0,"lat":45.519821,"lng":-73.416036,"radius":1479,"level":2,"updated_at":1447945800,"begin_at":0,"end_at":0,"name":"Montréal / Saint-Hubert Airport","city":"Montréal","country":"CA","runway_length":0,"runway_show":0,"points":"","url":"","address":"","is_web":0},{"area_id":9250,"type":0,"shape":0,"lat":45.469858,"lng":-73.740972,"radius":2204,"level":2,"updated_at":1447945800,"begin_at":0,"end_at":0,"name":"Montreal / Pierre Elliott Trudeau International Airport","city":"Montréal","country":"CA","runway_length":0,"runway_show":0,"points":"","url":"","address":"","is_web":0},{"area_id":9194,"type":0,"shape":0,"lat":45.460571,"lng":-75.6437,"radius":559,"level":2,"updated_at":1447945800,"begin_at":0,"end_at":0,"name":"Ottawa / Rockcliffe Airport","city":"Ottawa","country":"CA","runway_length":0,"runway_show":0,"points":"","url":"","address":"","is_web":0},{"area_id":9201,"type":0,"shape":0,"lat":45.438924,"lng":-71.690882,"radius":1055,"level":2,"updated_at":1447945800,"begin_at":0,"end_at":0,"name":"Sherbrooke Airport","city":"Sherbrooke","country":"CA","runway_length":0,"runway_show":0,"points":"","url":"","address":"","is_web":0},{"area_id":9764,"type":0,"shape":0,"lat":45.323065,"lng":-76.023073,"radius":822,"level":2,"updated_at":1447945800,"begin_at":0,"end_at":0,"name":"Carp Airport","city":"Ottawa","country":"CA","runway_length":0,"runway_show":0,"points":"","url":"","address":"","is_web":0},{"area_id":9136,"type":0,"shape":0,"lat":45.319214,"lng":-75.669167,"radius":2438,"level":2,"updated_at":1447945800,"begin_at":0,"end_at":0,"name":"Ottawa Macdonald-Cartier International Airport","city":"Ottawa","country":"CA","runway_length":0,"runway_show":0,"points":"","url":"","address":"","is_web":0},{"area_id":9208,"type":0,"shape":0,"lat":45.31505,"lng":-65.893187,"radius":1799,"level":2,"updated_at":1447945800,"begin_at":0,"end_at":0,"name":"Saint John Airport","city":"Saint John","country":"CA","runway_length":0,"runway_show":0,"points":"","url":"","address":"","is_web":0},{"area_id":8741,"type":0,"shape":0,"lat":45.289893,"lng":-72.743196,"radius":1034,"level":2,"updated_at":1447945800,"begin_at":0,"end_at":0,"name":"Bromont (Roland Desourdy) Airport","city":"Bromont","country":"CA","runway_length":0,"runway_show":0,"points":"","url":"","address":"","is_web":0},{"area_id":9141,"type":0,"shape":0,"lat":45.257575,"lng":-79.829696,"radius":920,"level":2,"updated_at":1447945800,"begin_at":0,"end_at":0,"name":"Parry Sound Area Municipal Airport","city":"Parry Sound, On","country":"CA","runway_length":0,"runway_show":0,"points":"","url":"","address":"","is_web":0},{"area_id":8906,"type":0,"shape":0,"lat":45.092354,"lng":-74.567649,"radius":572,"level":2,"updated_at":1447945800,"begin_at":0,"end_at":0,"name":"Cornwall Regional Airport","city":"Cornwall","country":"CA","runway_length":0,"runway_show":0,"points":"","url":"","address":"","is_web":0},{"area_id":9337,"type":0,"shape":0,"lat":44.983676,"lng":-64.915914,"radius":1363,"level":2,"updated_at":1447945800,"begin_at":0,"end_at":0,"name":"CFB Greenwood Airport","city":"Greenwood","country":"CA","runway_length":0,"runway_show":0,"points":"","url":"","address":"","is_web":0},{"area_id":9160,"type":0,"shape":0,"lat":44.974615,"lng":-79.304125,"radius":1614,"level":2,"updated_at":1447945800,"begin_at":0,"end_at":0,"name":"Muskoka Airport","city":"Muskoka","country":"CA","runway_length":0,"runway_show":0,"points":"","url":"","address":"","is_web":0},{"area_id":9206,"type":0,"shape":0,"lat":44.946141,"lng":-75.93874,"radius":695,"level":2,"updated_at":1447945800,"begin_at":0,"end_at":0,"name":"Smiths Falls-Montague (Russ Beach) Airport","city":"Smiths Falls","country":"CA","runway_length":0,"runway_show":0,"points":"","url":"","address":"","is_web":0},{"area_id":4416,"type":0,"shape":0,"lat":44.877796,"lng":-63.518548,"radius":2706,"level":2,"updated_at":1447945800,"begin_at":0,"end_at":0,"name":"Halifax Stanfield International Airport","city":"Goffs","country":"CA","runway_length":0,"runway_show":0,"points":"","url":"","address":"","is_web":0},{"area_id":9268,"type":0,"shape":0,"lat":44.743806,"lng":-81.109607,"radius":873,"level":2,"updated_at":1447945800,"begin_at":0,"end_at":0,"name":"Wiarton Airport","city":"Wiarton","country":"CA","runway_length":0,"runway_show":0,"points":"","url":"","address":"","is_web":0},{"area_id":9759,"type":0,"shape":0,"lat":44.686241,"lng":-79.928761,"radius":1207,"level":2,"updated_at":1447945800,"begin_at":0,"end_at":0,"name":"Huronia Airport","city":"NULL","country":"CA","runway_length":0,"runway_show":0,"points":"","url":"","address":"","is_web":0},{"area_id":32955,"type":2,"shape":0,"lat":44.68146995105335,"lng":-84.7299025178431,"radius":1506,"level":2,"updated_at":1493419647,"begin_at":0,"end_at":0,"name":"Camp Grayling-Grayling AAF","city":"Algoma","country":"CA","runway_length":0,"runway_show":0,"points":"","url":"","address":"","is_web":0},{"area_id":7741,"type":0,"shape":0,"lat":44.640161,"lng":-75.749958,"radius":807,"level":2,"updated_at":1447945800,"begin_at":0,"end_at":0,"name":"Brockville - Thousand Islands Regional Tackaberry Airport","city":"Brockville","country":"CA","runway_length":0,"runway_show":0,"points":"","url":"","address":"","is_web":0},{"area_id":9221,"type":0,"shape":0,"lat":44.639176,"lng":-63.503595,"radius":2139,"level":2,"updated_at":1447945800,"begin_at":0,"end_at":0,"name":"Shearwater Airport","city":"Shearwater","country":"CA","runway_length":0,"runway_show":0,"points":"","url":"","address":"","is_web":0},{"area_id":9134,"type":0,"shape":0,"lat":44.590462,"lng":-80.837545,"radius":630,"level":2,"updated_at":1447945800,"begin_at":0,"end_at":0,"name":"Owen Sound / Billy Bishop Regional Airport","city":"Owen Sound","country":"CA","runway_length":0,"runway_show":0,"points":"","url":"","address":"","is_web":0},{"area_id":8934,"type":0,"shape":0,"lat":44.545802,"lng":-65.785639,"radius":763,"level":2,"updated_at":1447945800,"begin_at":0,"end_at":0,"name":"Digby / Annapolis Regional Airport","city":"Digby","country":"CA","runway_length":0,"runway_show":0,"points":"","url":"","address":"","is_web":0},{"area_id":8893,"type":0,"shape":0,"lat":44.271793,"lng":-79.908048,"radius":277,"level":2,"updated_at":1474298597,"begin_at":0,"end_at":0,"name":"CFB Borden Airport","city":"Borden","country":"CA","runway_length":0,"runway_show":0,"points":"","url":"","address":"","is_web":0},{"area_id":9753,"type":0,"shape":0,"lat":44.230132,"lng":-64.856419,"radius":770,"level":2,"updated_at":1447945800,"begin_at":0,"end_at":0,"name":"Liverpool Airport","city":"Greenfield","country":"CA","runway_length":0,"runway_show":0,"points":"","url":"","address":"","is_web":0},{"area_id":8987,"type":0,"shape":0,"lat":44.226201,"lng":-76.598918,"radius":983,"level":2,"updated_at":1447945800,"begin_at":0,"end_at":0,"name":"Kingston Norman Rogers Airport","city":"Kingston","country":"CA","runway_length":0,"runway_show":0,"points":"","url":"","address":"","is_web":0},{"area_id":9039,"type":0,"shape":0,"lat":44.201512,"lng":-81.606023,"radius":733,"level":2,"updated_at":1447945800,"begin_at":0,"end_at":0,"name":"Kincardine Airport","city":"Kincardine","country":"CA","runway_length":0,"runway_show":0,"points":"","url":"","address":"","is_web":0},{"area_id":9239,"type":0,"shape":0,"lat":44.118998,"lng":-77.52818,"radius":1595,"level":2,"updated_at":1447945800,"begin_at":0,"end_at":0,"name":"CFB Trenton Airport","city":"Trenton","country":"CA","runway_length":0,"runway_show":0,"points":"","url":"","address":"","is_web":0},{"area_id":9132,"type":0,"shape":0,"lat":43.922832,"lng":-78.896248,"radius":664,"level":2,"updated_at":1447945800,"begin_at":0,"end_at":0,"name":"Oshawa Airport","city":"Oshawa","country":"CA","runway_length":0,"runway_show":0,"points":"","url":"","address":"","is_web":0},{"area_id":9054,"type":0,"shape":0,"lat":43.860773,"lng":-79.369083,"radius":633,"level":2,"updated_at":1447945800,"begin_at":0,"end_at":0,"name":"Buttonville Municipal Airport","city":"Toronto","country":"CA","runway_length":0,"runway_show":0,"points":"","url":"","address":"","is_web":0},{"area_id":9167,"type":0,"shape":0,"lat":43.826907,"lng":-66.09003,"radius":1247,"level":2,"updated_at":1447945800,"begin_at":0,"end_at":0,"name":"Yarmouth Airport","city":"Yarmouth","country":"CA","runway_length":0,"runway_show":0,"points":"","url":"","address":"","is_web":0},{"area_id":9760,"type":0,"shape":0,"lat":43.766829,"lng":-81.711199,"radius":1121,"level":2,"updated_at":1447945800,"begin_at":0,"end_at":0,"name":"Goderich Municipal Airport","city":"Goderich","country":"CA","runway_length":0,"runway_show":0,"points":"","url":"","address":"","is_web":0},{"area_id":9752,"type":0,"shape":0,"lat":43.759226,"lng":-79.875552,"radius":714,"level":2,"updated_at":1447945800,"begin_at":0,"end_at":0,"name":"Brampton Airport","city":"Caledon","country":"CA","runway_length":0,"runway_show":0,"points":"","url":"","address":"","is_web":0},{"area_id":9324,"type":0,"shape":0,"lat":43.743091,"lng":-79.464957,"radius":1349,"level":2,"updated_at":1447945800,"begin_at":0,"end_at":0,"name":"Downsview Airport","city":"Toronto","country":"CA","runway_length":0,"runway_show":0,"points":"","url":"","address":"","is_web":0},{"area_id":9321,"type":0,"shape":0,"lat":43.67747,"lng":-79.628597,"radius":2933,"level":2,"updated_at":1447945800,"begin_at":0,"end_at":0,"name":"Lester B. Pearson International Airport","city":"Toronto","country":"CA","runway_length":0,"runway_show":0,"points":"","url":"","address":"","is_web":0},{"area_id":9244,"type":0,"shape":0,"lat":43.628482,"lng":-79.395958,"radius":729,"level":2,"updated_at":1447945800,"begin_at":0,"end_at":0,"name":"Billy Bishop Toronto City Centre Airport","city":"Toronto","country":"CA","runway_length":0,"runway_show":0,"points":"","url":"","address":"","is_web":0},{"area_id":8946,"type":0,"shape":0,"lat":43.442522,"lng":-79.849208,"radius":675,"level":2,"updated_at":1447945800,"begin_at":0,"end_at":0,"name":"Burlington Executive Airport","city":"Burlington","country":"CA","runway_length":0,"runway_show":0,"points":"","url":"","address":"","is_web":0},{"area_id":8908,"type":0,"shape":0,"lat":43.285015,"lng":-81.506121,"radius":802,"level":2,"updated_at":1447945800,"begin_at":0,"end_at":0,"name":"James T. Field Memorial Aerodrome Airport","city":"Centralia","country":"CA","runway_length":0,"runway_show":0,"points":"","url":"","address":"","is_web":0},