{"data":[{"area_id":2947,"type":0,"shape":0,"lat":10.236814,"lng":22.71633,"radius":946,"level":2,"updated_at":1447945800,"begin_at":0,"end_at":0,"name":"Birao Airport","city":"Birao","country":"CF","runway_length":0,"runway_show":0,"points":"","url":"","address":"","is_web":0},{"area_id":2255,"type":0,"shape":0,"lat":9.272024,"lng":21.1956,"radius":689,"level":2,"updated_at":1447945800,"begin_at":0,"end_at":0,"name":"Gordil Airport","city":"Melle","country":"CF","runway_length":0,"runway_show":0,"points":"","url":"","address":"","is_web":0},{"area_id":4181,"type":0,"shape":0,"lat":8.426859,"lng":20.635216,"radius":832,"level":2,"updated_at":1447945800,"begin_at":0,"end_at":0,"name":"N'Délé Airport","city":"N'Délé","country":"CF","runway_length":0,"runway_show":0,"points":"","url":"","address":"","is_web":0},{"area_id":4470,"type":0,"shape":0,"lat":8.010517,"lng":22.398163,"radius":809,"level":2,"updated_at":1447945800,"begin_at":0,"end_at":0,"name":"Ouadda Airport","city":"Ouadda","country":"CF","runway_length":0,"runway_show":0,"points":"","url":"","address":"","is_web":0},{"area_id":3250,"type":0,"shape":0,"lat":6.528196,"lng":21.988994,"radius":1001,"level":2,"updated_at":1447945800,"begin_at":0,"end_at":0,"name":"Bria Airport","city":"Bria","country":"CF","runway_length":0,"runway_show":0,"points":"","url":"","address":"","is_web":0},{"area_id":966,"type":0,"shape":0,"lat":6.521304,"lng":23.260217,"radius":707,"level":2,"updated_at":1447945800,"begin_at":0,"end_at":0,"name":"Yalinga Airport","city":"Yalinga","country":"CF","runway_length":0,"runway_show":0,"points":"","url":"","address":"","is_web":0},{"area_id":3481,"type":0,"shape":0,"lat":6.492009,"lng":17.42947,"radius":944,"level":2,"updated_at":1447945800,"begin_at":0,"end_at":0,"name":"Bossangoa Airport","city":"Bossangoa","country":"CF","runway_length":0,"runway_show":0,"points":"","url":"","address":"","is_web":0},{"area_id":3408,"type":0,"shape":0,"lat":6.343873,"lng":16.322251,"radius":546,"level":2,"updated_at":1447945800,"begin_at":0,"end_at":0,"name":"Bozoum Airport","city":"Bozoum","country":"CF","runway_length":0,"runway_show":0,"points":"","url":"","address":"","is_web":0},{"area_id":3398,"type":0,"shape":0,"lat":5.959075,"lng":15.637544,"radius":1173,"level":2,"updated_at":1447945800,"begin_at":0,"end_at":0,"name":"Bouar Airport","city":"Bouar","country":"CF","runway_length":0,"runway_show":0,"points":"","url":"","address":"","is_web":0},{"area_id":3075,"type":0,"shape":0,"lat":5.846609,"lng":20.649355,"radius":888,"level":2,"updated_at":1447945800,"begin_at":0,"end_at":0,"name":"Bambari Airport","city":"Bambari","country":"CF","runway_length":0,"runway_show":0,"points":"","url":"","address":"","is_web":0},{"area_id":3336,"type":0,"shape":0,"lat":5.694077,"lng":22.800525,"radius":732,"level":2,"updated_at":1447945800,"begin_at":0,"end_at":0,"name":"Bakouma Airport","city":"Bakouma","country":"CF","runway_length":0,"runway_show":0,"points":"","url":"","address":"","is_web":0},{"area_id":6456,"type":0,"shape":0,"lat":5.333348,"lng":25.93149,"radius":927,"level":2,"updated_at":1447945800,"begin_at":0,"end_at":0,"name":"M'Boki Airport","city":"Mboki","country":"CF","runway_length":0,"runway_show":0,"points":"","url":"","address":"","is_web":0},{"area_id":2882,"type":0,"shape":0,"lat":5.002485,"lng":25.102131,"radius":471,"level":2,"updated_at":1447945800,"begin_at":0,"end_at":0,"name":"Zemio Airport","city":"Zemio","country":"CF","runway_length":0,"runway_show":0,"points":"","url":"","address":"","is_web":0},{"area_id":5329,"type":0,"shape":0,"lat":4.988571,"lng":23.928354,"radius":694,"level":2,"updated_at":1447945800,"begin_at":0,"end_at":0,"name":"Rafaï Airport","city":"Rafaï","country":"CF","runway_length":0,"runway_show":0,"points":"","url":"","address":"","is_web":0},{"area_id":2012,"type":0,"shape":0,"lat":4.938666,"lng":15.893072,"radius":642,"level":2,"updated_at":1447945800,"begin_at":0,"end_at":0,"name":"Carnot Airport","city":"Carnot","country":"CF","runway_length":0,"runway_show":0,"points":"","url":"","address":"","is_web":0},{"area_id":3199,"type":0,"shape":0,"lat":4.78607,"lng":22.782775,"radius":985,"level":2,"updated_at":1447945800,"begin_at":0,"end_at":0,"name":"Bangassou Airport","city":"Bangassou","country":"CF","runway_length":0,"runway_show":0,"points":"","url":"","address":"","is_web":0},{"area_id":3184,"type":0,"shape":0,"lat":4.396282,"lng":18.521227,"radius":2361,"level":2,"updated_at":1447945800,"begin_at":0,"end_at":0,"name":"Bangui M'Poko International Airport","city":"Bangui","country":"CF","runway_length":0,"runway_show":0,"points":"","url":"","address":"","is_web":0},{"area_id":3070,"type":0,"shape":0,"lat":4.221618,"lng":15.786446,"radius":881,"level":2,"updated_at":1447945800,"begin_at":0,"end_at":0,"name":"Berbérati Airport","city":"Berbérati","country":"CF","runway_length":0,"runway_show":0,"points":"","url":"","address":"","is_web":0}],"status":"200"}