{"data":[{"area_id":848,"type":0,"shape":0,"lat":-18.353407,"lng":-70.340233,"radius":2249,"level":2,"updated_at":1447945800,"begin_at":0,"end_at":0,"name":"Aeropuerto Internacional Chacalluta","city":"Arica","country":"CL","runway_length":0,"runway_show":0,"points":"","url":"","address":"","is_web":0},{"area_id":7287,"type":0,"shape":0,"lat":-20.535122,"lng":-70.180434,"radius":2113,"level":2,"updated_at":1447945800,"begin_at":0,"end_at":0,"name":"Diego Aracena International Airport","city":"Tarapacá","country":"CL","runway_length":0,"runway_show":0,"points":"","url":"","address":"","is_web":0},{"area_id":7553,"type":0,"shape":0,"lat":-22.140639,"lng":-70.061364,"radius":1100,"level":2,"updated_at":1447945800,"begin_at":0,"end_at":0,"name":"Barriles Airport","city":"Tocopilla","country":"CL","runway_length":0,"runway_show":0,"points":"","url":"","address":"","is_web":0},{"area_id":1851,"type":0,"shape":0,"lat":-22.498723,"lng":-68.903575,"radius":1666,"level":2,"updated_at":1447945800,"begin_at":0,"end_at":0,"name":"El Loa Airport","city":"Calama","country":"CL","runway_length":0,"runway_show":0,"points":"","url":"","address":"","is_web":0},{"area_id":1077,"type":0,"shape":0,"lat":-23.444452,"lng":-70.440493,"radius":1489,"level":2,"updated_at":1447945800,"begin_at":0,"end_at":0,"name":"Cerro Moreno Airport","city":"Antofagasta","country":"CL","runway_length":0,"runway_show":0,"points":"","url":"","address":"","is_web":0},{"area_id":7635,"type":0,"shape":0,"lat":-25.562631,"lng":-70.375799,"radius":806,"level":2,"updated_at":1447945800,"begin_at":0,"end_at":0,"name":"Las Breas Airport","city":"Taltal","country":"CL","runway_length":0,"runway_show":0,"points":"","url":"","address":"","is_web":0},{"area_id":205,"type":0,"shape":0,"lat":-26.311326,"lng":-69.764888,"radius":1444,"level":2,"updated_at":1447945800,"begin_at":0,"end_at":0,"name":"Ricardo García Posada Airport","city":"El Salvador","country":"CL","runway_length":0,"runway_show":0,"points":"","url":"","address":"","is_web":0},{"area_id":1946,"type":0,"shape":0,"lat":-26.332702,"lng":-70.607923,"radius":716,"level":2,"updated_at":1447945800,"begin_at":0,"end_at":0,"name":"Chañaral Airport","city":"Chañaral","country":"CL","runway_length":0,"runway_show":0,"points":"","url":"","address":"","is_web":0},{"area_id":2921,"type":0,"shape":0,"lat":-27.16486,"lng":-109.42176,"radius":1723,"level":2,"updated_at":1447945800,"begin_at":0,"end_at":0,"name":"Mataveri Airport","city":"Isla De Pascua","country":"CL","runway_length":0,"runway_show":0,"points":"","url":"","address":"","is_web":0},{"area_id":10120,"type":0,"shape":0,"lat":-27.261661,"lng":-70.77792,"radius":1195,"level":2,"updated_at":1447945800,"begin_at":0,"end_at":0,"name":"Desierto De Atacama Airport","city":"NULL","country":"CL","runway_length":0,"runway_show":0,"points":"","url":"","address":"","is_web":0},{"area_id":1992,"type":0,"shape":0,"lat":-27.297763,"lng":-70.414143,"radius":1118,"level":2,"updated_at":1447945800,"begin_at":0,"end_at":0,"name":"Chamonate Airport","city":"Copiapo","country":"CL","runway_length":0,"runway_show":0,"points":"","url":"","address":"","is_web":0},{"area_id":7156,"type":0,"shape":0,"lat":-28.596514,"lng":-70.755797,"radius":829,"level":2,"updated_at":1447945800,"begin_at":0,"end_at":0,"name":"Vallenar Airport","city":"Vallenar","country":"CL","runway_length":0,"runway_show":0,"points":"","url":"","address":"","is_web":0},{"area_id":3989,"type":0,"shape":0,"lat":-29.916271,"lng":-71.199719,"radius":1039,"level":2,"updated_at":1447945800,"begin_at":0,"end_at":0,"name":"La Florida Airport","city":"Tumaco","country":"CL","runway_length":0,"runway_show":0,"points":"","url":"","address":"","is_web":0},{"area_id":4695,"type":0,"shape":0,"lat":-30.558866,"lng":-71.175619,"radius":725,"level":2,"updated_at":1447945800,"begin_at":0,"end_at":0,"name":"El Tuqui Airport","city":"Ovalle","country":"CL","runway_length":0,"runway_show":0,"points":"","url":"","address":"","is_web":0},{"area_id":8538,"type":0,"shape":0,"lat":-32.745772,"lng":-70.705138,"radius":650,"level":2,"updated_at":1447945800,"begin_at":0,"end_at":0,"name":"Víctor Lafón Airport","city":"San Felipe","country":"CL","runway_length":0,"runway_show":0,"points":"","url":"","address":"","is_web":0},{"area_id":4996,"type":0,"shape":0,"lat":-32.949722,"lng":-71.478611,"radius":997,"level":2,"updated_at":1447945800,"begin_at":0,"end_at":0,"name":"Viña del mar Airport","city":"Viña Del Mar","country":"CL","runway_length":0,"runway_show":0,"points":"","url":"","address":"","is_web":0},{"area_id":8164,"type":0,"shape":0,"lat":-33.388587,"lng":-70.795178,"radius":2922,"level":2,"updated_at":1447945800,"begin_at":0,"end_at":0,"name":"Comodoro Arturo Merino Benítez International Airport","city":"Santiago","country":"CL","runway_length":0,"runway_show":0,"points":"","url":"","address":"","is_web":0},{"area_id":5658,"type":0,"shape":0,"lat":-34.173232,"lng":-70.775065,"radius":1064,"level":2,"updated_at":1447945800,"begin_at":0,"end_at":0,"name":"De La Independencia Airport","city":"Rancagua","country":"CL","runway_length":0,"runway_show":0,"points":"","url":"","address":"","is_web":0},{"area_id":7488,"type":0,"shape":0,"lat":-35.378334,"lng":-71.601387,"radius":692,"level":2,"updated_at":1447945800,"begin_at":0,"end_at":0,"name":"Panguilemo Airport","city":"Talca","country":"CL","runway_length":0,"runway_show":0,"points":"","url":"","address":"","is_web":0},{"area_id":8862,"type":0,"shape":0,"lat":-36.582413,"lng":-72.030943,"radius":1062,"level":2,"updated_at":1447945800,"begin_at":0,"end_at":0,"name":"Gral. Bernardo O´Higgins Airport","city":"Chillan","country":"CL","runway_length":0,"runway_show":0,"points":"","url":"","address":"","is_web":0},{"area_id":1701,"type":0,"shape":0,"lat":-36.771449,"lng":-73.061325,"radius":1703,"level":2,"updated_at":1447945800,"begin_at":0,"end_at":0,"name":"Carriel Sur Airport","city":"Concepcion","country":"CL","runway_length":0,"runway_show":0,"points":"","url":"","address":"","is_web":0},{"area_id":3999,"type":0,"shape":0,"lat":-37.401608,"lng":-72.424828,"radius":1185,"level":2,"updated_at":1447945800,"begin_at":0,"end_at":0,"name":"María Dolores Airport","city":"Los Angeles","country":"CL","runway_length":0,"runway_show":0,"points":"","url":"","address":"","is_web":0},{"area_id":7207,"type":0,"shape":0,"lat":-38.245546,"lng":-72.349755,"radius":1195,"level":2,"updated_at":1447945800,"begin_at":0,"end_at":0,"name":"Victoria Airport","city":"Victoria","country":"CL","runway_length":0,"runway_show":0,"points":"","url":"","address":"","is_web":0},{"area_id":8748,"type":0,"shape":0,"lat":-38.76627,"lng":-72.634423,"radius":1113,"level":2,"updated_at":1447945800,"begin_at":0,"end_at":0,"name":"Maquehue Airport","city":"Temuco","country":"CL","runway_length":0,"runway_show":0,"points":"","url":"","address":"","is_web":0},{"area_id":8811,"type":0,"shape":0,"lat":-39.29215,"lng":-71.915416,"radius":1227,"level":2,"updated_at":1447945800,"begin_at":0,"end_at":0,"name":"Pucón Airport","city":"Pucon","country":"CL","runway_length":0,"runway_show":0,"points":"","url":"","address":"","is_web":0},{"area_id":8732,"type":0,"shape":0,"lat":-39.796926,"lng":-73.2419,"radius":756,"level":2,"updated_at":1447945800,"begin_at":0,"end_at":0,"name":"Pichoy Airport","city":"Valdivia","country":"CL","runway_length":0,"runway_show":0,"points":"","url":"","address":"","is_web":0},{"area_id":8808,"type":0,"shape":0,"lat":-40.611389,"lng":-73.060556,"radius":897,"level":2,"updated_at":1447945800,"begin_at":0,"end_at":0,"name":"Cañal Bajo Carlos - Hott Siebert Airport","city":"Osorno","country":"CL","runway_length":0,"runway_show":0,"points":"","url":"","address":"","is_web":0},{"area_id":5950,"type":0,"shape":0,"lat":-41.438834,"lng":-73.094556,"radius":1496,"level":2,"updated_at":1447945800,"begin_at":0,"end_at":0,"name":"El Tepual Airport","city":"Puerto Montt","country":"CL","runway_length":0,"runway_show":0,"points":"","url":"","address":"","is_web":0},{"area_id":8839,"type":0,"shape":0,"lat":-41.903728,"lng":-73.796308,"radius":917,"level":2,"updated_at":1447945800,"begin_at":0,"end_at":0,"name":"Pupelde Airport","city":"Ancud","country":"CL","runway_length":0,"runway_show":0,"points":"","url":"","address":"","is_web":0},{"area_id":6381,"type":0,"shape":0,"lat":-42.340389,"lng":-73.715667,"radius":1406,"level":2,"updated_at":1447945800,"begin_at":0,"end_at":0,"name":"Mocopulli Airport Airport","city":"Dalcahue","country":"CL","runway_length":0,"runway_show":0,"points":"","url":"","address":"","is_web":0},{"area_id":7899,"type":0,"shape":0,"lat":-42.490295,"lng":-73.7747,"radius":589,"level":2,"updated_at":1447945800,"begin_at":0,"end_at":0,"name":"Gamboa Airport","city":"Castro","country":"CL","runway_length":0,"runway_show":0,"points":"","url":"","address":"","is_web":0},{"area_id":7900,"type":0,"shape":0,"lat":-42.933056,"lng":-72.699165,"radius":837,"level":2,"updated_at":1447945800,"begin_at":0,"end_at":0,"name":"Chaitén Airport","city":"Chaiten","country":"CL","runway_length":0,"runway_show":0,"points":"","url":"","address":"","is_web":0},{"area_id":7875,"type":0,"shape":0,"lat":-43.611902,"lng":-71.805178,"radius":525,"level":2,"updated_at":1447945800,"begin_at":0,"end_at":0,"name":"Alto Palena Airport","city":"Alto Palena","country":"CL","runway_length":0,"runway_show":0,"points":"","url":"","address":"","is_web":0},{"area_id":2549,"type":0,"shape":0,"lat":-45.593523,"lng":-72.105284,"radius":1032,"level":2,"updated_at":1447945800,"begin_at":0,"end_at":0,"name":"Teniente Vidal Airport","city":"Coyhaique","country":"CL","runway_length":0,"runway_show":0,"points":"","url":"","address":"","is_web":0},{"area_id":3051,"type":0,"shape":0,"lat":-45.915556,"lng":-71.689507,"radius":1382,"level":2,"updated_at":1447945800,"begin_at":0,"end_at":0,"name":"Balmaceda Airport","city":"Balmaceda","country":"CL","runway_length":0,"runway_show":0,"points":"","url":"","address":"","is_web":0},{"area_id":1693,"type":0,"shape":0,"lat":-46.582522,"lng":-71.686702,"radius":851,"level":2,"updated_at":1447945800,"begin_at":0,"end_at":0,"name":"Chile Chico Airport","city":"Chile Chico","country":"CL","runway_length":0,"runway_show":0,"points":"","url":"","address":"","is_web":0},{"area_id":3794,"type":0,"shape":0,"lat":-47.24373,"lng":-72.587988,"radius":612,"level":2,"updated_at":1447945800,"begin_at":0,"end_at":0,"name":"Cochrane Airport","city":"Cochrane","country":"CL","runway_length":0,"runway_show":0,"points":"","url":"","address":"","is_web":0},{"area_id":8398,"type":0,"shape":0,"lat":-52.734372,"lng":-69.334119,"radius":883,"level":2,"updated_at":1447945800,"begin_at":0,"end_at":0,"name":"Franco Bianco Airport","city":"Cerro Sombrero","country":"CL","runway_length":0,"runway_show":0,"points":"","url":"","address":"","is_web":0},{"area_id":6136,"type":0,"shape":0,"lat":-53.002714,"lng":-70.854259,"radius":1767,"level":2,"updated_at":1447945800,"begin_at":0,"end_at":0,"name":"Pdte. carlos Ibañez del Campo Airport","city":"Punta Arenas","country":"CL","runway_length":0,"runway_show":0,"points":"","url":"","address":"","is_web":0},{"area_id":8031,"type":0,"shape":0,"lat":-53.253078,"lng":-70.320967,"radius":1437,"level":2,"updated_at":1447945800,"begin_at":0,"end_at":0,"name":"Capitan Fuentes Martinez Airport","city":"Porvenir","country":"CL","runway_length":0,"runway_show":0,"points":"","url":"","address":"","is_web":0},{"area_id":8032,"type":0,"shape":0,"lat":-54.93151,"lng":-67.626179,"radius":808,"level":2,"updated_at":1447945800,"begin_at":0,"end_at":0,"name":"Guardiamarina Zañartu Airport","city":"Puerto Williams","country":"CL","runway_length":0,"runway_show":0,"points":"","url":"","address":"","is_web":0}],"status":"200"}