{"data":[{"area_id":6004,"type":0,"shape":0,"lat":19.756881,"lng":-70.569685,"radius":1762,"level":2,"updated_at":1447945800,"begin_at":0,"end_at":0,"name":"Gregorio Luperon International Airport","city":"Puerto Plata","country":"DO","runway_length":0,"runway_show":0,"points":"","url":"","address":"","is_web":0},{"area_id":8567,"type":0,"shape":0,"lat":19.405832,"lng":-70.604446,"radius":1618,"level":2,"updated_at":1447945800,"begin_at":0,"end_at":0,"name":"Cibao International Airport","city":"Santiago","country":"DO","runway_length":0,"runway_show":0,"points":"","url":"","address":"","is_web":0},{"area_id":1324,"type":0,"shape":0,"lat":19.268709,"lng":-69.736228,"radius":1608,"level":2,"updated_at":1447945800,"begin_at":0,"end_at":0,"name":"Samaná El Catey International Airport","city":"Samana","country":"DO","runway_length":0,"runway_show":0,"points":"","url":"","address":"","is_web":0},{"area_id":2595,"type":0,"shape":0,"lat":18.5725,"lng":-69.985312,"radius":928,"level":2,"updated_at":1447945800,"begin_at":0,"end_at":0,"name":"La Isabela International Airport","city":"La Isabela","country":"DO","runway_length":0,"runway_show":0,"points":"","url":"","address":"","is_web":0},{"area_id":6129,"type":0,"shape":0,"lat":18.569507,"lng":-68.367605,"radius":2402,"level":2,"updated_at":1447945800,"begin_at":0,"end_at":0,"name":"Punta Cana International Airport","city":"Punta Cana","country":"DO","runway_length":0,"runway_show":0,"points":"","url":"","address":"","is_web":0},{"area_id":8193,"type":0,"shape":0,"lat":18.429487,"lng":-69.671361,"radius":2258,"level":2,"updated_at":1447945800,"begin_at":0,"end_at":0,"name":"Las Américas International Airport","city":"Santo Domingo","country":"DO","runway_length":0,"runway_show":0,"points":"","url":"","address":"","is_web":0},{"area_id":3466,"type":0,"shape":0,"lat":18.250832,"lng":-71.120978,"radius":1792,"level":2,"updated_at":1447945800,"begin_at":0,"end_at":0,"name":"Maria Montez International Airport","city":"Barahona","country":"DO","runway_length":0,"runway_show":0,"points":"","url":"","address":"","is_web":0},{"area_id":1670,"type":0,"shape":0,"lat":17.929049,"lng":-71.645089,"radius":845,"level":2,"updated_at":1447945800,"begin_at":0,"end_at":0,"name":"Cabo Rojo Airport","city":"Cabo Rojo","country":"DO","runway_length":0,"runway_show":0,"points":"","url":"","address":"","is_web":0}],"status":"200"}