{"data":[{"area_id":2990,"type":0,"shape":0,"lat":68.60839,"lng":27.409624,"radius":1487,"level":2,"updated_at":1447945800,"begin_at":0,"end_at":0,"name":"Ivalo Airport","city":"Ivalo","country":"FI","runway_length":0,"runway_show":0,"points":"","url":"","address":"","is_web":0},{"area_id":140,"type":0,"shape":0,"lat":68.360579,"lng":23.420517,"radius":1368,"level":2,"updated_at":1447945800,"begin_at":0,"end_at":0,"name":"Enontekio Airport","city":"Enontekio","country":"FI","runway_length":0,"runway_show":0,"points":"","url":"","address":"","is_web":0},{"area_id":5140,"type":0,"shape":0,"lat":67.702553,"lng":24.84623,"radius":1725,"level":2,"updated_at":1447945800,"begin_at":0,"end_at":0,"name":"Kittila Airport","city":"Kittila","country":"FI","runway_length":0,"runway_show":0,"points":"","url":"","address":"","is_web":0},{"area_id":8462,"type":0,"shape":0,"lat":67.394948,"lng":26.620287,"radius":959,"level":2,"updated_at":1447945800,"begin_at":0,"end_at":0,"name":"Sodankyla Airport","city":"Sodankyla","country":"FI","runway_length":0,"runway_show":0,"points":"","url":"","address":"","is_web":0},{"area_id":5532,"type":0,"shape":0,"lat":66.564468,"lng":25.830936,"radius":1944,"level":2,"updated_at":1447945800,"begin_at":0,"end_at":0,"name":"Rovaniemi Airport","city":"Rovaniemi","country":"FI","runway_length":0,"runway_show":0,"points":"","url":"","address":"","is_web":0},{"area_id":4740,"type":0,"shape":0,"lat":65.987457,"lng":29.24165,"radius":1667,"level":2,"updated_at":1447945800,"begin_at":0,"end_at":0,"name":"Kuusamo Airport","city":"Kuusamo","country":"FI","runway_length":0,"runway_show":0,"points":"","url":"","address":"","is_web":0},{"area_id":4834,"type":0,"shape":0,"lat":65.780771,"lng":24.582077,"radius":1448,"level":2,"updated_at":1447945800,"begin_at":0,"end_at":0,"name":"Kemi-Tornio Airport","city":"Kemi / Tornio","country":"FI","runway_length":0,"runway_show":0,"points":"","url":"","address":"","is_web":0},{"area_id":4682,"type":0,"shape":0,"lat":64.931096,"lng":25.352232,"radius":1796,"level":2,"updated_at":1447945800,"begin_at":0,"end_at":0,"name":"Oulu Airport","city":"Oulu / Oulunsalo","country":"FI","runway_length":0,"runway_show":0,"points":"","url":"","address":"","is_web":0},{"area_id":4735,"type":0,"shape":0,"lat":64.284688,"lng":27.689903,"radius":1443,"level":2,"updated_at":1447945800,"begin_at":0,"end_at":0,"name":"Kajaani Airport","city":"Kajaani","country":"FI","runway_length":0,"runway_show":0,"points":"","url":"","address":"","is_web":0},{"area_id":9063,"type":0,"shape":0,"lat":64.054712,"lng":24.721351,"radius":894,"level":2,"updated_at":1447945800,"begin_at":0,"end_at":0,"name":"Ylivieska Airport","city":"","country":"FI","runway_length":0,"runway_show":0,"points":"","url":"","address":"","is_web":0},{"area_id":5031,"type":0,"shape":0,"lat":63.719437,"lng":23.142166,"radius":1716,"level":2,"updated_at":1447945800,"begin_at":0,"end_at":0,"name":"Kruunupyy Airport","city":"Kokkola / Kruunupyy","country":"FI","runway_length":0,"runway_show":0,"points":"","url":"","address":"","is_web":0},{"area_id":4746,"type":0,"shape":0,"lat":63.131339,"lng":23.050574,"radius":1811,"level":2,"updated_at":1447945800,"begin_at":0,"end_at":0,"name":"Kauhava Airport","city":"Kauhava","country":"FI","runway_length":0,"runway_show":0,"points":"","url":"","address":"","is_web":0},{"area_id":7044,"type":0,"shape":0,"lat":63.051247,"lng":21.762712,"radius":1555,"level":2,"updated_at":1447945800,"begin_at":0,"end_at":0,"name":"Vaasa Airport","city":"Vaasa","country":"FI","runway_length":0,"runway_show":0,"points":"","url":"","address":"","is_web":0},{"area_id":5159,"type":0,"shape":0,"lat":63.006527,"lng":27.797197,"radius":1801,"level":2,"updated_at":1447945800,"begin_at":0,"end_at":0,"name":"Kuopio Airport","city":"Kuopio / Siilinjärvi","country":"FI","runway_length":0,"runway_show":0,"points":"","url":"","address":"","is_web":0},{"area_id":8344,"type":0,"shape":0,"lat":62.689789,"lng":22.83629,"radius":1345,"level":2,"updated_at":1447945800,"begin_at":0,"end_at":0,"name":"Seinäjoki Airport","city":"Seinäjoki / Ilmajoki","country":"FI","runway_length":0,"runway_show":0,"points":"","url":"","address":"","is_web":0},{"area_id":2696,"type":0,"shape":0,"lat":62.657759,"lng":29.616327,"radius":1671,"level":2,"updated_at":1447945800,"begin_at":0,"end_at":0,"name":"Joensuu Airport","city":"Joensuu / Liperi","country":"FI","runway_length":0,"runway_show":0,"points":"","url":"","address":"","is_web":0},{"area_id":4882,"type":0,"shape":0,"lat":62.463501,"lng":22.391556,"radius":842,"level":2,"updated_at":1447945800,"begin_at":0,"end_at":0,"name":"Kauhajoki Airport","city":"","country":"FI","runway_length":0,"runway_show":0,"points":"","url":"","address":"","is_web":0},{"area_id":2760,"type":0,"shape":0,"lat":62.399639,"lng":25.678539,"radius":1685,"level":2,"updated_at":1447945800,"begin_at":0,"end_at":0,"name":"Jyvaskyla Airport","city":"Jyväskylän Maalaiskunta","country":"FI","runway_length":0,"runway_show":0,"points":"","url":"","address":"","is_web":0},{"area_id":5137,"type":0,"shape":0,"lat":62.167221,"lng":30.0725,"radius":1081,"level":2,"updated_at":1447945800,"begin_at":0,"end_at":0,"name":"Kitee Airport","city":"","country":"FI","runway_length":0,"runway_show":0,"points":"","url":"","address":"","is_web":0},{"area_id":8615,"type":0,"shape":0,"lat":61.944221,"lng":28.943367,"radius":1736,"level":2,"updated_at":1447945800,"begin_at":0,"end_at":0,"name":"Savonlinna Airport","city":"Savonlinna","country":"FI","runway_length":0,"runway_show":0,"points":"","url":"","address":"","is_web":0},{"area_id":4843,"type":0,"shape":0,"lat":61.855915,"lng":24.786777,"radius":1713,"level":2,"updated_at":1447945800,"begin_at":0,"end_at":0,"name":"Halli Airport","city":"Halli / Kuorevesi","country":"FI","runway_length":0,"runway_show":0,"points":"","url":"","address":"","is_web":0},{"area_id":6410,"type":0,"shape":0,"lat":61.686764,"lng":27.200929,"radius":1006,"level":2,"updated_at":1447945800,"begin_at":0,"end_at":0,"name":"Mikkeli Airport","city":"Mikkeli","country":"FI","runway_length":0,"runway_show":0,"points":"","url":"","address":"","is_web":0},{"area_id":6006,"type":0,"shape":0,"lat":61.461336,"lng":21.800354,"radius":1350,"level":2,"updated_at":1447945800,"begin_at":0,"end_at":0,"name":"Pori Airport","city":"Pori","country":"FI","runway_length":0,"runway_show":0,"points":"","url":"","address":"","is_web":0},{"area_id":7503,"type":0,"shape":0,"lat":61.413706,"lng":23.605834,"radius":1913,"level":2,"updated_at":1447945800,"begin_at":0,"end_at":0,"name":"Tampere-Pirkkala Airport","city":"Tampere / Pirkkala","country":"FI","runway_length":0,"runway_show":0,"points":"","url":"","address":"","is_web":0},{"area_id":5622,"type":0,"shape":0,"lat":61.144855,"lng":25.692122,"radius":819,"level":2,"updated_at":1447945800,"begin_at":0,"end_at":0,"name":"Lahti-Vesivehmaan lentokenttä","city":"","country":"FI","runway_length":0,"runway_show":0,"points":"","url":"","address":"","is_web":0},{"area_id":3958,"type":0,"shape":0,"lat":61.045249,"lng":28.147858,"radius":1759,"level":2,"updated_at":1447945800,"begin_at":0,"end_at":0,"name":"Lappeenranta Airport","city":"Lappeenranta","country":"FI","runway_length":0,"runway_show":0,"points":"","url":"","address":"","is_web":0},{"area_id":7016,"type":0,"shape":0,"lat":60.896851,"lng":26.94604,"radius":1782,"level":2,"updated_at":1447945800,"begin_at":0,"end_at":0,"name":"Utti Air Base Airport","city":"Utti / Valkeala","country":"FI","runway_length":0,"runway_show":0,"points":"","url":"","address":"","is_web":0},{"area_id":5689,"type":0,"shape":0,"lat":60.803578,"lng":23.649447,"radius":496,"level":2,"updated_at":1447945800,"begin_at":0,"end_at":0,"name":"Forssa Airport","city":"Forssa","country":"FI","runway_length":0,"runway_show":0,"points":"","url":"","address":"","is_web":0},{"area_id":1627,"type":0,"shape":0,"lat":60.654861,"lng":24.882378,"radius":837,"level":2,"updated_at":1447945800,"begin_at":0,"end_at":0,"name":"Hyvinkaa Airport","city":"","country":"FI","runway_length":0,"runway_show":0,"points":"","url":"","address":"","is_web":0},{"area_id":7461,"type":0,"shape":0,"lat":60.511497,"lng":22.263285,"radius":1578,"level":2,"updated_at":1447945800,"begin_at":0,"end_at":0,"name":"Turku Airport","city":"Turku","country":"FI","runway_length":0,"runway_show":0,"points":"","url":"","address":"","is_web":0},{"area_id":1393,"type":0,"shape":0,"lat":60.316282,"lng":24.946852,"radius":2674,"level":2,"updated_at":1447945800,"begin_at":0,"end_at":0,"name":"Helsinki Vantaa Airport","city":"Helsinki","country":"FI","runway_length":0,"runway_show":0,"points":"","url":"","address":"","is_web":0},{"area_id":1394,"type":0,"shape":0,"lat":60.253648,"lng":25.045116,"radius":782,"level":2,"updated_at":1447945800,"begin_at":0,"end_at":0,"name":"Helsinki Malmi Airport","city":"Helsinki","country":"FI","runway_length":0,"runway_show":0,"points":"","url":"","address":"","is_web":0},{"area_id":31684,"type":1,"shape":0,"lat":60.186944,"lng":24.927222,"radius":500,"level":2,"updated_at":1447945800,"begin_at":0,"end_at":0,"name":"Helsinki Olympic Stadium","city":"Helsinki","country":"FI","runway_length":0,"runway_show":0,"points":"","url":"","address":"","is_web":0}],"status":"200"}