{"data":[{"area_id":7499,"type":0,"shape":0,"lat":9.556552,"lng":-0.861556,"radius":1712,"level":2,"updated_at":1447945800,"begin_at":0,"end_at":0,"name":"Tamale Airport","city":"Tamale","country":"GH","runway_length":0,"runway_show":0,"points":"","url":"","address":"","is_web":0},{"area_id":4423,"type":0,"shape":0,"lat":7.361424,"lng":-2.328534,"radius":711,"level":2,"updated_at":1447945800,"begin_at":0,"end_at":0,"name":"Sunyani Airport","city":"Sunyani","country":"GH","runway_length":0,"runway_show":0,"points":"","url":"","address":"","is_web":0},{"area_id":4988,"type":0,"shape":0,"lat":6.71412,"lng":-1.591111,"radius":1400,"level":2,"updated_at":1447945800,"begin_at":0,"end_at":0,"name":"Kumasi Airport","city":"Kumasi","country":"GH","runway_length":0,"runway_show":0,"points":"","url":"","address":"","is_web":0},{"area_id":839,"type":0,"shape":0,"lat":5.605412,"lng":-0.167692,"radius":1929,"level":2,"updated_at":1447945800,"begin_at":0,"end_at":0,"name":"Kotoka International Airport","city":"Accra","country":"GH","runway_length":0,"runway_show":0,"points":"","url":"","address":"","is_web":0},{"area_id":7444,"type":0,"shape":0,"lat":4.896192,"lng":-1.774556,"radius":968,"level":2,"updated_at":1447945800,"begin_at":0,"end_at":0,"name":"Takoradi Airport","city":"Sekondi-Takoradi","country":"GH","runway_length":0,"runway_show":0,"points":"","url":"","address":"","is_web":0}],"status":"200"}