{"data":[{"area_id":1280,"type":0,"shape":0,"lat":40.856635,"lng":25.955937,"radius":1740,"level":2,"updated_at":1447945800,"begin_at":0,"end_at":0,"name":"Dimokritos Airport","city":"Alexandroupolis","country":"GR","runway_length":0,"runway_show":0,"points":"","url":"","address":"","is_web":0},{"area_id":31842,"type":1,"shape":0,"lat":40.625497,"lng":22.967003,"radius":500,"level":2,"updated_at":1447945800,"begin_at":0,"end_at":0,"name":"Kaftanzoglio Stadium","city":"Thessaloniki","country":"GR","runway_length":0,"runway_show":0,"points":"","url":"","address":"","is_web":0},{"area_id":31817,"type":1,"shape":0,"lat":40.613839,"lng":22.972422,"radius":500,"level":2,"updated_at":1447945800,"begin_at":0,"end_at":0,"name":"Toumba Stadium","city":"Thessaloniki","country":"GR","runway_length":0,"runway_show":0,"points":"","url":"","address":"","is_web":0},{"area_id":8352,"type":0,"shape":0,"lat":40.520749,"lng":22.96644,"radius":1894,"level":2,"updated_at":1447945800,"begin_at":0,"end_at":0,"name":"Thessaloniki Macedonia International Airport","city":"Thessaloniki","country":"GR","runway_length":0,"runway_show":0,"points":"","url":"","address":"","is_web":0},{"area_id":5111,"type":0,"shape":0,"lat":40.446325,"lng":21.281315,"radius":1474,"level":2,"updated_at":1447945800,"begin_at":0,"end_at":0,"name":"Kastoria National Airport","city":"Kastoria","country":"GR","runway_length":0,"runway_show":0,"points":"","url":"","address":"","is_web":0},{"area_id":5229,"type":0,"shape":0,"lat":40.286683,"lng":21.841339,"radius":1419,"level":2,"updated_at":1447945800,"begin_at":0,"end_at":0,"name":"Filippos Airport","city":"Kozani","country":"GR","runway_length":0,"runway_show":0,"points":"","url":"","address":"","is_web":0},{"area_id":4086,"type":0,"shape":0,"lat":39.918556,"lng":25.235429,"radius":1910,"level":2,"updated_at":1447945800,"begin_at":0,"end_at":0,"name":"Limnos Airport","city":"Limnos Island","country":"GR","runway_length":0,"runway_show":0,"points":"","url":"","address":"","is_web":0},{"area_id":2911,"type":0,"shape":0,"lat":39.697222,"lng":20.821944,"radius":1335,"level":2,"updated_at":1447945800,"begin_at":0,"end_at":0,"name":"Ioannina Airport","city":"Ioannina","country":"GR","runway_length":0,"runway_show":0,"points":"","url":"","address":"","is_web":0},{"area_id":3969,"type":0,"shape":0,"lat":39.649723,"lng":22.463055,"radius":2329,"level":2,"updated_at":1447945800,"begin_at":0,"end_at":0,"name":"Larisa Airport","city":"Larisa","country":"GR","runway_length":0,"runway_show":0,"points":"","url":"","address":"","is_web":0},{"area_id":1777,"type":0,"shape":0,"lat":39.601944,"lng":19.912222,"radius":1322,"level":2,"updated_at":1447945800,"begin_at":0,"end_at":0,"name":"Ioannis Kapodistrias International Airport","city":"Kerkyra Island","country":"GR","runway_length":0,"runway_show":0,"points":"","url":"","address":"","is_web":0},{"area_id":7179,"type":0,"shape":0,"lat":39.218366,"lng":22.791778,"radius":1936,"level":2,"updated_at":1447945800,"begin_at":0,"end_at":0,"name":"Nea Anchialos Airport","city":"Nea Anchialos","country":"GR","runway_length":0,"runway_show":0,"points":"","url":"","address":"","is_web":0},{"area_id":2726,"type":0,"shape":0,"lat":39.177829,"lng":23.503547,"radius":1064,"level":2,"updated_at":1447945800,"begin_at":0,"end_at":0,"name":"Skiathos Island National Airport","city":"Skiathos","country":"GR","runway_length":0,"runway_show":0,"points":"","url":"","address":"","is_web":0},{"area_id":6442,"type":0,"shape":0,"lat":39.058154,"lng":26.599313,"radius":1374,"level":2,"updated_at":1447945800,"begin_at":0,"end_at":0,"name":"Mytilene International Airport","city":"Mytilene","country":"GR","runway_length":0,"runway_show":0,"points":"","url":"","address":"","is_web":0},{"area_id":8366,"type":0,"shape":0,"lat":38.967823,"lng":24.486078,"radius":2091,"level":2,"updated_at":1447945800,"begin_at":0,"end_at":0,"name":"Skiros Airport","city":"Skiros Island","country":"GR","runway_length":0,"runway_show":0,"points":"","url":"","address":"","is_web":0},{"area_id":6153,"type":0,"shape":0,"lat":38.923705,"lng":20.766321,"radius":1636,"level":2,"updated_at":1447945800,"begin_at":0,"end_at":0,"name":"Aktion National Airport","city":"Preveza/Lefkada","country":"GR","runway_length":0,"runway_show":0,"points":"","url":"","address":"","is_web":0},{"area_id":933,"type":0,"shape":0,"lat":38.604034,"lng":21.351429,"radius":1907,"level":2,"updated_at":1447945800,"begin_at":0,"end_at":0,"name":"Agrinion Airport","city":"Agrinion","country":"GR","runway_length":0,"runway_show":0,"points":"","url":"","address":"","is_web":0},{"area_id":2664,"type":0,"shape":0,"lat":38.344056,"lng":26.141065,"radius":858,"level":2,"updated_at":1447945800,"begin_at":0,"end_at":0,"name":"Chios Island National Airport","city":"Chios Island","country":"GR","runway_length":0,"runway_show":0,"points":"","url":"","address":"","is_web":0},{"area_id":9970,"type":0,"shape":0,"lat":38.3388,"lng":23.565165,"radius":1921,"level":2,"updated_at":1447945800,"begin_at":0,"end_at":0,"name":"Tanagra","city":"NULL","country":"GR","runway_length":0,"runway_show":0,"points":"","url":"","address":"","is_web":0},{"area_id":2430,"type":0,"shape":0,"lat":38.151082,"lng":21.425733,"radius":1903,"level":2,"updated_at":1447945800,"begin_at":0,"end_at":0,"name":"Araxos Airport","city":"Patras","country":"GR","runway_length":0,"runway_show":0,"points":"","url":"","address":"","is_web":0},{"area_id":56,"type":0,"shape":0,"lat":38.119638,"lng":20.502263,"radius":1460,"level":2,"updated_at":1447945800,"begin_at":0,"end_at":0,"name":"Kefallinia Airport","city":"Kefallinia Island","country":"GR","runway_length":0,"runway_show":0,"points":"","url":"","address":"","is_web":0},{"area_id":9969,"type":0,"shape":0,"lat":38.065701,"lng":23.555895,"radius":1800,"level":2,"updated_at":1447945800,"begin_at":0,"end_at":0,"name":"Στρατιωτικό Αεροδρόμιο Ελευσίνας","city":"NULL","country":"GR","runway_length":0,"runway_show":0,"points":"","url":"","address":"","is_web":0},{"area_id":31664,"type":1,"shape":0,"lat":37.96833,"lng":23.74111,"radius":500,"level":2,"updated_at":1447945800,"begin_at":0,"end_at":0,"name":"Panathinaiko Stadium","city":"Athens","country":"GR","runway_length":0,"runway_show":0,"points":"","url":"","address":"","is_web":0},{"area_id":31727,"type":1,"shape":0,"lat":37.946169,"lng":23.664536,"radius":500,"level":2,"updated_at":1447945800,"begin_at":0,"end_at":0,"name":"Karaiskakis Stadium","city":"Pireaus","country":"GR","runway_length":0,"runway_show":0,"points":"","url":"","address":"","is_web":0},{"area_id":1208,"type":0,"shape":0,"lat":37.937272,"lng":23.946013,"radius":3619,"level":2,"updated_at":1447945800,"begin_at":0,"end_at":0,"name":"Athens International Airport","city":"Athens","country":"GR","runway_length":0,"runway_show":0,"points":"","url":"","address":"","is_web":0},{"area_id":6189,"type":0,"shape":0,"lat":37.920945,"lng":21.292164,"radius":1969,"level":2,"updated_at":1447945800,"begin_at":0,"end_at":0,"name":"Andravida Airport","city":"Andravida","country":"GR","runway_length":0,"runway_show":0,"points":"","url":"","address":"","is_web":0},{"area_id":8402,"type":0,"shape":0,"lat":37.690205,"lng":26.911725,"radius":1264,"level":2,"updated_at":1447945800,"begin_at":0,"end_at":0,"name":"Samos Aristarchos Airport","city":"Samos Island","country":"GR","runway_length":0,"runway_show":0,"points":"","url":"","address":"","is_web":0},{"area_id":2650,"type":0,"shape":0,"lat":37.682983,"lng":26.346989,"radius":795,"level":2,"updated_at":1447945800,"begin_at":0,"end_at":0,"name":"Ikaria Airport","city":"Ikaria Island","country":"GR","runway_length":0,"runway_show":0,"points":"","url":"","address":"","is_web":0},{"area_id":2678,"type":0,"shape":0,"lat":37.434905,"lng":25.347737,"radius":1093,"level":2,"updated_at":1447945800,"begin_at":0,"end_at":0,"name":"Mikonos Airport","city":"Mykonos Island","country":"GR","runway_length":0,"runway_show":0,"points":"","url":"","address":"","is_web":0},{"area_id":2735,"type":0,"shape":0,"lat":37.422814,"lng":24.949462,"radius":634,"level":2,"updated_at":1447945800,"begin_at":0,"end_at":0,"name":"Syros Airport","city":"Syros Island","country":"GR","runway_length":0,"runway_show":0,"points":"","url":"","address":"","is_web":0},{"area_id":5908,"type":0,"shape":0,"lat":37.298599,"lng":23.148887,"radius":362,"level":2,"updated_at":1447945800,"begin_at":0,"end_at":0,"name":"Porto Cheli Airport","city":"Porto Cheli","country":"GR","runway_length":0,"runway_show":0,"points":"","url":"","address":"","is_web":0},{"area_id":3983,"type":0,"shape":0,"lat":37.184844,"lng":26.79988,"radius":617,"level":2,"updated_at":1447945800,"begin_at":0,"end_at":0,"name":"Leros Airport","city":"Leros Island","country":"GR","runway_length":0,"runway_show":0,"points":"","url":"","address":"","is_web":0},{"area_id":2693,"type":0,"shape":0,"lat":37.08113,"lng":25.367933,"radius":599,"level":2,"updated_at":1447945800,"begin_at":0,"end_at":0,"name":"Naxos Airport","city":"Naxos Island","country":"GR","runway_length":0,"runway_show":0,"points":"","url":"","address":"","is_web":0},{"area_id":4967,"type":0,"shape":0,"lat":37.066962,"lng":22.025126,"radius":1770,"level":2,"updated_at":1447945800,"begin_at":0,"end_at":0,"name":"Kalamata Airport","city":"Kalamata","country":"GR","runway_length":0,"runway_show":0,"points":"","url":"","address":"","is_web":0},{"area_id":5722,"type":0,"shape":0,"lat":37.010188,"lng":25.128127,"radius":523,"level":2,"updated_at":1447945800,"begin_at":0,"end_at":0,"name":"Paros Airport","city":"Paros Island","country":"GR","runway_length":0,"runway_show":0,"points":"","url":"","address":"","is_web":0},{"area_id":8478,"type":0,"shape":0,"lat":36.973724,"lng":22.525728,"radius":672,"level":2,"updated_at":1447945800,"begin_at":0,"end_at":0,"name":"Sparti Airport","city":"Sparti","country":"GR","runway_length":0,"runway_show":0,"points":"","url":"","address":"","is_web":0},{"area_id":4869,"type":0,"shape":0,"lat":36.794215,"lng":27.088395,"radius":1473,"level":2,"updated_at":1447945800,"begin_at":0,"end_at":0,"name":"Kos Airport","city":"Kos Island","country":"GR","runway_length":0,"runway_show":0,"points":"","url":"","address":"","is_web":0},{"area_id":6487,"type":0,"shape":0,"lat":36.696959,"lng":24.474685,"radius":785,"level":2,"updated_at":1447945800,"begin_at":0,"end_at":0,"name":"Milos Airport","city":"Milos Island","country":"GR","runway_length":0,"runway_show":0,"points":"","url":"","address":"","is_web":0},{"area_id":2738,"type":0,"shape":0,"lat":36.580353,"lng":26.375424,"radius":640,"level":2,"updated_at":1447945800,"begin_at":0,"end_at":0,"name":"Astypalaia Airport","city":"Astypalaia Island","country":"GR","runway_length":0,"runway_show":0,"points":"","url":"","address":"","is_web":0},{"area_id":5354,"type":0,"shape":0,"lat":36.405278,"lng":28.086111,"radius":1765,"level":2,"updated_at":1447945800,"begin_at":0,"end_at":0,"name":"Diagoras Airport","city":"Rodes Island","country":"GR","runway_length":0,"runway_show":0,"points":"","url":"","address":"","is_web":0},{"area_id":2737,"type":0,"shape":0,"lat":36.400319,"lng":25.477648,"radius":1376,"level":2,"updated_at":1447945800,"begin_at":0,"end_at":0,"name":"Santorini Airport","city":"Santorini Island","country":"GR","runway_length":0,"runway_show":0,"points":"","url":"","address":"","is_web":0},{"area_id":4914,"type":0,"shape":0,"lat":36.274062,"lng":23.016835,"radius":955,"level":2,"updated_at":1447945800,"begin_at":0,"end_at":0,"name":"Kithira Airport","city":"Kithira Island","country":"GR","runway_length":0,"runway_show":0,"points":"","url":"","address":"","is_web":0},{"area_id":5233,"type":0,"shape":0,"lat":36.14142,"lng":29.576559,"radius":547,"level":2,"updated_at":1447945800,"begin_at":0,"end_at":0,"name":"Kastelorizo Airport","city":"Kastelorizo Island","country":"GR","runway_length":0,"runway_show":0,"points":"","url":"","address":"","is_web":0},{"area_id":1815,"type":0,"shape":0,"lat":35.530691,"lng":24.150885,"radius":2087,"level":2,"updated_at":1447945800,"begin_at":0,"end_at":0,"name":"Chania International Airport","city":"Souda","country":"GR","runway_length":0,"runway_show":0,"points":"","url":"","address":"","is_web":0},{"area_id":1107,"type":0,"shape":0,"lat":35.420165,"lng":27.147236,"radius":1197,"level":2,"updated_at":1447945800,"begin_at":0,"end_at":0,"name":"Karpathos Airport","city":"Karpathos Island","country":"GR","runway_length":0,"runway_show":0,"points":"","url":"","address":"","is_web":0},{"area_id":1397,"type":0,"shape":0,"lat":35.33891,"lng":25.177,"radius":1475,"level":2,"updated_at":1447945800,"begin_at":0,"end_at":0,"name":"Heraklion International Nikos Kazantzakis Airport","city":"Heraklion","country":"GR","runway_length":0,"runway_show":0,"points":"","url":"","address":"","is_web":0},{"area_id":31841,"type":1,"shape":0,"lat":35.336667,"lng":25.106111,"radius":500,"level":2,"updated_at":1447945800,"begin_at":0,"end_at":0,"name":"Pankritio Stadium","city":"Heraklio","country":"GR","runway_length":0,"runway_show":0,"points":"","url":"","address":"","is_web":0},{"area_id":2725,"type":0,"shape":0,"lat":35.215595,"lng":26.101014,"radius":1263,"level":2,"updated_at":1447945800,"begin_at":0,"end_at":0,"name":"Sitia Airport","city":"Crete Island","country":"GR","runway_length":0,"runway_show":0,"points":"","url":"","address":"","is_web":0}],"status":"200"}