{"data":[{"area_id":405,"type":0,"shape":0,"lat":8.351316,"lng":-10.227073,"radius":771,"level":2,"updated_at":1447945800,"begin_at":0,"end_at":0,"name":"Foya Airport","city":"Foya","country":"LR","runway_length":0,"runway_show":0,"points":"","url":"","address":"","is_web":0},{"area_id":7177,"type":0,"shape":0,"lat":8.323466,"lng":-9.769155,"radius":913,"level":2,"updated_at":1447945800,"begin_at":0,"end_at":0,"name":"Voinjama Airport","city":"Voinjama","country":"LR","runway_length":0,"runway_show":0,"points":"","url":"","address":"","is_web":0},{"area_id":6495,"type":0,"shape":0,"lat":6.289444,"lng":-10.758333,"radius":1040,"level":2,"updated_at":1447945800,"begin_at":0,"end_at":0,"name":"Spriggs Payne Airport","city":"Monrovia","country":"LR","runway_length":0,"runway_show":0,"points":"","url":"","address":"","is_web":0},{"area_id":5440,"type":0,"shape":0,"lat":6.231104,"lng":-10.36326,"radius":2327,"level":2,"updated_at":1447945800,"begin_at":0,"end_at":0,"name":"Roberts International Airport","city":"Monrovia","country":"LR","runway_length":0,"runway_show":0,"points":"","url":"","address":"","is_web":0},{"area_id":7383,"type":0,"shape":0,"lat":6.048829,"lng":-8.139251,"radius":1007,"level":2,"updated_at":1447945800,"begin_at":0,"end_at":0,"name":"Tchien Airport","city":"Tchien","country":"LR","runway_length":0,"runway_show":0,"points":"","url":"","address":"","is_web":0},{"area_id":8428,"type":0,"shape":0,"lat":5.033333,"lng":-9.064444,"radius":771,"level":2,"updated_at":1447945800,"begin_at":0,"end_at":0,"name":"Greenville Sinoe Airport","city":"Greenville","country":"LR","runway_length":0,"runway_show":0,"points":"","url":"","address":"","is_web":0},{"area_id":1980,"type":0,"shape":0,"lat":4.379546,"lng":-7.696198,"radius":540,"level":2,"updated_at":1447945800,"begin_at":0,"end_at":0,"name":"Cape Palmas Airport","city":"Harper","country":"LR","runway_length":0,"runway_show":0,"points":"","url":"","address":"","is_web":0}],"status":"200"}