{"data":[{"area_id":3355,"type":0,"shape":0,"lat":-19.72059,"lng":163.661036,"radius":340,"level":2,"updated_at":1447945800,"begin_at":0,"end_at":0,"name":"Île Art - Waala Airport","city":"Waala","country":"NC","runway_length":0,"runway_show":0,"points":"","url":"","address":"","is_web":0},{"area_id":6140,"type":0,"shape":0,"lat":-20.289074,"lng":164.099255,"radius":686,"level":2,"updated_at":1447945800,"begin_at":0,"end_at":0,"name":"Poum Airport","city":"Poum","country":"NC","runway_length":0,"runway_show":0,"points":"","url":"","address":"","is_web":0},{"area_id":5023,"type":0,"shape":0,"lat":-20.546078,"lng":164.255259,"radius":885,"level":2,"updated_at":1447945800,"begin_at":0,"end_at":0,"name":"Koumac Airport","city":"Koumac","country":"NC","runway_length":0,"runway_show":0,"points":"","url":"","address":"","is_web":0},{"area_id":7033,"type":0,"shape":0,"lat":-20.640837,"lng":166.573025,"radius":886,"level":2,"updated_at":1447945800,"begin_at":0,"end_at":0,"name":"Ouvéa Airport","city":"Ouvéa","country":"NC","runway_length":0,"runway_show":0,"points":"","url":"","address":"","is_web":0},{"area_id":3819,"type":0,"shape":0,"lat":-20.774091,"lng":167.23921,"radius":1037,"level":2,"updated_at":1447945800,"begin_at":0,"end_at":0,"name":"Lifou Airport","city":"Lifou","country":"NC","runway_length":0,"runway_show":0,"points":"","url":"","address":"","is_web":0},{"area_id":7556,"type":0,"shape":0,"lat":-20.790387,"lng":165.259209,"radius":662,"level":2,"updated_at":1447945800,"begin_at":0,"end_at":0,"name":"Touho Airport","city":"Touho","country":"NC","runway_length":0,"runway_show":0,"points":"","url":"","address":"","is_web":0},{"area_id":5011,"type":0,"shape":0,"lat":-21.053744,"lng":164.838694,"radius":608,"level":2,"updated_at":1447945800,"begin_at":0,"end_at":0,"name":"Koné Airport","city":"Koné","country":"NC","runway_length":0,"runway_show":0,"points":"","url":"","address":"","is_web":0},{"area_id":7367,"type":0,"shape":0,"lat":-21.095413,"lng":167.804791,"radius":982,"level":2,"updated_at":1447945800,"begin_at":0,"end_at":0,"name":"Tiga Airport","city":"Tiga","country":"NC","runway_length":0,"runway_show":0,"points":"","url":"","address":"","is_web":0},{"area_id":5777,"type":0,"shape":0,"lat":-21.316668,"lng":165,"radius":451,"level":2,"updated_at":1447945800,"begin_at":0,"end_at":0,"name":"Mueo Airport","city":"Mueo","country":"NC","runway_length":0,"runway_show":0,"points":"","url":"","address":"","is_web":0},{"area_id":6308,"type":0,"shape":0,"lat":-21.484632,"lng":168.041574,"radius":802,"level":2,"updated_at":1447945800,"begin_at":0,"end_at":0,"name":"Maré Airport","city":"Maré","country":"NC","runway_length":0,"runway_show":0,"points":"","url":"","address":"","is_web":0},{"area_id":4322,"type":0,"shape":0,"lat":-22.014501,"lng":166.214504,"radius":2187,"level":2,"updated_at":1447945800,"begin_at":0,"end_at":0,"name":"La Tontouta International Airport","city":"Nouméa","country":"NC","runway_length":0,"runway_show":0,"points":"","url":"","address":"","is_web":0},{"area_id":2268,"type":0,"shape":0,"lat":-22.257761,"lng":166.472939,"radius":785,"level":2,"updated_at":1447945800,"begin_at":0,"end_at":0,"name":"Nouméa Magenta Airport","city":"Nouméa","country":"NC","runway_length":0,"runway_show":0,"points":"","url":"","address":"","is_web":0},{"area_id":2865,"type":0,"shape":0,"lat":-22.588532,"lng":167.455205,"radius":796,"level":2,"updated_at":1447945800,"begin_at":0,"end_at":0,"name":"Île des Pins Airport","city":"Île des Pins","country":"NC","runway_length":0,"runway_show":0,"points":"","url":"","address":"","is_web":0}],"status":"200"}