{"data":[{"area_id":6311,"type":0,"shape":0,"lat":71.029538,"lng":27.826363,"radius":497,"level":2,"updated_at":1447945800,"begin_at":0,"end_at":0,"name":"Mehamn Airport","city":"Mehamn","country":"NO","runway_length":0,"runway_show":0,"points":"","url":"","address":"","is_web":0},{"area_id":1609,"type":0,"shape":0,"lat":71.009466,"lng":25.985302,"radius":566,"level":2,"updated_at":1447945800,"begin_at":0,"end_at":0,"name":"Valan Airport","city":"Honningsvåg","country":"NO","runway_length":0,"runway_show":0,"points":"","url":"","address":"","is_web":0},{"area_id":3550,"type":0,"shape":0,"lat":70.870964,"lng":29.032422,"radius":648,"level":2,"updated_at":1447945800,"begin_at":0,"end_at":0,"name":"Berlevåg Airport","city":"Berlevåg","country":"NO","runway_length":0,"runway_show":0,"points":"","url":"","address":"","is_web":0},{"area_id":1410,"type":0,"shape":0,"lat":70.679126,"lng":23.667757,"radius":580,"level":2,"updated_at":1447945800,"begin_at":0,"end_at":0,"name":"Hammerfest Airport","city":"Hammerfest","country":"NO","runway_length":0,"runway_show":0,"points":"","url":"","address":"","is_web":0},{"area_id":3260,"type":0,"shape":0,"lat":70.600905,"lng":29.693789,"radius":639,"level":2,"updated_at":1447945800,"begin_at":0,"end_at":0,"name":"Båtsfjord Airport","city":"Båtsfjord","country":"NO","runway_length":0,"runway_show":0,"points":"","url":"","address":"","is_web":0},{"area_id":1327,"type":0,"shape":0,"lat":70.48618,"lng":22.142299,"radius":483,"level":2,"updated_at":1447945800,"begin_at":0,"end_at":0,"name":"Hasvik Airport","city":"Hasvik","country":"NO","runway_length":0,"runway_show":0,"points":"","url":"","address":"","is_web":0},{"area_id":7063,"type":0,"shape":0,"lat":70.355278,"lng":31.045,"radius":617,"level":2,"updated_at":1447945800,"begin_at":0,"end_at":0,"name":"Vardø, Svartnes Airport","city":"Vardø","country":"NO","runway_length":0,"runway_show":0,"points":"","url":"","address":"","is_web":0},{"area_id":3852,"type":0,"shape":0,"lat":70.06814,"lng":24.973178,"radius":1488,"level":2,"updated_at":1447945800,"begin_at":0,"end_at":0,"name":"Banak Airport","city":"Lakselv","country":"NO","runway_length":0,"runway_show":0,"points":"","url":"","address":"","is_web":0},{"area_id":7091,"type":0,"shape":0,"lat":70.065186,"lng":29.843524,"radius":719,"level":2,"updated_at":1447945800,"begin_at":0,"end_at":0,"name":"Vadsø Airport","city":"Vadsø","country":"NO","runway_length":0,"runway_show":0,"points":"","url":"","address":"","is_web":0},{"area_id":8453,"type":0,"shape":0,"lat":69.786849,"lng":20.960034,"radius":458,"level":2,"updated_at":1447945800,"begin_at":0,"end_at":0,"name":"Sørkjosen Airport","city":"Sørkjosen","country":"NO","runway_length":0,"runway_show":0,"points":"","url":"","address":"","is_web":0},{"area_id":4936,"type":0,"shape":0,"lat":69.722428,"lng":29.883596,"radius":1265,"level":2,"updated_at":1447945800,"begin_at":0,"end_at":0,"name":"Kirkenes, Høybuktmoen Airport","city":"Kirkenes","country":"NO","runway_length":0,"runway_show":0,"points":"","url":"","address":"","is_web":0},{"area_id":7554,"type":0,"shape":0,"lat":69.683786,"lng":18.915577,"radius":1497,"level":2,"updated_at":1447945800,"begin_at":0,"end_at":0,"name":"Tromsø Airport","city":"Tromsø","country":"NO","runway_length":0,"runway_show":0,"points":"","url":"","address":"","is_web":0},{"area_id":1095,"type":0,"shape":0,"lat":69.296627,"lng":16.137131,"radius":1627,"level":2,"updated_at":1447945800,"begin_at":0,"end_at":0,"name":"Andøya Airport","city":"Andenes","country":"NO","runway_length":0,"runway_show":0,"points":"","url":"","address":"","is_web":0},{"area_id":3123,"type":0,"shape":0,"lat":69.055833,"lng":18.540278,"radius":1480,"level":2,"updated_at":1447945800,"begin_at":0,"end_at":0,"name":"Bardufoss Airport","city":"Målselv","country":"NO","runway_length":0,"runway_show":0,"points":"","url":"","address":"","is_web":0},{"area_id":8359,"type":0,"shape":0,"lat":68.579974,"lng":15.021551,"radius":623,"level":2,"updated_at":1447945800,"begin_at":0,"end_at":0,"name":"Stokmarknes Skagen Airport","city":"Hadsel","country":"NO","runway_length":0,"runway_show":0,"points":"","url":"","address":"","is_web":0},{"area_id":227,"type":0,"shape":0,"lat":68.491109,"lng":16.680574,"radius":1627,"level":2,"updated_at":1447945800,"begin_at":0,"end_at":0,"name":"Harstad/Narvik, Evenes Airport","city":"Evenes","country":"NO","runway_length":0,"runway_show":0,"points":"","url":"","address":"","is_web":0},{"area_id":4406,"type":0,"shape":0,"lat":68.436005,"lng":17.388137,"radius":533,"level":2,"updated_at":1447945800,"begin_at":0,"end_at":0,"name":"Narvik Framnes Airport","city":"Narvik","country":"NO","runway_length":0,"runway_show":0,"points":"","url":"","address":"","is_web":0},{"area_id":3853,"type":0,"shape":0,"lat":68.153938,"lng":13.612544,"radius":654,"level":2,"updated_at":1447945800,"begin_at":0,"end_at":0,"name":"Leknes Airport","city":"Leknes","country":"NO","runway_length":0,"runway_show":0,"points":"","url":"","address":"","is_web":0},{"area_id":5324,"type":0,"shape":0,"lat":67.527403,"lng":12.104782,"radius":636,"level":2,"updated_at":1447945800,"begin_at":0,"end_at":0,"name":"Røst Airport","city":"","country":"NO","runway_length":0,"runway_show":0,"points":"","url":"","address":"","is_web":0},{"area_id":3397,"type":0,"shape":0,"lat":67.269173,"lng":14.364469,"radius":1636,"level":2,"updated_at":1447945800,"begin_at":0,"end_at":0,"name":"Bodø Airport","city":"Bodø","country":"NO","runway_length":0,"runway_show":0,"points":"","url":"","address":"","is_web":0},{"area_id":6608,"type":0,"shape":0,"lat":66.363889,"lng":14.301389,"radius":483,"level":2,"updated_at":1447945800,"begin_at":0,"end_at":0,"name":"Mo i Rana, Røssvoll Airport","city":"Mo i Rana","country":"NO","runway_length":0,"runway_show":0,"points":"","url":"","address":"","is_web":0},{"area_id":8544,"type":0,"shape":0,"lat":65.958255,"lng":12.470746,"radius":754,"level":2,"updated_at":1447945800,"begin_at":0,"end_at":0,"name":"Sandnessjøen, Stokka Airport","city":"Alstahaug","country":"NO","runway_length":0,"runway_show":0,"points":"","url":"","address":"","is_web":0},{"area_id":3370,"type":0,"shape":0,"lat":65.458527,"lng":12.212838,"radius":861,"level":2,"updated_at":1447945800,"begin_at":0,"end_at":0,"name":"Brønnøysund Airport","city":"Brønnøy","country":"NO","runway_length":0,"runway_show":0,"points":"","url":"","address":"","is_web":0},{"area_id":5531,"type":0,"shape":0,"lat":64.837156,"lng":11.142562,"radius":624,"level":2,"updated_at":1447945800,"begin_at":0,"end_at":0,"name":"Rørvik, Ryum Airport","city":"Rørvik","country":"NO","runway_length":0,"runway_show":0,"points":"","url":"","address":"","is_web":0},{"area_id":4654,"type":0,"shape":0,"lat":64.472276,"lng":11.576159,"radius":672,"level":2,"updated_at":1447945800,"begin_at":0,"end_at":0,"name":"Namsos Høknesøra Airport","city":"Namsos","country":"NO","runway_length":0,"runway_show":0,"points":"","url":"","address":"","is_web":0},{"area_id":4544,"type":0,"shape":0,"lat":63.700799,"lng":9.607914,"radius":1675,"level":2,"updated_at":1447945800,"begin_at":0,"end_at":0,"name":"Ørland Airport","city":"Ørland","country":"NO","runway_length":0,"runway_show":0,"points":"","url":"","address":"","is_web":0},{"area_id":7587,"type":0,"shape":0,"lat":63.457848,"lng":10.916938,"radius":1598,"level":2,"updated_at":1447945800,"begin_at":0,"end_at":0,"name":"Trondheim, Værnes Airport","city":"Trondheim","country":"NO","runway_length":0,"runway_show":0,"points":"","url":"","address":"","is_web":0},{"area_id":5117,"type":0,"shape":0,"lat":63.112099,"lng":7.827143,"radius":1292,"level":2,"updated_at":1447945800,"begin_at":0,"end_at":0,"name":"Kristiansund, Kvernberget Airport","city":"Kvernberget","country":"NO","runway_length":0,"runway_show":0,"points":"","url":"","address":"","is_web":0},{"area_id":6560,"type":0,"shape":0,"lat":62.74584,"lng":7.269676,"radius":1001,"level":2,"updated_at":1447945800,"begin_at":0,"end_at":0,"name":"Molde Airport","city":"Årø","country":"NO","runway_length":0,"runway_show":0,"points":"","url":"","address":"","is_web":0},{"area_id":5476,"type":0,"shape":0,"lat":62.579308,"lng":11.344442,"radius":883,"level":2,"updated_at":1447945800,"begin_at":0,"end_at":0,"name":"Røros Airport","city":"Røros","country":"NO","runway_length":0,"runway_show":0,"points":"","url":"","address":"","is_web":0},{"area_id":898,"type":0,"shape":0,"lat":62.560361,"lng":6.112905,"radius":1355,"level":2,"updated_at":1447945800,"begin_at":0,"end_at":0,"name":"Ålesund Airport","city":"Ålesund","country":"NO","runway_length":0,"runway_show":0,"points":"","url":"","address":"","is_web":0},{"area_id":1530,"type":0,"shape":0,"lat":62.179832,"lng":6.076083,"radius":831,"level":2,"updated_at":1447945800,"begin_at":0,"end_at":0,"name":"Ørsta-Volda, Hovden Airport","city":"Ørsta","country":"NO","runway_length":0,"runway_show":0,"points":"","url":"","address":"","is_web":0},{"area_id":8190,"type":0,"shape":0,"lat":61.830155,"lng":6.108227,"radius":482,"level":2,"updated_at":1447945800,"begin_at":0,"end_at":0,"name":"Sandane, Anda Airport","city":"Sandane","country":"NO","runway_length":0,"runway_show":0,"points":"","url":"","address":"","is_web":0},{"area_id":423,"type":0,"shape":0,"lat":61.582975,"lng":5.019049,"radius":745,"level":2,"updated_at":1447945800,"begin_at":0,"end_at":0,"name":"Florø Airport","city":"Florø","country":"NO","runway_length":0,"runway_show":0,"points":"","url":"","address":"","is_web":0},{"area_id":294,"type":0,"shape":0,"lat":61.391427,"lng":5.758601,"radius":662,"level":2,"updated_at":1447945800,"begin_at":0,"end_at":0,"name":"Bringeland Airport","city":"Førde","country":"NO","runway_length":0,"runway_show":0,"points":"","url":"","address":"","is_web":0},{"area_id":8450,"type":0,"shape":0,"lat":61.155966,"lng":7.136836,"radius":743,"level":2,"updated_at":1447945800,"begin_at":0,"end_at":0,"name":"Sogndal Airport","city":"Sogndal","country":"NO","runway_length":0,"runway_show":0,"points":"","url":"","address":"","is_web":0},{"area_id":7082,"type":0,"shape":0,"lat":61.010184,"lng":9.293145,"radius":1174,"level":2,"updated_at":1447945800,"begin_at":0,"end_at":0,"name":"Leirin Airport","city":"","country":"NO","runway_length":0,"runway_show":0,"points":"","url":"","address":"","is_web":0},{"area_id":1493,"type":0,"shape":0,"lat":60.818148,"lng":11.0677,"radius":598,"level":2,"updated_at":1447945800,"begin_at":0,"end_at":0,"name":"Stafsberg Airport","city":"Hamar","country":"NO","runway_length":0,"runway_show":0,"points":"","url":"","address":"","is_web":0},{"area_id":615,"type":0,"shape":0,"lat":60.416767,"lng":8.513888,"radius":946,"level":2,"updated_at":1447945800,"begin_at":0,"end_at":0,"name":"Geilo Dagali Airport","city":"Dagali","country":"NO","runway_length":0,"runway_show":0,"points":"","url":"","address":"","is_web":0},{"area_id":3193,"type":0,"shape":0,"lat":60.295403,"lng":5.224937,"radius":2013,"level":2,"updated_at":1447945800,"begin_at":0,"end_at":0,"name":"Bergen, Flesland Airport","city":"Bergen","country":"NO","runway_length":0,"runway_show":0,"points":"","url":"","address":"","is_web":0},{"area_id":4643,"type":0,"shape":0,"lat":60.19328,"lng":11.09691,"radius":2988,"level":2,"updated_at":1447945800,"begin_at":0,"end_at":0,"name":"Oslo Gardermoen Airport","city":"Oslo","country":"NO","runway_length":0,"runway_show":0,"points":"","url":"","address":"","is_web":0},{"area_id":31826,"type":1,"shape":0,"lat":59.949,"lng":10.734333,"radius":500,"level":2,"updated_at":1447945800,"begin_at":0,"end_at":0,"name":"Ullevaal Stadion","city":"Oslo","country":"NO","runway_length":0,"runway_show":0,"points":"","url":"","address":"","is_web":0},{"area_id":8525,"type":0,"shape":0,"lat":59.79241,"lng":5.341159,"radius":864,"level":2,"updated_at":1447945800,"begin_at":0,"end_at":0,"name":"Stord Airport","city":"Leirvik","country":"NO","runway_length":0,"runway_show":0,"points":"","url":"","address":"","is_web":0},{"area_id":4369,"type":0,"shape":0,"lat":59.565841,"lng":9.21239,"radius":874,"level":2,"updated_at":1447945800,"begin_at":0,"end_at":0,"name":"Notodden Airport","city":"","country":"NO","runway_length":0,"runway_show":0,"points":"","url":"","address":"","is_web":0},{"area_id":5548,"type":0,"shape":0,"lat":59.378549,"lng":10.78377,"radius":1589,"level":2,"updated_at":1447945800,"begin_at":0,"end_at":0,"name":"Moss, Rygge Airport","city":"Rygge","country":"NO","runway_length":0,"runway_show":0,"points":"","url":"","address":"","is_web":0},{"area_id":1345,"type":0,"shape":0,"lat":59.342784,"lng":5.21498,"radius":1401,"level":2,"updated_at":1447945800,"begin_at":0,"end_at":0,"name":"Haugesund Airport","city":"Karmøy","country":"NO","runway_length":0,"runway_show":0,"points":"","url":"","address":"","is_web":0},{"area_id":7589,"type":0,"shape":0,"lat":59.186931,"lng":10.259746,"radius":1568,"level":2,"updated_at":1447945800,"begin_at":0,"end_at":0,"name":"Sandefjord, Torp Airport","city":"Torp","country":"NO","runway_length":0,"runway_show":0,"points":"","url":"","address":"","is_web":0},{"area_id":8350,"type":0,"shape":0,"lat":59.184653,"lng":9.567133,"radius":804,"level":2,"updated_at":1447945800,"begin_at":0,"end_at":0,"name":"Skien Airport","city":"Geiteryggen","country":"NO","runway_length":0,"runway_show":0,"points":"","url":"","address":"","is_web":0},{"area_id":8379,"type":0,"shape":0,"lat":58.880973,"lng":5.631318,"radius":1695,"level":2,"updated_at":1447945800,"begin_at":0,"end_at":0,"name":"Stavanger Airport, Sola","city":"Sola","country":"NO","runway_length":0,"runway_show":0,"points":"","url":"","address":"","is_web":0},{"area_id":5089,"type":0,"shape":0,"lat":58.204644,"lng":8.084629,"radius":1112,"level":2,"updated_at":1447945800,"begin_at":0,"end_at":0,"name":"Kristiansand Airport","city":"Kjevik","country":"NO","runway_length":0,"runway_show":0,"points":"","url":"","address":"","is_web":0},{"area_id":267,"type":0,"shape":0,"lat":58.099823,"lng":6.626377,"radius":1519,"level":2,"updated_at":1447945800,"begin_at":0,"end_at":0,"name":"Lista Airport","city":"Farsund","country":"NO","runway_length":0,"runway_show":0,"points":"","url":"","address":"","is_web":0}],"status":"200"}