{"data":[{"area_id":4745,"type":0,"shape":0,"lat":-35.070429,"lng":173.285038,"radius":1014,"level":2,"updated_at":1447945800,"begin_at":0,"end_at":0,"name":"Kaitaia Airport","city":"Kaitaia","country":"NZ","runway_length":0,"runway_show":0,"points":"","url":"","address":"","is_web":0},{"area_id":4928,"type":0,"shape":0,"lat":-35.258321,"lng":173.912534,"radius":794,"level":2,"updated_at":1447945800,"begin_at":0,"end_at":0,"name":"Kerikeri Airport","city":"Kerikeri","country":"NZ","runway_length":0,"runway_show":0,"points":"","url":"","address":"","is_web":0},{"area_id":4937,"type":0,"shape":0,"lat":-35.450366,"lng":173.816457,"radius":866,"level":2,"updated_at":1447945800,"begin_at":0,"end_at":0,"name":"Kaikohe Airport","city":"","country":"NZ","runway_length":0,"runway_show":0,"points":"","url":"","address":"","is_web":0},{"area_id":8035,"type":0,"shape":0,"lat":-35.769405,"lng":174.363689,"radius":681,"level":2,"updated_at":1447945800,"begin_at":0,"end_at":0,"name":"Whangarei Airport","city":"","country":"NZ","runway_length":0,"runway_show":0,"points":"","url":"","address":"","is_web":0},{"area_id":565,"type":0,"shape":0,"lat":-35.939946,"lng":173.893529,"radius":544,"level":2,"updated_at":1447945800,"begin_at":0,"end_at":0,"name":"Dargaville Aerodrome Airport","city":"","country":"NZ","runway_length":0,"runway_show":0,"points":"","url":"","address":"","is_web":0},{"area_id":2236,"type":0,"shape":0,"lat":-36.241077,"lng":175.468556,"radius":597,"level":2,"updated_at":1447945800,"begin_at":0,"end_at":0,"name":"Great Barrier Aerodrome Airport","city":"Claris","country":"NZ","runway_length":0,"runway_show":0,"points":"","url":"","address":"","is_web":0},{"area_id":10025,"type":0,"shape":0,"lat":-36.789221,"lng":174.629851,"radius":1209,"level":2,"updated_at":1447945800,"begin_at":0,"end_at":0,"name":"RNZAF Base Auckland","city":"Auckland","country":"NZ","runway_length":0,"runway_show":0,"points":"","url":"","address":"","is_web":0},{"area_id":1925,"type":0,"shape":0,"lat":-36.789571,"lng":175.506939,"radius":325,"level":2,"updated_at":1447945800,"begin_at":0,"end_at":0,"name":"Coromandel Aerodrome Airport","city":"","country":"NZ","runway_length":0,"runway_show":0,"points":"","url":"","address":"","is_web":0},{"area_id":7950,"type":0,"shape":0,"lat":-36.810593,"lng":175.08545,"radius":572,"level":2,"updated_at":1447945800,"begin_at":0,"end_at":0,"name":"Waiheke Reeve Airport","city":"","country":"NZ","runway_length":0,"runway_show":0,"points":"","url":"","address":"","is_web":0},{"area_id":8071,"type":0,"shape":0,"lat":-36.829278,"lng":175.680376,"radius":677,"level":2,"updated_at":1447945800,"begin_at":0,"end_at":0,"name":"Whitianga Airport","city":"","country":"NZ","runway_length":0,"runway_show":0,"points":"","url":"","address":"","is_web":0},{"area_id":1006,"type":0,"shape":0,"lat":-37.008248,"lng":174.785036,"radius":2037,"level":2,"updated_at":1447945800,"begin_at":0,"end_at":0,"name":"Auckland International Airport","city":"Auckland","country":"NZ","runway_length":0,"runway_show":0,"points":"","url":"","address":"","is_web":0},{"area_id":7512,"type":0,"shape":0,"lat":-37.160488,"lng":175.548972,"radius":579,"level":2,"updated_at":1447945800,"begin_at":0,"end_at":0,"name":"Thames Aerodrome Airport","city":"Thames","country":"NZ","runway_length":0,"runway_show":0,"points":"","url":"","address":"","is_web":0},{"area_id":7590,"type":0,"shape":0,"lat":-37.672968,"lng":176.198366,"radius":1049,"level":2,"updated_at":1447945800,"begin_at":0,"end_at":0,"name":"Tauranga Airport","city":"Tauranga","country":"NZ","runway_length":0,"runway_show":0,"points":"","url":"","address":"","is_web":0},{"area_id":6670,"type":0,"shape":0,"lat":-37.735394,"lng":175.742621,"radius":863,"level":2,"updated_at":1447945800,"begin_at":0,"end_at":0,"name":"Matamata Glider Airport","city":"Waharoa","country":"NZ","runway_length":0,"runway_show":0,"points":"","url":"","address":"","is_web":0},{"area_id":5239,"type":0,"shape":0,"lat":-37.805021,"lng":174.858638,"radius":388,"level":2,"updated_at":1447945800,"begin_at":0,"end_at":0,"name":"Raglan Airfield Airport","city":"Pakatoa Island","country":"NZ","runway_length":0,"runway_show":0,"points":"","url":"","address":"","is_web":0},{"area_id":1484,"type":0,"shape":0,"lat":-37.865368,"lng":175.334854,"radius":1410,"level":2,"updated_at":1447945800,"begin_at":0,"end_at":0,"name":"Hamilton International Airport","city":"Hamilton","country":"NZ","runway_length":0,"runway_show":0,"points":"","url":"","address":"","is_web":0},{"area_id":7939,"type":0,"shape":0,"lat":-37.922107,"lng":176.916629,"radius":736,"level":2,"updated_at":1447945800,"begin_at":0,"end_at":0,"name":"Whakatane Airport","city":"","country":"NZ","runway_length":0,"runway_show":0,"points":"","url":"","address":"","is_web":0},{"area_id":7387,"type":0,"shape":0,"lat":-38.181026,"lng":174.708015,"radius":635,"level":2,"updated_at":1447945800,"begin_at":0,"end_at":0,"name":"Taharoa Aerodrome Airport","city":"Taharoa","country":"NZ","runway_length":0,"runway_show":0,"points":"","url":"","address":"","is_web":0},{"area_id":7466,"type":0,"shape":0,"lat":-38.238011,"lng":175.894377,"radius":732,"level":2,"updated_at":1447945800,"begin_at":0,"end_at":0,"name":"Tokoroa Airfield Airport","city":"Tokoroa","country":"NZ","runway_length":0,"runway_show":0,"points":"","url":"","address":"","is_web":0},{"area_id":2329,"type":0,"shape":0,"lat":-38.663174,"lng":177.976918,"radius":804,"level":2,"updated_at":1447945800,"begin_at":0,"end_at":0,"name":"Gisborne Airport","city":"Gisborne","country":"NZ","runway_length":0,"runway_show":0,"points":"","url":"","address":"","is_web":0},{"area_id":7665,"type":0,"shape":0,"lat":-38.740315,"lng":176.083482,"radius":804,"level":2,"updated_at":1447945800,"begin_at":0,"end_at":0,"name":"Taupo Airport","city":"Taupo","country":"NZ","runway_length":0,"runway_show":0,"points":"","url":"","address":"","is_web":0},{"area_id":4329,"type":0,"shape":0,"lat":-39.008268,"lng":174.177017,"radius":682,"level":2,"updated_at":1447945800,"begin_at":0,"end_at":0,"name":"New Plymouth Airport","city":"New Plymouth","country":"NZ","runway_length":0,"runway_show":0,"points":"","url":"","address":"","is_web":0},{"area_id":7954,"type":0,"shape":0,"lat":-39.013715,"lng":177.40474,"radius":779,"level":2,"updated_at":1447945800,"begin_at":0,"end_at":0,"name":"Wairoa Airport","city":"Wairoa","country":"NZ","runway_length":0,"runway_show":0,"points":"","url":"","address":"","is_web":0},{"area_id":4326,"type":0,"shape":0,"lat":-39.468734,"lng":176.867531,"radius":660,"level":2,"updated_at":1447945800,"begin_at":0,"end_at":0,"name":"Napier Airport","city":"","country":"NZ","runway_length":0,"runway_show":0,"points":"","url":"","address":"","is_web":0},{"area_id":7866,"type":0,"shape":0,"lat":-39.96306,"lng":175.024657,"radius":733,"level":2,"updated_at":1447945800,"begin_at":0,"end_at":0,"name":"Wanganui Airport","city":"Wanganui","country":"NZ","runway_length":0,"runway_show":0,"points":"","url":"","address":"","is_web":0},{"area_id":4506,"type":0,"shape":0,"lat":-40.208168,"lng":175.386372,"radius":1227,"level":2,"updated_at":1447945800,"begin_at":0,"end_at":0,"name":"RNZAF Base Ohakea Airport","city":"","country":"NZ","runway_length":0,"runway_show":0,"points":"","url":"","address":"","is_web":0},{"area_id":5963,"type":0,"shape":0,"lat":-40.319945,"lng":175.614514,"radius":1054,"level":2,"updated_at":1447945800,"begin_at":0,"end_at":0,"name":"Palmerston North Airport","city":"","country":"NZ","runway_length":0,"runway_show":0,"points":"","url":"","address":"","is_web":0},{"area_id":5128,"type":0,"shape":0,"lat":-40.814199,"lng":172.775506,"radius":418,"level":2,"updated_at":1447945800,"begin_at":0,"end_at":0,"name":"Takaka Airport","city":"","country":"NZ","runway_length":0,"runway_show":0,"points":"","url":"","address":"","is_web":0},{"area_id":6031,"type":0,"shape":0,"lat":-40.905424,"lng":174.988001,"radius":771,"level":2,"updated_at":1447945800,"begin_at":0,"end_at":0,"name":"Paraparaumu Airport","city":"","country":"NZ","runway_length":0,"runway_show":0,"points":"","url":"","address":"","is_web":0},{"area_id":6632,"type":0,"shape":0,"lat":-40.97487,"lng":175.633976,"radius":778,"level":2,"updated_at":1447945800,"begin_at":0,"end_at":0,"name":"Hood Airport","city":"Masterton","country":"NZ","runway_length":0,"runway_show":0,"points":"","url":"","address":"","is_web":0},{"area_id":6834,"type":0,"shape":0,"lat":-41.120813,"lng":172.991062,"radius":477,"level":2,"updated_at":1447945800,"begin_at":0,"end_at":0,"name":"Motueka Airport","city":"","country":"NZ","runway_length":0,"runway_show":0,"points":"","url":"","address":"","is_web":0},{"area_id":7975,"type":0,"shape":0,"lat":-41.326757,"lng":174.807686,"radius":1148,"level":2,"updated_at":1447945800,"begin_at":0,"end_at":0,"name":"Wellington International Airport","city":"Wellington","country":"NZ","runway_length":0,"runway_show":0,"points":"","url":"","address":"","is_web":0},{"area_id":5766,"type":0,"shape":0,"lat":-41.346158,"lng":173.957079,"radius":562,"level":2,"updated_at":1447945800,"begin_at":0,"end_at":0,"name":"Picton Aerodrome Airport","city":"Picton","country":"NZ","runway_length":0,"runway_show":0,"points":"","url":"","address":"","is_web":0},{"area_id":3209,"type":0,"shape":0,"lat":-41.517316,"lng":173.869544,"radius":749,"level":2,"updated_at":1447945800,"begin_at":0,"end_at":0,"name":"Woodbourne Airport","city":"Blenheim","country":"NZ","runway_length":0,"runway_show":0,"points":"","url":"","address":"","is_web":0},{"area_id":4777,"type":0,"shape":0,"lat":-42.424937,"lng":173.604372,"radius":576,"level":2,"updated_at":1447945800,"begin_at":0,"end_at":0,"name":"Kaikoura Airport","city":"","country":"NZ","runway_length":0,"runway_show":0,"points":"","url":"","address":"","is_web":0},{"area_id":2382,"type":0,"shape":0,"lat":-42.461866,"lng":171.190808,"radius":558,"level":2,"updated_at":1447945800,"begin_at":0,"end_at":0,"name":"Greymouth Airport","city":"","country":"NZ","runway_length":0,"runway_show":0,"points":"","url":"","address":"","is_web":0},{"area_id":1457,"type":0,"shape":0,"lat":-42.713406,"lng":170.987575,"radius":872,"level":2,"updated_at":1447945800,"begin_at":0,"end_at":0,"name":"Hokitika Airfield Airport","city":"","country":"NZ","runway_length":0,"runway_show":0,"points":"","url":"","address":"","is_web":0},{"area_id":7941,"type":0,"shape":0,"lat":-43.361781,"lng":170.132126,"radius":495,"level":2,"updated_at":1447945800,"begin_at":0,"end_at":0,"name":"Franz Josef Aerodrome Airport","city":"Franz Josef Glacier","country":"NZ","runway_length":0,"runway_show":0,"points":"","url":"","address":"","is_web":0},{"area_id":1803,"type":0,"shape":0,"lat":-43.48565,"lng":172.53712,"radius":2331,"level":2,"updated_at":1447945800,"begin_at":0,"end_at":0,"name":"Christchurch International Airport","city":"Christchurch","country":"NZ","runway_length":0,"runway_show":0,"points":"","url":"","address":"","is_web":0},{"area_id":6562,"type":0,"shape":0,"lat":-43.76614,"lng":170.135414,"radius":855,"level":2,"updated_at":1447945800,"begin_at":0,"end_at":0,"name":"Mount Cook Airport","city":"","country":"NZ","runway_length":0,"runway_show":0,"points":"","url":"","address":"","is_web":0},{"area_id":1817,"type":0,"shape":0,"lat":-43.81,"lng":-176.457222,"radius":858,"level":2,"updated_at":1447945800,"begin_at":0,"end_at":0,"name":"Chatham Islands-Tuuta Airport","city":"Waitangi","country":"NZ","runway_length":0,"runway_show":0,"points":"","url":"","address":"","is_web":0},{"area_id":1182,"type":0,"shape":0,"lat":-43.90253,"lng":171.799861,"radius":788,"level":2,"updated_at":1447945800,"begin_at":0,"end_at":0,"name":"Ashburton Aerodrome Airport","city":"","country":"NZ","runway_length":0,"runway_show":0,"points":"","url":"","address":"","is_web":0},{"area_id":2492,"type":0,"shape":0,"lat":-43.910903,"lng":170.12847,"radius":578,"level":2,"updated_at":1447945800,"begin_at":0,"end_at":0,"name":"Glentanner Airport","city":"Glentanner Station","country":"NZ","runway_length":0,"runway_show":0,"points":"","url":"","address":"","is_web":0},{"area_id":7695,"type":0,"shape":0,"lat":-44.23699,"lng":170.116668,"radius":948,"level":2,"updated_at":1447945800,"begin_at":0,"end_at":0,"name":"Pukaki Airport","city":"Twitzel","country":"NZ","runway_length":0,"runway_show":0,"points":"","url":"","address":"","is_web":0},{"area_id":7422,"type":0,"shape":0,"lat":-44.299517,"lng":171.22512,"radius":783,"level":2,"updated_at":1447945800,"begin_at":0,"end_at":0,"name":"Timaru Airport","city":"","country":"NZ","runway_length":0,"runway_show":0,"points":"","url":"","address":"","is_web":0},{"area_id":6342,"type":0,"shape":0,"lat":-44.673413,"lng":167.92318,"radius":454,"level":2,"updated_at":1447945800,"begin_at":0,"end_at":0,"name":"Milford Sound Airport","city":"","country":"NZ","runway_length":0,"runway_show":0,"points":"","url":"","address":"","is_web":0},{"area_id":8008,"type":0,"shape":0,"lat":-44.722141,"lng":169.246572,"radius":893,"level":2,"updated_at":1447945800,"begin_at":0,"end_at":0,"name":"Wanaka Airport","city":"Wanuma","country":"NZ","runway_length":0,"runway_show":0,"points":"","url":"","address":"","is_web":0},{"area_id":4442,"type":0,"shape":0,"lat":-44.967153,"lng":171.082054,"radius":647,"level":2,"updated_at":1447945800,"begin_at":0,"end_at":0,"name":"Oamaru Airport","city":"","country":"NZ","runway_length":0,"runway_show":0,"points":"","url":"","address":"","is_web":0},{"area_id":6882,"type":0,"shape":0,"lat":-45.01891,"lng":168.747049,"radius":1128,"level":2,"updated_at":1447945800,"begin_at":0,"end_at":0,"name":"Queenstown Airport","city":"Queenstown","country":"NZ","runway_length":0,"runway_show":0,"points":"","url":"","address":"","is_web":0},{"area_id":1037,"type":0,"shape":0,"lat":-45.210927,"lng":169.370611,"radius":725,"level":2,"updated_at":1447945800,"begin_at":0,"end_at":0,"name":"Alexandra Airport","city":"Alexandra","country":"NZ","runway_length":0,"runway_show":0,"points":"","url":"","address":"","is_web":0},{"area_id":7344,"type":0,"shape":0,"lat":-45.533056,"lng":167.65,"radius":1023,"level":2,"updated_at":1447945800,"begin_at":0,"end_at":0,"name":"Manapouri Airport","city":"","country":"NZ","runway_length":0,"runway_show":0,"points":"","url":"","address":"","is_web":0},{"area_id":739,"type":0,"shape":0,"lat":-45.929026,"lng":170.197022,"radius":1040,"level":2,"updated_at":1447945800,"begin_at":0,"end_at":0,"name":"Dunedin Airport","city":"Dunedin","country":"NZ","runway_length":0,"runway_show":0,"points":"","url":"","address":"","is_web":0},{"area_id":2987,"type":0,"shape":0,"lat":-46.414604,"lng":168.313941,"radius":1255,"level":2,"updated_at":1447945800,"begin_at":0,"end_at":0,"name":"Invercargill Airport","city":"Invercargill","country":"NZ","runway_length":0,"runway_show":0,"points":"","url":"","address":"","is_web":0},{"area_id":8719,"type":0,"shape":0,"lat":-46.899531,"lng":168.10212,"radius":455,"level":2,"updated_at":1447945800,"begin_at":0,"end_at":0,"name":"Ryans Creek Aerodrome Airport","city":"Oban","country":"NZ","runway_length":0,"runway_show":0,"points":"","url":"","address":"","is_web":0}],"status":"200"}