{"data":[{"area_id":31666,"type":1,"shape":0,"lat":54.39,"lng":18.640278,"radius":500,"level":2,"updated_at":1447945800,"begin_at":0,"end_at":0,"name":"PGE Arena Gdansk","city":"Gdansk","country":"PL","runway_length":0,"runway_show":0,"points":"","url":"","address":"","is_web":0},{"area_id":2259,"type":0,"shape":0,"lat":54.377741,"lng":18.472624,"radius":2800,"level":2,"updated_at":1447945800,"begin_at":0,"end_at":0,"name":"Gdańsk Lech Wałęsa Airport","city":"Gdańsk","country":"PL","runway_length":0,"runway_show":0,"points":"","url":"","address":"","is_web":0},{"area_id":4655,"type":0,"shape":0,"lat":54.042589,"lng":16.265488,"radius":1738,"level":2,"updated_at":1447945800,"begin_at":0,"end_at":0,"name":"Koszalin Zegrze Airport","city":"","country":"PL","runway_length":0,"runway_show":0,"points":"","url":"","address":"","is_web":0},{"area_id":9810,"type":0,"shape":0,"lat":53.585877,"lng":14.902781,"radius":1875,"level":2,"updated_at":1447945800,"begin_at":0,"end_at":0,"name":"Szczecin-Goleniów Airport","city":"Goleniów","country":"PL","runway_length":0,"runway_show":0,"points":"","url":"","address":"","is_web":0},{"area_id":5701,"type":0,"shape":0,"lat":53.104404,"lng":23.176413,"radius":814,"level":2,"updated_at":1447945800,"begin_at":0,"end_at":0,"name":"Białystok-Krywlany Airport","city":"Białystok","country":"PL","runway_length":0,"runway_show":0,"points":"","url":"","address":"","is_web":0},{"area_id":3635,"type":0,"shape":0,"lat":53.098053,"lng":17.975599,"radius":1880,"level":2,"updated_at":1447945800,"begin_at":0,"end_at":0,"name":"Bydgoszcz Ignacy Jan Paderewski Airport","city":"Bydgoszcz","country":"PL","runway_length":0,"runway_show":0,"points":"","url":"","address":"","is_web":0},{"area_id":7991,"type":0,"shape":0,"lat":52.449265,"lng":20.651237,"radius":1882,"level":2,"updated_at":1447945800,"begin_at":0,"end_at":0,"name":"Modlin Airport","city":"Warsaw","country":"PL","runway_length":0,"runway_show":0,"points":"","url":"","address":"","is_web":0},{"area_id":6014,"type":0,"shape":0,"lat":52.421364,"lng":16.82175,"radius":1638,"level":2,"updated_at":1447945800,"begin_at":0,"end_at":0,"name":"Poznań-Ławica Airport","city":"Poznań","country":"PL","runway_length":0,"runway_show":0,"points":"","url":"","address":"","is_web":0},{"area_id":31669,"type":1,"shape":0,"lat":52.3975,"lng":16.857778,"radius":500,"level":2,"updated_at":1447945800,"begin_at":0,"end_at":0,"name":"Stadion Miejski","city":"Poznan","country":"PL","runway_length":0,"runway_show":0,"points":"","url":"","address":"","is_web":0},{"area_id":31616,"type":1,"shape":0,"lat":52.239444,"lng":21.045556,"radius":500,"level":2,"updated_at":1447945800,"begin_at":0,"end_at":0,"name":"Stadion Narodowy","city":"Warsaw","country":"PL","runway_length":0,"runway_show":0,"points":"","url":"","address":"","is_web":0},{"area_id":31771,"type":1,"shape":0,"lat":52.220461,"lng":21.040628,"radius":500,"level":2,"updated_at":1447945800,"begin_at":0,"end_at":0,"name":"Polish Army Stadium","city":"Warsaw","country":"PL","runway_length":0,"runway_show":0,"points":"","url":"","address":"","is_web":0},{"area_id":7881,"type":0,"shape":0,"lat":52.163762,"lng":20.967204,"radius":1999,"level":2,"updated_at":1447945800,"begin_at":0,"end_at":0,"name":"Warsaw Chopin Airport","city":"Warsaw","country":"PL","runway_length":0,"runway_show":0,"points":"","url":"","address":"","is_web":0},{"area_id":2805,"type":0,"shape":0,"lat":52.13887,"lng":15.795584,"radius":1894,"level":2,"updated_at":1447945800,"begin_at":0,"end_at":0,"name":"Zielona Góra-Babimost Airport","city":"Babimost","country":"PL","runway_length":0,"runway_show":0,"points":"","url":"","address":"","is_web":0},{"area_id":3601,"type":0,"shape":0,"lat":52.007166,"lng":23.142605,"radius":2547,"level":2,"updated_at":1447945800,"begin_at":0,"end_at":0,"name":"Biała Podlaska Airport","city":"Biała Podlaska","country":"PL","runway_length":0,"runway_show":0,"points":"","url":"","address":"","is_web":0},{"area_id":3710,"type":0,"shape":0,"lat":51.719172,"lng":19.388407,"radius":1623,"level":2,"updated_at":1447945800,"begin_at":0,"end_at":0,"name":"Łódź Władysław Reymont Airport","city":"Łódź","country":"PL","runway_length":0,"runway_show":0,"points":"","url":"","address":"","is_web":0},{"area_id":4055,"type":0,"shape":0,"lat":51.240541,"lng":22.715401,"radius":1823,"level":2,"updated_at":1447945800,"begin_at":0,"end_at":0,"name":"Lublin Airport","city":"Lublin","country":"PL","runway_length":0,"runway_show":0,"points":"","url":"","address":"","is_web":0},{"area_id":5626,"type":0,"shape":0,"lat":51.2219,"lng":22.3956,"radius":943,"level":2,"updated_at":1447945800,"begin_at":0,"end_at":0,"name":"Aeroklub Lublin Radawiec","city":"Radawiec Duży","country":"PL","runway_length":0,"runway_show":0,"points":"","url":"","address":"","is_web":0},{"area_id":31673,"type":1,"shape":0,"lat":51.141167,"lng":16.943778,"radius":500,"level":2,"updated_at":1447945800,"begin_at":0,"end_at":0,"name":"Stadion Miejski","city":"Wroclaw","country":"PL","runway_length":0,"runway_show":0,"points":"","url":"","address":"","is_web":0},{"area_id":31716,"type":1,"shape":0,"lat":51.119444,"lng":17.096667,"radius":500,"level":2,"updated_at":1447945800,"begin_at":0,"end_at":0,"name":"Olympic Stadium (Wroclaw)","city":"Wroclaw","country":"PL","runway_length":0,"runway_show":0,"points":"","url":"","address":"","is_web":0},{"area_id":8039,"type":0,"shape":0,"lat":51.104165,"lng":16.880933,"radius":1954,"level":2,"updated_at":1447945800,"begin_at":0,"end_at":0,"name":"Copernicus Wrocław Airport","city":"Wrocław","country":"PL","runway_length":0,"runway_show":0,"points":"","url":"","address":"","is_web":0},{"area_id":2184,"type":0,"shape":0,"lat":50.886452,"lng":19.202654,"radius":1257,"level":2,"updated_at":1447945800,"begin_at":0,"end_at":0,"name":"Częstochowa-Rudniki Airport","city":"Częstochowa","country":"PL","runway_length":0,"runway_show":0,"points":"","url":"","address":"","is_web":0},{"area_id":5143,"type":0,"shape":0,"lat":50.472692,"lng":19.082233,"radius":2264,"level":2,"updated_at":1447945800,"begin_at":0,"end_at":0,"name":"Katowice International Airport","city":"Katowice","country":"PL","runway_length":0,"runway_show":0,"points":"","url":"","address":"","is_web":0},{"area_id":31624,"type":1,"shape":0,"lat":50.288203,"lng":18.972958,"radius":500,"level":2,"updated_at":1447945800,"begin_at":0,"end_at":0,"name":"Stadion Slaski","city":"Chorzow/Katowice","country":"PL","runway_length":0,"runway_show":0,"points":"","url":"","address":"","is_web":0},{"area_id":5553,"type":0,"shape":0,"lat":50.110738,"lng":22.027725,"radius":2195,"level":2,"updated_at":1447945800,"begin_at":0,"end_at":0,"name":"Rzeszów-Jasionka Airport","city":"Rzeszów","country":"PL","runway_length":0,"runway_show":0,"points":"","url":"","address":"","is_web":0},{"area_id":5225,"type":0,"shape":0,"lat":50.078135,"lng":19.78579,"radius":1786,"level":2,"updated_at":1447945800,"begin_at":0,"end_at":0,"name":"Krakor Airport","city":"Balice","country":"PL","runway_length":0,"runway_show":0,"points":"","url":"","address":"","is_web":0},{"area_id":31729,"type":1,"shape":0,"lat":50.063611,"lng":19.911944,"radius":500,"level":2,"updated_at":1447945800,"begin_at":0,"end_at":0,"name":"Stadion Miejski in Krakow","city":"Krakow","country":"PL","runway_length":0,"runway_show":0,"points":"","url":"","address":"","is_web":0},{"area_id":3026,"type":0,"shape":0,"lat":49.804895,"lng":19.001989,"radius":426,"level":2,"updated_at":1447945800,"begin_at":0,"end_at":0,"name":"Bialla Airport","city":"Bialla, Matalilu, Ewase","country":"PL","runway_length":0,"runway_show":0,"points":"","url":"","address":"","is_web":0},{"area_id":5693,"type":0,"shape":0,"lat":49.462627,"lng":20.050666,"radius":991,"level":2,"updated_at":1447945800,"begin_at":0,"end_at":0,"name":"Nowy Targ Airport","city":"Nowy Targ","country":"PL","runway_length":0,"runway_show":0,"points":"","url":"","address":"","is_web":0}],"status":"200"}