{"data":[{"area_id":610,"type":0,"shape":0,"lat":73.517742,"lng":80.380914,"radius":848,"level":2,"updated_at":1447945800,"begin_at":0,"end_at":0,"name":"Dikson Airport","city":"Dikson","country":"RU","runway_length":0,"runway_show":0,"points":"","url":"","address":"","is_web":0},{"area_id":10156,"type":0,"shape":0,"lat":71.927778,"lng":114.08,"radius":1226,"level":2,"updated_at":1447945800,"begin_at":0,"end_at":0,"name":"Saskylakh Airport","city":"NULL","country":"RU","runway_length":0,"runway_show":0,"points":"","url":"","address":"","is_web":0},{"area_id":2850,"type":0,"shape":0,"lat":71.698071,"lng":128.901473,"radius":1666,"level":2,"updated_at":1447945800,"begin_at":0,"end_at":0,"name":"Tiksi Airport","city":"Tiksi","country":"RU","runway_length":0,"runway_show":0,"points":"","url":"","address":"","is_web":0},{"area_id":1867,"type":0,"shape":0,"lat":70.625569,"lng":147.899927,"radius":1254,"level":2,"updated_at":1447945800,"begin_at":0,"end_at":0,"name":"Chokurdakh Airport","city":"Chokurdah","country":"RU","runway_length":0,"runway_show":0,"points":"","url":"","address":"","is_web":0},{"area_id":6165,"type":0,"shape":0,"lat":69.784431,"lng":170.596213,"radius":2022,"level":2,"updated_at":1447945800,"begin_at":0,"end_at":0,"name":"Pevek Airport","city":"Pevek","country":"RU","runway_length":0,"runway_show":0,"points":"","url":"","address":"","is_web":0},{"area_id":1067,"type":0,"shape":0,"lat":69.764592,"lng":61.550685,"radius":1891,"level":2,"updated_at":1447945800,"begin_at":0,"end_at":0,"name":"Amderma Airport","city":"Amderma","country":"RU","runway_length":0,"runway_show":0,"points":"","url":"","address":"","is_web":0},{"area_id":10190,"type":0,"shape":0,"lat":69.395672,"lng":88.364309,"radius":513,"level":2,"updated_at":1474299305,"begin_at":0,"end_at":0,"name":"Aeroport Valek","city":"Norilsk","country":"RU","runway_length":0,"runway_show":0,"points":"","url":"","address":"","is_web":0},{"area_id":10192,"type":0,"shape":0,"lat":69.375,"lng":86.156667,"radius":1123,"level":2,"updated_at":1447945800,"begin_at":0,"end_at":0,"name":"Dudinka Airport","city":"NULL","country":"RU","runway_length":0,"runway_show":0,"points":"","url":"","address":"","is_web":0},{"area_id":4360,"type":0,"shape":0,"lat":69.310658,"lng":87.330994,"radius":2369,"level":2,"updated_at":1447945800,"begin_at":0,"end_at":0,"name":"Norilsk-Alykel Airport","city":"Norilsk","country":"RU","runway_length":0,"runway_show":0,"points":"","url":"","address":"","is_web":0},{"area_id":6508,"type":0,"shape":0,"lat":68.782975,"lng":32.755981,"radius":2285,"level":2,"updated_at":1447945800,"begin_at":0,"end_at":0,"name":"Murmansk Airport","city":"Murmansk","country":"RU","runway_length":0,"runway_show":0,"points":"","url":"","address":"","is_web":0},{"area_id":2166,"type":0,"shape":0,"lat":68.741839,"lng":161.339755,"radius":980,"level":2,"updated_at":1447945800,"begin_at":0,"end_at":0,"name":"Cherskiy Airport","city":"Cherskiy","country":"RU","runway_length":0,"runway_show":0,"points":"","url":"","address":"","is_web":0},{"area_id":10088,"type":0,"shape":0,"lat":67.989112,"lng":75.096567,"radius":1368,"level":2,"updated_at":1447945800,"begin_at":0,"end_at":0,"name":"Yamburg Airport","city":"NULL","country":"RU","runway_length":0,"runway_show":0,"points":"","url":"","address":"","is_web":0},{"area_id":7141,"type":0,"shape":0,"lat":67.488898,"lng":63.991506,"radius":1256,"level":2,"updated_at":1447945800,"begin_at":0,"end_at":0,"name":"Vorkuta Airport","city":"Vorkuta","country":"RU","runway_length":0,"runway_show":0,"points":"","url":"","address":"","is_web":0},{"area_id":5176,"type":0,"shape":0,"lat":67.463333,"lng":33.588333,"radius":1766,"level":2,"updated_at":1447945800,"begin_at":0,"end_at":0,"name":"Kirovsk-Apatity Airport","city":"Apatity","country":"RU","runway_length":0,"runway_show":0,"points":"","url":"","address":"","is_web":0},{"area_id":2762,"type":0,"shape":0,"lat":67.437508,"lng":86.62269,"radius":1720,"level":2,"updated_at":1447945800,"begin_at":0,"end_at":0,"name":"Igarka Airport","city":"Igarka","country":"RU","runway_length":0,"runway_show":0,"points":"","url":"","address":"","is_web":0},{"area_id":10189,"type":0,"shape":0,"lat":66.84,"lng":88.403333,"radius":998,"level":2,"updated_at":1447945800,"begin_at":0,"end_at":0,"name":"Svetlogorsk Airport","city":"NULL","country":"RU","runway_length":0,"runway_show":0,"points":"","url":"","address":"","is_web":0},{"area_id":10205,"type":0,"shape":0,"lat":66.793819,"lng":123.363751,"radius":1075,"level":2,"updated_at":1447945800,"begin_at":0,"end_at":0,"name":"Zhigansk Airport","city":"Zhigansk","country":"RU","runway_length":0,"runway_show":0,"points":"","url":"","address":"","is_web":0},{"area_id":8396,"type":0,"shape":0,"lat":66.593786,"lng":66.609597,"radius":2112,"level":2,"updated_at":1447945800,"begin_at":0,"end_at":0,"name":"Salekhard Airport","city":"Salekhard","country":"RU","runway_length":0,"runway_show":0,"points":"","url":"","address":"","is_web":0},{"area_id":6520,"type":0,"shape":0,"lat":66.451577,"lng":143.262644,"radius":1130,"level":2,"updated_at":1447945800,"begin_at":0,"end_at":0,"name":"Moma Airport","city":"Moma","country":"RU","runway_length":0,"runway_show":0,"points":"","url":"","address":"","is_web":0},{"area_id":4400,"type":0,"shape":0,"lat":66.070236,"lng":76.524293,"radius":2418,"level":2,"updated_at":1447945800,"begin_at":0,"end_at":0,"name":"Novy Urengoy Airport","city":"Novy Urengoy","country":"RU","runway_length":0,"runway_show":0,"points":"","url":"","address":"","is_web":0},{"area_id":2886,"type":0,"shape":0,"lat":66.055556,"lng":60.111389,"radius":1178,"level":2,"updated_at":1447945800,"begin_at":0,"end_at":0,"name":"Inta Airport","city":"Inta","country":"RU","runway_length":0,"runway_show":0,"points":"","url":"","address":"","is_web":0},{"area_id":7000,"type":0,"shape":0,"lat":66.00463,"lng":57.368134,"radius":1545,"level":2,"updated_at":1447945800,"begin_at":0,"end_at":0,"name":"Usinsk Airport","city":"Usinsk","country":"RU","runway_length":0,"runway_show":0,"points":"","url":"","address":"","is_web":0},{"area_id":10155,"type":0,"shape":0,"lat":65.960845,"lng":111.545187,"radius":1268,"level":2,"updated_at":1447945800,"begin_at":0,"end_at":0,"name":"Aykhal Airport","city":"NULL","country":"RU","runway_length":0,"runway_show":0,"points":"","url":"","address":"","is_web":0},{"area_id":7401,"type":0,"shape":0,"lat":65.800411,"lng":87.929262,"radius":1149,"level":2,"updated_at":1447945800,"begin_at":0,"end_at":0,"name":"Turukhansk Airport","city":"Turukhansk","country":"RU","runway_length":0,"runway_show":0,"points":"","url":"","address":"","is_web":0},{"area_id":10158,"type":0,"shape":0,"lat":65.736667,"lng":150.705,"radius":995,"level":2,"updated_at":1447945800,"begin_at":0,"end_at":0,"name":"Zyryanka West Airport","city":"NULL","country":"RU","runway_length":0,"runway_show":0,"points":"","url":"","address":"","is_web":0},{"area_id":4425,"type":0,"shape":0,"lat":65.482778,"lng":72.693888,"radius":1940,"level":2,"updated_at":1447945800,"begin_at":0,"end_at":0,"name":"Nadym Airport","city":"Nadym","country":"RU","runway_length":0,"runway_show":0,"points":"","url":"","address":"","is_web":0},{"area_id":7023,"type":0,"shape":0,"lat":65.437301,"lng":52.200345,"radius":767,"level":2,"updated_at":1447945800,"begin_at":0,"end_at":0,"name":"Ust-Tsylma Airport","city":"Ust-Tsylma","country":"RU","runway_length":0,"runway_show":0,"points":"","url":"","address":"","is_web":0},{"area_id":5815,"type":0,"shape":0,"lat":65.120705,"lng":57.130552,"radius":1330,"level":2,"updated_at":1447945800,"begin_at":0,"end_at":0,"name":"Pechora Airport","city":"Pechora","country":"RU","runway_length":0,"runway_show":0,"points":"","url":"","address":"","is_web":0},{"area_id":2039,"type":0,"shape":0,"lat":65.030358,"lng":35.731428,"radius":995,"level":2,"updated_at":1447945800,"begin_at":0,"end_at":0,"name":"Solovki Airport","city":"Solovetsky Islands","country":"RU","runway_length":0,"runway_show":0,"points":"","url":"","address":"","is_web":0},{"area_id":7579,"type":0,"shape":0,"lat":64.930656,"lng":77.808951,"radius":1736,"level":2,"updated_at":1447945800,"begin_at":0,"end_at":0,"name":"Tarko-Sale Airport","city":"Tarko-Sale","country":"RU","runway_length":0,"runway_show":0,"points":"","url":"","address":"","is_web":0},{"area_id":3727,"type":0,"shape":0,"lat":64.894376,"lng":45.719996,"radius":1073,"level":2,"updated_at":1447945800,"begin_at":0,"end_at":0,"name":"Leshukonskoye Airport","city":"Leshukonskoye","country":"RU","runway_length":0,"runway_show":0,"points":"","url":"","address":"","is_web":0},{"area_id":776,"type":0,"shape":0,"lat":64.733483,"lng":177.734247,"radius":2634,"level":2,"updated_at":1447945800,"begin_at":0,"end_at":0,"name":"Ugolny Airport","city":"Anadyr","country":"RU","runway_length":0,"runway_show":0,"points":"","url":"","address":"","is_web":0},{"area_id":10094,"type":0,"shape":0,"lat":64.617972,"lng":30.687222,"radius":362,"level":2,"updated_at":1447945800,"begin_at":0,"end_at":0,"name":"Aeroport Kostomuksha","city":"NULL","country":"RU","runway_length":0,"runway_show":0,"points":"","url":"","address":"","is_web":0},{"area_id":1157,"type":0,"shape":0,"lat":64.600151,"lng":40.716469,"radius":1876,"level":2,"updated_at":1447945800,"begin_at":0,"end_at":0,"name":"Talagi Airport","city":"Archangelsk","country":"RU","runway_length":0,"runway_show":0,"points":"","url":"","address":"","is_web":0},{"area_id":10152,"type":0,"shape":0,"lat":64.549583,"lng":143.110224,"radius":1159,"level":2,"updated_at":1447945800,"begin_at":0,"end_at":0,"name":"Ust'-Nera","city":"NULL","country":"RU","runway_length":0,"runway_show":0,"points":"","url":"","address":"","is_web":0},{"area_id":10154,"type":0,"shape":0,"lat":63.756095,"lng":121.691762,"radius":1055,"level":2,"updated_at":1447945800,"begin_at":0,"end_at":0,"name":"Vilyuisk Airport","city":"NULL","country":"RU","runway_length":0,"runway_show":0,"points":"","url":"","address":"","is_web":0},{"area_id":246,"type":0,"shape":0,"lat":63.687603,"lng":66.699819,"radius":1480,"level":2,"updated_at":1447945800,"begin_at":0,"end_at":0,"name":"Beloyarskiy Airport","city":"","country":"RU","runway_length":0,"runway_show":0,"points":"","url":"","address":"","is_web":0},{"area_id":6871,"type":0,"shape":0,"lat":63.567883,"lng":53.80456,"radius":1835,"level":2,"updated_at":1447945800,"begin_at":0,"end_at":0,"name":"Ukhta Airport","city":"Ukhta","country":"RU","runway_length":0,"runway_show":0,"points":"","url":"","address":"","is_web":0},{"area_id":4312,"type":0,"shape":0,"lat":63.183393,"lng":75.270214,"radius":1867,"level":2,"updated_at":1447945800,"begin_at":0,"end_at":0,"name":"Noyabrsk Airport","city":"Noyabrsk","country":"RU","runway_length":0,"runway_show":0,"points":"","url":"","address":"","is_web":0},{"area_id":6447,"type":0,"shape":0,"lat":62.534383,"lng":114.039642,"radius":2110,"level":2,"updated_at":1447945800,"begin_at":0,"end_at":0,"name":"Mirny Airport","city":"Mirny","country":"RU","runway_length":0,"runway_show":0,"points":"","url":"","address":"","is_web":0},{"area_id":10164,"type":0,"shape":0,"lat":62.459246,"lng":155.746229,"radius":1288,"level":2,"updated_at":1447945800,"begin_at":0,"end_at":0,"name":"Omsukchan","city":"NULL","country":"RU","runway_length":0,"runway_show":0,"points":"","url":"","address":"","is_web":0},{"area_id":4867,"type":0,"shape":0,"lat":62.190721,"lng":74.534655,"radius":2302,"level":2,"updated_at":1447945800,"begin_at":0,"end_at":0,"name":"Kogalym International Airport","city":"Kogalym","country":"RU","runway_length":0,"runway_show":0,"points":"","url":"","address":"","is_web":0},{"area_id":5252,"type":0,"shape":0,"lat":62.16146,"lng":77.3312,"radius":2519,"level":2,"updated_at":1447945800,"begin_at":0,"end_at":0,"name":"Raduzhny Airport","city":"Raduzhnyi","country":"RU","runway_length":0,"runway_show":0,"points":"","url":"","address":"","is_web":0},{"area_id":10150,"type":0,"shape":0,"lat":62.112187,"lng":129.553205,"radius":2451,"level":2,"updated_at":1447945800,"begin_at":0,"end_at":0,"name":"Magan Airport","city":"NULL","country":"RU","runway_length":0,"runway_show":0,"points":"","url":"","address":"","is_web":0},{"area_id":4420,"type":0,"shape":0,"lat":62.110428,"lng":65.613717,"radius":2031,"level":2,"updated_at":1447945800,"begin_at":0,"end_at":0,"name":"Nyagan Airport","city":"Nyagan","country":"RU","runway_length":0,"runway_show":0,"points":"","url":"","address":"","is_web":0},{"area_id":9049,"type":0,"shape":0,"lat":62.091728,"lng":129.772446,"radius":2236,"level":2,"updated_at":1447945800,"begin_at":0,"end_at":0,"name":"Yakutsk Airport","city":"Yakutsk","country":"RU","runway_length":0,"runway_show":0,"points":"","url":"","address":"","is_web":0},{"area_id":5810,"type":0,"shape":0,"lat":61.884998,"lng":34.156666,"radius":1806,"level":2,"updated_at":1447945800,"begin_at":0,"end_at":0,"name":"Petrozavodsk Airport","city":"Petrozavodsk","country":"RU","runway_length":0,"runway_show":0,"points":"","url":"","address":"","is_web":0},{"area_id":10165,"type":0,"shape":0,"lat":61.835,"lng":160.548333,"radius":1344,"level":2,"updated_at":1447945800,"begin_at":0,"end_at":0,"name":"Chaybukha Airport","city":"NULL","country":"RU","runway_length":0,"runway_show":0,"points":"","url":"","address":"","is_web":0},{"area_id":10177,"type":0,"shape":0,"lat":61.832842,"lng":34.29661,"radius":781,"level":2,"updated_at":1447945800,"begin_at":0,"end_at":0,"name":"Aeroport Peski","city":"Petrozavodsk","country":"RU","runway_length":0,"runway_show":0,"points":"","url":"","address":"","is_web":0},{"area_id":10178,"type":0,"shape":0,"lat":61.736693,"lng":30.671232,"radius":525,"level":2,"updated_at":1447945800,"begin_at":0,"end_at":0,"name":"Aeroport Sortavala","city":"NULL","country":"RU","runway_length":0,"runway_show":0,"points":"","url":"","address":"","is_web":0},{"area_id":10181,"type":0,"shape":0,"lat":61.677563,"lng":96.349593,"radius":1247,"level":2,"updated_at":1447945800,"begin_at":0,"end_at":0,"name":"Baykit Airport","city":"NULL","country":"RU","runway_length":0,"runway_show":0,"points":"","url":"","address":"","is_web":0},{"area_id":10182,"type":0,"shape":0,"lat":61.590502,"lng":89.993447,"radius":1673,"level":2,"updated_at":1447945800,"begin_at":0,"end_at":0,"name":"Podkamennaya Tunguska Airport","city":"NULL","country":"RU","runway_length":0,"runway_show":0,"points":"","url":"","address":"","is_web":0},{"area_id":8174,"type":0,"shape":0,"lat":61.586666,"lng":50.52,"radius":2181,"level":2,"updated_at":1447945800,"begin_at":0,"end_at":0,"name":"Syktyvkar Airport","city":"Syktyvkar","country":"RU","runway_length":0,"runway_show":0,"points":"","url":"","address":"","is_web":0},{"area_id":8250,"type":0,"shape":0,"lat":61.343126,"lng":73.400755,"radius":2080,"level":2,"updated_at":1447945800,"begin_at":0,"end_at":0,"name":"Surgut Airport","city":"Surgut","country":"RU","runway_length":0,"runway_show":0,"points":"","url":"","address":"","is_web":0},{"area_id":4697,"type":0,"shape":0,"lat":61.324252,"lng":63.604705,"radius":2540,"level":2,"updated_at":1447945800,"begin_at":0,"end_at":0,"name":"Sovetskiy Airport","city":"Sovetskiy","country":"RU","runway_length":0,"runway_show":0,"points":"","url":"","address":"","is_web":0},{"area_id":5122,"type":0,"shape":0,"lat":61.237021,"lng":46.696627,"radius":849,"level":2,"updated_at":1447945800,"begin_at":0,"end_at":0,"name":"Kotlas Airport","city":"Kotlas","country":"RU","runway_length":0,"runway_show":0,"points":"","url":"","address":"","is_web":0},{"area_id":4203,"type":0,"shape":0,"lat":61.108333,"lng":72.65,"radius":1646,"level":2,"updated_at":1447945800,"begin_at":0,"end_at":0,"name":"Nefteyugansk Airport","city":"Nefteyugansk","country":"RU","runway_length":0,"runway_show":0,"points":"","url":"","address":"","is_web":0},{"area_id":1485,"type":0,"shape":0,"lat":61.028217,"lng":69.08864,"radius":2118,"level":2,"updated_at":1447945800,"begin_at":0,"end_at":0,"name":"Khanty Mansiysk Airport","city":"Khanty-Mansiysk","country":"RU","runway_length":0,"runway_show":0,"points":"","url":"","address":"","is_web":0},{"area_id":4249,"type":0,"shape":0,"lat":60.948967,"lng":76.481232,"radius":1984,"level":2,"updated_at":1447945800,"begin_at":0,"end_at":0,"name":"Nizhnevartovsk Airport","city":"Nizhnevartovsk","country":"RU","runway_length":0,"runway_show":0,"points":"","url":"","address":"","is_web":0},{"area_id":7218,"type":0,"shape":0,"lat":60.788333,"lng":46.26,"radius":836,"level":2,"updated_at":1447945800,"begin_at":0,"end_at":0,"name":"Velikiy Ustyug Airport","city":"Velikiy Ustyug","country":"RU","runway_length":0,"runway_show":0,"points":"","url":"","address":"","is_web":0},{"area_id":6932,"type":0,"shape":0,"lat":60.722826,"lng":114.821679,"radius":1763,"level":2,"updated_at":1447945800,"begin_at":0,"end_at":0,"name":"Lensk Airport","city":"Lensk","country":"RU","runway_length":0,"runway_show":0,"points":"","url":"","address":"","is_web":0},{"area_id":8647,"type":0,"shape":0,"lat":60.71,"lng":77.66,"radius":1231,"level":2,"updated_at":1447945800,"begin_at":0,"end_at":0,"name":"Strezhevoy Airport","city":"Strezhevoy","country":"RU","runway_length":0,"runway_show":0,"points":"","url":"","address":"","is_web":0},{"area_id":10151,"type":0,"shape":0,"lat":60.400524,"lng":120.467772,"radius":1157,"level":2,"updated_at":1447945800,"begin_at":0,"end_at":0,"name":"Olyokminsk Airport","city":"NULL","country":"RU","runway_length":0,"runway_show":0,"points":"","url":"","address":"","is_web":0},{"area_id":10183,"type":0,"shape":0,"lat":60.373333,"lng":93.011667,"radius":1177,"level":2,"updated_at":1447945800,"begin_at":0,"end_at":0,"name":"Severo-Eniseysk Airport","city":"NULL","country":"RU","runway_length":0,"runway_show":0,"points":"","url":"","address":"","is_web":0},{"area_id":10184,"type":0,"shape":0,"lat":60.35933,"lng":102.314978,"radius":1508,"level":2,"updated_at":1447945800,"begin_at":0,"end_at":0,"name":"Vanavara Airport","city":"NULL","country":"RU","runway_length":0,"runway_show":0,"points":"","url":"","address":"","is_web":0},{"area_id":6988,"type":0,"shape":0,"lat":60.105632,"lng":64.826978,"radius":1823,"level":2,"updated_at":1447945800,"begin_at":0,"end_at":0,"name":"Uray Airport","city":"Uray","country":"RU","runway_length":0,"runway_show":0,"points":"","url":"","address":"","is_web":0},{"area_id":10853,"type":1,"shape":0,"lat":59.939472,"lng":30.314927,"radius":314,"level":0,"updated_at":1459939260,"begin_at":0,"end_at":0,"name":"埃爾米塔日博物館及冬宫广场","city":"СПБ","country":"RU","runway_length":0,"runway_show":0,"points":"","url":"","address":"","is_web":0},{"area_id":10852,"type":1,"shape":0,"lat":59.930963,"lng":30.361876,"radius":172,"level":0,"updated_at":1459939260,"begin_at":0,"end_at":0,"name":"起义广场","city":"СПБ","country":"RU","runway_length":0,"runway_show":0,"points":"","url":"","address":"","is_web":0},{"area_id":2266,"type":0,"shape":0,"lat":59.912436,"lng":150.721994,"radius":2752,"level":2,"updated_at":1447945800,"begin_at":0,"end_at":0,"name":"Sokol Airport","city":"Magadan","country":"RU","runway_length":0,"runway_show":0,"points":"","url":"","address":"","is_web":0},{"area_id":3746,"type":0,"shape":0,"lat":59.802051,"lng":30.26235,"radius":3309,"level":2,"updated_at":1447945800,"begin_at":0,"end_at":0,"name":"Pulkovo Airport","city":"St. Petersburg","country":"RU","runway_length":0,"runway_show":0,"points":"","url":"","address":"","is_web":0},{"area_id":10174,"type":0,"shape":0,"lat":59.688206,"lng":30.335071,"radius":1778,"level":2,"updated_at":1447945800,"begin_at":0,"end_at":0,"name":"Aerodrom Pushkin","city":"Pushkin","country":"RU","runway_length":0,"runway_show":0,"points":"","url":"","address":"","is_web":0},{"area_id":10167,"type":0,"shape":0,"lat":59.623333,"lng":150.921667,"radius":679,"level":2,"updated_at":1447945800,"begin_at":0,"end_at":0,"name":"Magadan-13 Airport","city":"NULL","country":"RU","runway_length":0,"runway_show":0,"points":"","url":"","address":"","is_web":0},{"area_id":4512,"type":0,"shape":0,"lat":59.414444,"lng":143.058889,"radius":2069,"level":2,"updated_at":1447945800,"begin_at":0,"end_at":0,"name":"Okhotsk Airport","city":"Okhotsk","country":"RU","runway_length":0,"runway_show":0,"points":"","url":"","address":"","is_web":0},{"area_id":10175,"type":0,"shape":0,"lat":59.3567008972168,"lng":30.0366992950439,"radius":1690,"level":2,"updated_at":1474299245,"begin_at":0,"end_at":0,"name":"Siversky Air Base","city":"Edwards AFB","country":"RU","runway_length":0,"runway_show":0,"points":"","url":"","address":"","is_web":0},{"area_id":7104,"type":0,"shape":0,"lat":59.280856,"lng":39.942872,"radius":1078,"level":2,"updated_at":1447945800,"begin_at":0,"end_at":0,"name":"Vologda Airport","city":"Vologda","country":"RU","runway_length":0,"runway_show":0,"points":"","url":"","address":"","is_web":0},{"area_id":1739,"type":0,"shape":0,"lat":59.276749,"lng":38.018776,"radius":2005,"level":2,"updated_at":1447945800,"begin_at":0,"end_at":0,"name":"Cherepovets Airport","city":"Botovo","country":"RU","runway_length":0,"runway_show":0,"points":"","url":"","address":"","is_web":0},{"area_id":5179,"type":0,"shape":0,"lat":58.504139,"lng":49.348117,"radius":2012,"level":2,"updated_at":1447945800,"begin_at":0,"end_at":0,"name":"Pobedilovo Airport","city":"Kirov","country":"RU","runway_length":0,"runway_show":0,"points":"","url":"","address":"","is_web":0},{"area_id":4409,"type":0,"shape":0,"lat":58.493602,"lng":31.241751,"radius":874,"level":2,"updated_at":1447945800,"begin_at":0,"end_at":0,"name":"Novgorod Airport","city":"Velikiy Novgorod","country":"RU","runway_length":0,"runway_show":0,"points":"","url":"","address":"","is_web":0},{"area_id":76,"type":0,"shape":0,"lat":58.47634,"lng":92.112644,"radius":1544,"level":2,"updated_at":1447945800,"begin_at":0,"end_at":0,"name":"Yeniseysk Airport","city":"Yeniseysk","country":"RU","runway_length":0,"runway_show":0,"points":"","url":"","address":"","is_web":0},{"area_id":10223,"type":0,"shape":0,"lat":58.13877,"lng":30.328166,"radius":1669,"level":2,"updated_at":1447945800,"begin_at":0,"end_at":0,"name":"Soltsy-2 Air Base","city":"Soltsy","country":"RU","runway_length":0,"runway_show":0,"points":"","url":"","address":"","is_web":0},{"area_id":6902,"type":0,"shape":0,"lat":58.135476,"lng":102.556132,"radius":1714,"level":2,"updated_at":1447945800,"begin_at":0,"end_at":0,"name":"Ust-Ilimsk Airport","city":"Ust-Ilimsk","country":"RU","runway_length":0,"runway_show":0,"points":"","url":"","address":"","is_web":0},{"area_id":7559,"type":0,"shape":0,"lat":58.13512,"lng":68.230796,"radius":1126,"level":2,"updated_at":1447945800,"begin_at":0,"end_at":0,"name":"Tobolsk Airport","city":"Tobolsk","country":"RU","runway_length":0,"runway_show":0,"points":"","url":"","address":"","is_web":0},{"area_id":5547,"type":0,"shape":0,"lat":58.104932,"lng":38.925685,"radius":1423,"level":2,"updated_at":1447945800,"begin_at":0,"end_at":0,"name":"Staroselye Airport","city":"Rybinsk","country":"RU","runway_length":0,"runway_show":0,"points":"","url":"","address":"","is_web":0},{"area_id":10176,"type":0,"shape":0,"lat":57.958161,"lng":31.383659,"radius":1686,"level":2,"updated_at":1447945800,"begin_at":0,"end_at":0,"name":"Staraya Russa Airport","city":"NULL","country":"RU","runway_length":0,"runway_show":0,"points":"","url":"","address":"","is_web":0},{"area_id":5797,"type":0,"shape":0,"lat":57.914473,"lng":56.021273,"radius":1886,"level":2,"updated_at":1447945800,"begin_at":0,"end_at":0,"name":"Bolshoye Savino Airport","city":"Perm","country":"RU","runway_length":0,"runway_show":0,"points":"","url":"","address":"","is_web":0},{"area_id":4479,"type":0,"shape":0,"lat":57.866389,"lng":114.242222,"radius":1299,"level":2,"updated_at":1447945800,"begin_at":0,"end_at":0,"name":"Bodaybo Airport","city":"Bodaybo","country":"RU","runway_length":0,"runway_show":0,"points":"","url":"","address":"","is_web":0},{"area_id":4992,"type":0,"shape":0,"lat":57.797216,"lng":41.018968,"radius":965,"level":2,"updated_at":1447945800,"begin_at":0,"end_at":0,"name":"Kostroma Sokerkino Airport","city":"Kostroma","country":"RU","runway_length":0,"runway_show":0,"points":"","url":"","address":"","is_web":0},{"area_id":5920,"type":0,"shape":0,"lat":57.784268,"lng":28.393528,"radius":2514,"level":2,"updated_at":1447945800,"begin_at":0,"end_at":0,"name":"Pskov Airport","city":"Pskov","country":"RU","runway_length":0,"runway_show":0,"points":"","url":"","address":"","is_web":0},{"area_id":4788,"type":0,"shape":0,"lat":57.77268,"lng":108.058913,"radius":905,"level":2,"updated_at":1447945800,"begin_at":0,"end_at":0,"name":"Kirensk Airport","city":"Kirensk","country":"RU","runway_length":0,"runway_show":0,"points":"","url":"","address":"","is_web":0},{"area_id":2772,"type":0,"shape":0,"lat":57.560203,"lng":40.158074,"radius":1718,"level":2,"updated_at":1447945800,"begin_at":0,"end_at":0,"name":"Tunoshna Airport","city":"","country":"RU","runway_length":0,"runway_show":0,"points":"","url":"","address":"","is_web":0},{"area_id":7435,"type":0,"shape":0,"lat":57.181374,"lng":65.334985,"radius":2340,"level":2,"updated_at":1447945800,"begin_at":0,"end_at":0,"name":"Roshchino International Airport","city":"Tyumen","country":"RU","runway_length":0,"runway_show":0,"points":"","url":"","address":"","is_web":0},{"area_id":6922,"type":0,"shape":0,"lat":56.859181,"lng":105.725202,"radius":2095,"level":2,"updated_at":1447945800,"begin_at":0,"end_at":0,"name":"Ust-Kut Airport","city":"Ust-Kut","country":"RU","runway_length":0,"runway_show":0,"points":"","url":"","address":"","is_web":0},{"area_id":2841,"type":0,"shape":0,"lat":56.836514,"lng":53.463855,"radius":1563,"level":2,"updated_at":1447945800,"begin_at":0,"end_at":0,"name":"Izhevsk Airport","city":"Izhevsk","country":"RU","runway_length":0,"runway_show":0,"points":"","url":"","address":"","is_web":0},{"area_id":31838,"type":1,"shape":0,"lat":56.8325,"lng":60.573611,"radius":500,"level":2,"updated_at":1447945800,"begin_at":0,"end_at":0,"name":"Central Stadium (Yekaterinburg)","city":"Yekaterinburg","country":"RU","runway_length":0,"runway_show":0,"points":"","url":"","address":"","is_web":0},{"area_id":8625,"type":0,"shape":0,"lat":56.744775,"lng":60.802949,"radius":1944,"level":2,"updated_at":1447945800,"begin_at":0,"end_at":0,"name":"Koltsovo Airport","city":"Yekaterinburg","country":"RU","runway_length":0,"runway_show":0,"points":"","url":"","address":"","is_web":0},{"area_id":2700,"type":0,"shape":0,"lat":56.705134,"lng":47.896327,"radius":1537,"level":2,"updated_at":1447945800,"begin_at":0,"end_at":0,"name":"Yoshkar-Ola Airport","city":"Yoshkar-Ola","country":"RU","runway_length":0,"runway_show":0,"points":"","url":"","address":"","is_web":0},{"area_id":10194,"type":0,"shape":0,"lat":56.701603,"lng":60.793378,"radius":1485,"level":2,"updated_at":1447945800,"begin_at":0,"end_at":0,"name":"Uktus Airport","city":"NULL","country":"RU","runway_length":0,"runway_show":0,"points":"","url":"","address":"","is_web":0},{"area_id":10169,"type":0,"shape":0,"lat":56.487859,"lng":104.105908,"radius":952,"level":2,"updated_at":1447945800,"begin_at":0,"end_at":0,"name":"Zheleznogorsk Airport","city":"NULL","country":"RU","runway_length":0,"runway_show":0,"points":"","url":"","address":"","is_web":0},{"area_id":10100,"type":0,"shape":0,"lat":56.436667,"lng":61.986667,"radius":1611,"level":2,"updated_at":1447945800,"begin_at":0,"end_at":0,"name":"Kamensk-Uralsky air base","city":"NULL","country":"RU","runway_length":0,"runway_show":0,"points":"","url":"","address":"","is_web":0},{"area_id":7542,"type":0,"shape":0,"lat":56.383814,"lng":85.208841,"radius":1823,"level":2,"updated_at":1447945800,"begin_at":0,"end_at":0,"name":"Bogashevo Airport","city":"Tomsk","country":"RU","runway_length":0,"runway_show":0,"points":"","url":"","address":"","is_web":0},{"area_id":7158,"type":0,"shape":0,"lat":56.381524,"lng":30.607567,"radius":904,"level":2,"updated_at":1447945800,"begin_at":0,"end_at":0,"name":"Velikiye Luki Airport","city":"Velikiye Luki","country":"RU","runway_length":0,"runway_show":0,"points":"","url":"","address":"","is_web":0},{"area_id":3504,"type":0,"shape":0,"lat":56.369714,"lng":101.695246,"radius":2197,"level":2,"updated_at":1447945800,"begin_at":0,"end_at":0,"name":"Bratsk Airport","city":"Bratsk","country":"RU","runway_length":0,"runway_show":0,"points":"","url":"","address":"","is_web":0},{"area_id":853,"type":0,"shape":0,"lat":56.270595,"lng":90.57743,"radius":1352,"level":2,"updated_at":1447945800,"begin_at":0,"end_at":0,"name":"Achinsk Airport","city":"Achinsk","country":"RU","runway_length":0,"runway_show":0,"points":"","url":"","address":"","is_web":0},{"area_id":10185,"type":0,"shape":0,"lat":56.1774,"lng":92.5249,"radius":4655,"level":2,"updated_at":1447945800,"begin_at":0,"end_at":0,"name":"Aeroport Cheremshanka","city":"NULL","country":"RU","runway_length":0,"runway_show":0,"points":"","url":"","address":"","is_web":0},{"area_id":4921,"type":0,"shape":0,"lat":56.175928,"lng":92.486202,"radius":3185,"level":2,"updated_at":1447945800,"begin_at":0,"end_at":0,"name":"Yemelyanovo Airport","city":"Krasnoyarsk","country":"RU","runway_length":0,"runway_show":0,"points":"","url":"","address":"","is_web":0},{"area_id":10197,"type":0,"shape":0,"lat":56.126667,"lng":40.315,"radius":1106,"level":2,"updated_at":1447945800,"begin_at":0,"end_at":0,"name":"Semyazino Airport","city":"Vladimir","country":"RU","runway_length":0,"runway_show":0,"points":"","url":"","address":"","is_web":0},{"area_id":4192,"type":0,"shape":0,"lat":56.1,"lng":54.35,"radius":1123,"level":2,"updated_at":1447945800,"begin_at":0,"end_at":0,"name":"Neftekamsk Airport","city":"Neftekamsk","country":"RU","runway_length":0,"runway_show":0,"points":"","url":"","address":"","is_web":0},{"area_id":2054,"type":0,"shape":0,"lat":56.089939,"lng":47.345783,"radius":1946,"level":2,"updated_at":1447945800,"begin_at":0,"end_at":0,"name":"Cheboksary Airport","city":"Cheboksary","country":"RU","runway_length":0,"runway_show":0,"points":"","url":"","address":"","is_web":0},{"area_id":31839,"type":1,"shape":0,"lat":55.998403,"lng":92.884664,"radius":500,"level":2,"updated_at":1447945800,"begin_at":0,"end_at":0,"name":"Central Stadium (Krasnoyarsk)","city":"Krasnoyarsk","country":"RU","runway_length":0,"runway_show":0,"points":"","url":"","address":"","is_web":0},{"area_id":8616,"type":0,"shape":0,"lat":55.973648,"lng":37.412502,"radius":2598,"level":2,"updated_at":1447945800,"begin_at":0,"end_at":0,"name":"Sheremetyevo International Airport","city":"Moscow","country":"RU","runway_length":0,"runway_show":0,"points":"","url":"","address":"","is_web":0},{"area_id":10204,"type":0,"shape":0,"lat":55.866217,"lng":49.132566,"radius":2239,"level":2,"updated_at":1447945800,"begin_at":0,"end_at":0,"name":"Borisoglebskoye airfield","city":"Kazan","country":"RU","runway_length":0,"runway_show":0,"points":"","url":"","address":"","is_web":0},{"area_id":31663,"type":1,"shape":0,"lat":55.820639,"lng":49.161111,"radius":500,"level":2,"updated_at":1447945800,"begin_at":0,"end_at":0,"name":"Kazan Arena","city":"Kazan","country":"RU","runway_length":0,"runway_show":0,"points":"","url":"","address":"","is_web":0},{"area_id":31661,"type":1,"shape":0,"lat":55.817861,"lng":37.44025,"radius":500,"level":2,"updated_at":1447945800,"begin_at":0,"end_at":0,"name":"Otkrytie Arena","city":"Moscow","country":"RU","runway_length":0,"runway_show":0,"points":"","url":"","address":"","is_web":0},{"area_id":31815,"type":1,"shape":0,"lat":55.803611,"lng":37.741111,"radius":500,"level":2,"updated_at":1447945800,"begin_at":0,"end_at":0,"name":"Lokomotiv Stadium (Moscow)","city":"Moscow","country":"RU","runway_length":0,"runway_show":0,"points":"","url":"","address":"","is_web":0},{"area_id":31791,"type":1,"shape":0,"lat":55.796944,"lng":49.098889,"radius":500,"level":2,"updated_at":1447945800,"begin_at":0,"end_at":0,"name":"Central Stadium (Kazan)","city":"Kazan","country":"RU","runway_length":0,"runway_show":0,"points":"","url":"","address":"","is_web":0},{"area_id":10754,"type":1,"shape":0,"lat":55.760688,"lng":37.628238,"radius":116,"level":0,"updated_at":1459939260,"begin_at":0,"end_at":0,"name":"Russian Federation Ministry of Internal Affairs","city":"Moskva","country":"RU","runway_length":0,"runway_show":0,"points":"","url":"","address":"","is_web":0},{"area_id":10752,"type":1,"shape":0,"lat":55.756827,"lng":37.611228,"radius":99,"level":0,"updated_at":1459939260,"begin_at":0,"end_at":0,"name":"State duma","city":"Moskva","country":"RU","runway_length":0,"runway_show":0,"points":"","url":"","address":"","is_web":0},{"area_id":10750,"type":1,"shape":0,"lat":55.756522,"lng":37.57939,"radius":177,"level":0,"updated_at":1459939260,"begin_at":0,"end_at":0,"name":"US Embassy in Russia","city":"Moskva","country":"RU","runway_length":0,"runway_show":0,"points":"","url":"","address":"","is_web":0},{"area_id":10748,"type":1,"shape":0,"lat":55.751813,"lng":37.616093,"radius":496,"level":0,"updated_at":1459939260,"begin_at":0,"end_at":0,"name":"Kremlin and Red Square","city":"Moskva","country":"RU","runway_length":0,"runway_show":0,"points":"","url":"","address":"","is_web":0},{"area_id":10851,"type":1,"shape":0,"lat":55.750578,"lng":37.576874,"radius":74,"level":0,"updated_at":1459939260,"begin_at":0,"end_at":0,"name":"Embassy of Great Britain","city":"Moskva","country":"RU","runway_length":0,"runway_show":0,"points":"","url":"","address":"","is_web":0},{"area_id":10908,"type":1,"shape":0,"lat":55.732529,"lng":37.613711,"radius":97,"level":0,"updated_at":1459939260,"begin_at":0,"end_at":0,"name":"Embassy of France","city":"Moskva","country":"RU","runway_length":0,"runway_show":0,"points":"","url":"","address":"","is_web":0},{"area_id":10850,"type":1,"shape":0,"lat":55.718895,"lng":37.517876,"radius":122,"level":0,"updated_at":1459939260,"begin_at":0,"end_at":0,"name":"Embassy of German","city":"Moskva","country":"RU","runway_length":0,"runway_show":0,"points":"","url":"","address":"","is_web":0},{"area_id":10749,"type":1,"shape":0,"lat":55.710963,"lng":37.516122,"radius":261,"level":0,"updated_at":1459939260,"begin_at":0,"end_at":0,"name":"Embassy of China in Russia","city":"Moskva","country":"RU","runway_length":0,"runway_show":0,"points":"","url":"","address":"","is_web":0},{"area_id":5231,"type":0,"shape":0,"lat":55.609171,"lng":49.27774,"radius":2270,"level":2,"updated_at":1447945800,"begin_at":0,"end_at":0,"name":"Kazan International Airport","city":"Kazan","country":"RU","runway_length":0,"runway_show":0,"points":"","url":"","address":"","is_web":0},{"area_id":7139,"type":0,"shape":0,"lat":55.597708,"lng":37.266769,"radius":2259,"level":2,"updated_at":1447945800,"begin_at":0,"end_at":0,"name":"Vnukovo International Airport","city":"Moscow","country":"RU","runway_length":0,"runway_show":0,"points":"","url":"","address":"","is_web":0},{"area_id":4144,"type":0,"shape":0,"lat":55.564897,"lng":52.093339,"radius":1748,"level":2,"updated_at":1447945800,"begin_at":0,"end_at":0,"name":"Begishevo Airport","city":"Nizhnekamsk","country":"RU","runway_length":0,"runway_show":0,"points":"","url":"","address":"","is_web":0},{"area_id":10198,"type":0,"shape":0,"lat":55.553333,"lng":38.151667,"radius":2943,"level":2,"updated_at":1447945800,"begin_at":0,"end_at":0,"name":"Ramenskoye Airport","city":"Zhukovskiy","country":"RU","runway_length":0,"runway_show":0,"points":"","url":"","address":"","is_web":0},{"area_id":10199,"type":0,"shape":0,"lat":55.512258,"lng":37.507217,"radius":1479,"level":2,"updated_at":1447945800,"begin_at":0,"end_at":0,"name":"Ostafyevo International Airport","city":"Москва","country":"RU","runway_length":0,"runway_show":0,"points":"","url":"","address":"","is_web":0},{"area_id":5085,"type":0,"shape":0,"lat":55.475373,"lng":65.415405,"radius":1573,"level":2,"updated_at":1447945800,"begin_at":0,"end_at":0,"name":"Kurgan Airport","city":"Kurgan","country":"RU","runway_length":0,"runway_show":0,"points":"","url":"","address":"","is_web":0},{"area_id":10186,"type":0,"shape":0,"lat":55.455,"lng":89.175,"radius":1134,"level":2,"updated_at":1447945800,"begin_at":0,"end_at":0,"name":"Sharypovo Airport","city":"NULL","country":"RU","runway_length":0,"runway_show":0,"points":"","url":"","address":"","is_web":0},{"area_id":635,"type":0,"shape":0,"lat":55.408611,"lng":37.906113,"radius":3800,"level":2,"updated_at":1447945800,"begin_at":0,"end_at":0,"name":"Domodedovo International Airport","city":"Moscow","country":"RU","runway_length":0,"runway_show":0,"points":"","url":"","address":"","is_web":0},{"area_id":31732,"type":1,"shape":0,"lat":55.355,"lng":86.070278,"radius":500,"level":2,"updated_at":1447945800,"begin_at":0,"end_at":0,"name":"Khimik Stadium (Kemerovo)","city":"Kemerovo","country":"RU","runway_length":0,"runway_show":0,"points":"","url":"","address":"","is_web":0},{"area_id":1745,"type":0,"shape":0,"lat":55.304577,"lng":61.49893,"radius":2287,"level":2,"updated_at":1447945800,"begin_at":0,"end_at":0,"name":"Chelyabinsk Balandino Airport","city":"Chelyabinsk","country":"RU","runway_length":0,"runway_show":0,"points":"","url":"","address":"","is_web":0},{"area_id":7706,"type":0,"shape":0,"lat":55.283333,"lng":124.778333,"radius":1525,"level":2,"updated_at":1447945800,"begin_at":0,"end_at":0,"name":"Tynda Airport","city":"Tynda","country":"RU","runway_length":0,"runway_show":0,"points":"","url":"","address":"","is_web":0},{"area_id":4831,"type":0,"shape":0,"lat":55.270068,"lng":86.107838,"radius":1874,"level":2,"updated_at":1447945800,"begin_at":0,"end_at":0,"name":"Kemerovo Airport","city":"Kemerovo","country":"RU","runway_length":0,"runway_show":0,"points":"","url":"","address":"","is_web":0},{"area_id":10201,"type":0,"shape":0,"lat":55.226767,"lng":36.609535,"radius":2094,"level":2,"updated_at":1447945800,"begin_at":0,"end_at":0,"name":"Yermolino Airport","city":"NULL","country":"RU","runway_length":0,"runway_show":0,"points":"","url":"","address":"","is_web":0},{"area_id":10187,"type":0,"shape":0,"lat":55.091274,"lng":83.002668,"radius":2003,"level":2,"updated_at":1447945800,"begin_at":0,"end_at":0,"name":"Yeltsovka Airport","city":"Novosibirsk","country":"RU","runway_length":0,"runway_show":0,"points":"","url":"","address":"","is_web":0},{"area_id":4691,"type":0,"shape":0,"lat":55.011353,"lng":82.652161,"radius":2596,"level":2,"updated_at":1447945800,"begin_at":0,"end_at":0,"name":"Tolmachevo Airport","city":"Novosibirsk","country":"RU","runway_length":0,"runway_show":0,"points":"","url":"","address":"","is_web":0},{"area_id":4576,"type":0,"shape":0,"lat":54.964121,"lng":73.310703,"radius":2052,"level":2,"updated_at":1447945800,"begin_at":0,"end_at":0,"name":"Omsk Central Airport","city":"Omsk","country":"RU","runway_length":0,"runway_show":0,"points":"","url":"","address":"","is_web":0},{"area_id":10200,"type":0,"shape":0,"lat":54.910329,"lng":39.030787,"radius":1847,"level":2,"updated_at":1447945800,"begin_at":0,"end_at":0,"name":"Tretyakovo Airport","city":"Lukhovitsy","country":"RU","runway_length":0,"runway_show":0,"points":"","url":"","address":"","is_web":0},{"area_id":4855,"type":0,"shape":0,"lat":54.890883,"lng":20.595383,"radius":2126,"level":2,"updated_at":1447945800,"begin_at":0,"end_at":0,"name":"Khrabrovo Airport","city":"Kaliningrad","country":"RU","runway_length":0,"runway_show":0,"points":"","url":"","address":"","is_web":0},{"area_id":10206,"type":0,"shape":0,"lat":54.830742,"lng":56.167904,"radius":1123,"level":2,"updated_at":1447945800,"begin_at":0,"end_at":0,"name":"Ufa Maximovka Airport","city":"Ufa","country":"RU","runway_length":0,"runway_show":0,"points":"","url":"","address":"","is_web":0},{"area_id":10225,"type":0,"shape":0,"lat":54.824901,"lng":32.024228,"radius":1503,"level":2,"updated_at":1447945800,"begin_at":0,"end_at":0,"name":"Smolensk North Airport","city":"Smolensk","country":"RU","runway_length":0,"runway_show":0,"points":"","url":"","address":"","is_web":0},{"area_id":3920,"type":0,"shape":0,"lat":54.745,"lng":32.065,"radius":1103,"level":2,"updated_at":1447945800,"begin_at":0,"end_at":0,"name":"Smolensk South Airport","city":"Smolensk","country":"RU","runway_length":0,"runway_show":0,"points":"","url":"","address":"","is_web":0},{"area_id":7026,"type":0,"shape":0,"lat":54.636366,"lng":52.796993,"radius":1980,"level":2,"updated_at":1447945800,"begin_at":0,"end_at":0,"name":"Bugulma Airport","city":"Bugulma","country":"RU","runway_length":0,"runway_show":0,"points":"","url":"","address":"","is_web":0},{"area_id":31868,"type":1,"shape":0,"lat":54.614444,"lng":39.736111,"radius":500,"level":2,"updated_at":1447945800,"begin_at":0,"end_at":0,"name":"CSK Stadium","city":"Ryazan","country":"RU","runway_length":0,"runway_show":0,"points":"","url":"","address":"","is_web":0},{"area_id":5555,"type":0,"shape":0,"lat":54.554624,"lng":39.851106,"radius":914,"level":2,"updated_at":1447945800,"begin_at":0,"end_at":0,"name":"Turlatovo Airport","city":"Ryazan","country":"RU","runway_length":0,"runway_show":0,"points":"","url":"","address":"","is_web":0},{"area_id":4950,"type":0,"shape":0,"lat":54.548708,"lng":36.371106,"radius":1203,"level":2,"updated_at":1447945800,"begin_at":0,"end_at":0,"name":"Grabtsevo Airport","city":"Kaluga","country":"RU","runway_length":0,"runway_show":0,"points":"","url":"","address":"","is_web":0},{"area_id":10196,"type":0,"shape":0,"lat":54.493333,"lng":39.931667,"radius":1412,"level":2,"updated_at":1447945800,"begin_at":0,"end_at":0,"name":"Protasovo air base","city":"NULL","country":"RU","runway_length":0,"runway_show":0,"points":"","url":"","address":"","is_web":0},{"area_id":10104,"type":0,"shape":0,"lat":54.469111,"lng":36.072745,"radius":1271,"level":2,"updated_at":1447945800,"begin_at":0,"end_at":0,"name":"Vorotynsk Air Base","city":"Vorotynsk","country":"RU","runway_length":0,"runway_show":0,"points":"","url":"","address":"","is_web":0},{"area_id":4540,"type":0,"shape":0,"lat":54.43985,"lng":53.386129,"radius":1000,"level":2,"updated_at":1447945800,"begin_at":0,"end_at":0,"name":"Oktyabrskiy Airport","city":"Kzyl-Yar","country":"RU","runway_length":0,"runway_show":0,"points":"","url":"","address":"","is_web":0},{"area_id":6941,"type":0,"shape":0,"lat":54.268333,"lng":48.226667,"radius":3046,"level":2,"updated_at":1447945800,"begin_at":0,"end_at":0,"name":"Ulyanovsk Baratayevka Airport","city":"Ulyanovsk","country":"RU","runway_length":0,"runway_show":0,"points":"","url":"","address":"","is_web":0},{"area_id":8369,"type":0,"shape":0,"lat":54.128455,"lng":45.215018,"radius":2104,"level":2,"updated_at":1447945800,"begin_at":0,"end_at":0,"name":"Saransk Airport","city":"Saransk","country":"RU","runway_length":0,"runway_show":0,"points":"","url":"","address":"","is_web":0},{"area_id":3100,"type":0,"shape":0,"lat":53.940335,"lng":58.339744,"radius":1011,"level":2,"updated_at":1447945800,"begin_at":0,"end_at":0,"name":"Beloretsk Airport","city":"Beloretsk","country":"RU","runway_length":0,"runway_show":0,"points":"","url":"","address":"","is_web":0},{"area_id":4324,"type":0,"shape":0,"lat":53.811279,"lng":86.873968,"radius":1692,"level":2,"updated_at":1447945800,"begin_at":0,"end_at":0,"name":"Spichenkovo Airport","city":"Novokuznetsk","country":"RU","runway_length":0,"runway_show":0,"points":"","url":"","address":"","is_web":0},{"area_id":811,"type":0,"shape":0,"lat":53.741197,"lng":91.38607,"radius":1846,"level":2,"updated_at":1447945800,"begin_at":0,"end_at":0,"name":"Abakan Airport","city":"Abakan","country":"RU","runway_length":0,"runway_show":0,"points":"","url":"","address":"","is_web":0},{"area_id":4510,"type":0,"shape":0,"lat":53.516667,"lng":142.883333,"radius":1327,"level":2,"updated_at":1447945800,"begin_at":0,"end_at":0,"name":"Okha Airport","city":"Okha","country":"RU","runway_length":0,"runway_show":0,"points":"","url":"","address":"","is_web":0},{"area_id":5150,"type":0,"shape":0,"lat":53.506212,"lng":50.160548,"radius":2390,"level":2,"updated_at":1447945800,"begin_at":0,"end_at":0,"name":"Kurumoch International Airport","city":"Samara","country":"RU","runway_length":0,"runway_show":0,"points":"","url":"","address":"","is_web":0},{"area_id":6600,"type":0,"shape":0,"lat":53.393333,"lng":58.756668,"radius":2554,"level":2,"updated_at":1447945800,"begin_at":0,"end_at":0,"name":"Magnitogorsk International Airport","city":"Magnitogorsk","country":"RU","runway_length":0,"runway_show":0,"points":"","url":"","address":"","is_web":0},{"area_id":3048,"type":0,"shape":0,"lat":53.360733,"lng":83.543014,"radius":1994,"level":2,"updated_at":1447945800,"begin_at":0,"end_at":0,"name":"Barnaul Airport","city":"Barnaul","country":"RU","runway_length":0,"runway_show":0,"points":"","url":"","address":"","is_web":0},{"area_id":31730,"type":1,"shape":0,"lat":53.238333,"lng":50.271667,"radius":500,"level":2,"updated_at":1447945800,"begin_at":0,"end_at":0,"name":"Metallurg Stadium","city":"Samara","country":"RU","runway_length":0,"runway_show":0,"points":"","url":"","address":"","is_web":0},{"area_id":3638,"type":0,"shape":0,"lat":53.214266,"lng":34.175805,"radius":1393,"level":2,"updated_at":1447945800,"begin_at":0,"end_at":0,"name":"Bryansk Airport","city":"Bryansk","country":"RU","runway_length":0,"runway_show":0,"points":"","url":"","address":"","is_web":0},{"area_id":5903,"type":0,"shape":0,"lat":53.170409,"lng":158.447468,"radius":2540,"level":2,"updated_at":1447945800,"begin_at":0,"end_at":0,"name":"Yelizovo Airport","city":"Petropavlovsk-Kamchatsky","country":"RU","runway_length":0,"runway_show":0,"points":"","url":"","address":"","is_web":0},{"area_id":5817,"type":0,"shape":0,"lat":53.109279,"lng":45.025734,"radius":2314,"level":2,"updated_at":1447945800,"begin_at":0,"end_at":0,"name":"Penza Airport","city":"Penza","country":"RU","runway_length":0,"runway_show":0,"points":"","url":"","address":"","is_web":0},{"area_id":4486,"type":0,"shape":0,"lat":52.935,"lng":36.001667,"radius":1505,"level":2,"updated_at":1447945800,"begin_at":0,"end_at":0,"name":"Oryol Yuzhny Airport","city":"Orel","country":"RU","runway_length":0,"runway_show":0,"points":"","url":"","address":"","is_web":0},{"area_id":7280,"type":0,"shape":0,"lat":52.806349,"lng":41.482644,"radius":1521,"level":2,"updated_at":1447945800,"begin_at":0,"end_at":0,"name":"Donskoye Airport","city":"Tambov","country":"RU","runway_length":0,"runway_show":0,"points":"","url":"","address":"","is_web":0},{"area_id":3954,"type":0,"shape":0,"lat":52.703333,"lng":39.538333,"radius":1593,"level":2,"updated_at":1447945800,"begin_at":0,"end_at":0,"name":"Lipetsk Airport","city":"Lipetsk","country":"RU","runway_length":0,"runway_show":0,"points":"","url":"","address":"","is_web":0},{"area_id":10083,"type":0,"shape":0,"lat":52.644583,"lng":39.452725,"radius":2953,"level":2,"updated_at":1447945800,"begin_at":0,"end_at":0,"name":"Lipetsk Air Base","city":"Lipetsk","country":"RU","runway_length":0,"runway_show":0,"points":"","url":"","address":"","is_web":0},{"area_id":10086,"type":0,"shape":0,"lat":52.368333,"lng":104.183333,"radius":1523,"level":2,"updated_at":1447945800,"begin_at":0,"end_at":0,"name":"Irkutsk Northwest Airport","city":"Irkutsk","country":"RU","runway_length":0,"runway_show":0,"points":"","url":"","address":"","is_web":0},{"area_id":2851,"type":0,"shape":0,"lat":52.268501,"lng":104.386257,"radius":2628,"level":2,"updated_at":1447945800,"begin_at":0,"end_at":0,"name":"Irkutsk Airport","city":"Irkutsk","country":"RU","runway_length":0,"runway_show":0,"points":"","url":"","address":"","is_web":0},{"area_id":1570,"type":0,"shape":0,"lat":52.026296,"lng":113.304685,"radius":1746,"level":2,"updated_at":1447945800,"begin_at":0,"end_at":0,"name":"Chita-Kadala Airport","city":"Chita","country":"RU","runway_length":0,"runway_show":0,"points":"","url":"","address":"","is_web":0},{"area_id":5341,"type":0,"shape":0,"lat":51.968148,"lng":85.836339,"radius":1842,"level":2,"updated_at":1447945800,"begin_at":0,"end_at":0,"name":"Gorno-Altaysk Airport","city":"Gorno-Altaysk","country":"RU","runway_length":0,"runway_show":0,"points":"","url":"","address":"","is_web":0},{"area_id":3580,"type":0,"shape":0,"lat":51.85827,"lng":47.745878,"radius":1351,"level":2,"updated_at":1447945800,"begin_at":0,"end_at":0,"name":"Balakovo Airport","city":"Balakovo","country":"RU","runway_length":0,"runway_show":0,"points":"","url":"","address":"","is_web":0},{"area_id":10115,"type":0,"shape":0,"lat":51.844257,"lng":41.464135,"radius":2077,"level":2,"updated_at":1447945800,"begin_at":0,"end_at":0,"name":"Zherdevka Air Base","city":"Zherdevka","country":"RU","runway_length":0,"runway_show":0,"points":"","url":"","address":"","is_web":0},{"area_id":7181,"type":0,"shape":0,"lat":51.813399,"lng":39.226005,"radius":1702,"level":2,"updated_at":1447945800,"begin_at":0,"end_at":0,"name":"Voronezh International Airport","city":"Voronezh","country":"RU","runway_length":0,"runway_show":0,"points":"","url":"","address":"","is_web":0},{"area_id":10108,"type":0,"shape":0,"lat":51.805679,"lng":107.442984,"radius":2304,"level":2,"updated_at":1447945800,"begin_at":0,"end_at":0,"name":"Ulan-Ude Airport","city":"Ulan-Ude","country":"RU","runway_length":0,"runway_show":0,"points":"","url":"","address":"","is_web":0},{"area_id":6993,"type":0,"shape":0,"lat":51.751531,"lng":36.294878,"radius":1448,"level":2,"updated_at":1447945800,"begin_at":0,"end_at":0,"name":"Kursk East Airport","city":"Kursk","country":"RU","runway_length":0,"runway_show":0,"points":"","url":"","address":"","is_web":0},{"area_id":31761,"type":1,"shape":0,"lat":51.672778,"lng":39.204167,"radius":500,"level":2,"updated_at":1447945800,"begin_at":0,"end_at":0,"name":"Tsentralnyi Profsoyuz Stadion (Voronezh)","city":"Voronezh","country":"RU","runway_length":0,"runway_show":0,"points":"","url":"","address":"","is_web":0},{"area_id":5222,"type":0,"shape":0,"lat":51.669975,"lng":94.399604,"radius":1635,"level":2,"updated_at":1447945800,"begin_at":0,"end_at":0,"name":"Kyzyl Airport","city":"Kyzyl","country":"RU","runway_length":0,"runway_show":0,"points":"","url":"","address":"","is_web":0},{"area_id":5507,"type":0,"shape":0,"lat":51.564733,"lng":46.04529,"radius":1466,"level":2,"updated_at":1447945800,"begin_at":0,"end_at":0,"name":"Saratov Central Airport","city":"Saratov","country":"RU","runway_length":0,"runway_show":0,"points":"","url":"","address":"","is_web":0},{"area_id":10112,"type":0,"shape":0,"lat":51.488487,"lng":46.215534,"radius":3802,"level":2,"updated_at":1447945800,"begin_at":0,"end_at":0,"name":"Engels-2","city":"NULL","country":"RU","runway_length":0,"runway_show":0,"points":"","url":"","address":"","is_web":0},{"area_id":4652,"type":0,"shape":0,"lat":51.072498,"lng":58.595554,"radius":2754,"level":2,"updated_at":1447945800,"begin_at":0,"end_at":0,"name":"Orsk Airport","city":"Orsk","country":"RU","runway_length":0,"runway_show":0,"points":"","url":"","address":"","is_web":0},{"area_id":8851,"type":0,"shape":0,"lat":50.663546,"lng":142.763773,"radius":1795,"level":2,"updated_at":1447945800,"begin_at":0,"end_at":0,"name":"Zonalnoye Airport","city":"Tymovskoye","country":"RU","runway_length":0,"runway_show":0,"points":"","url":"","address":"","is_web":0},{"area_id":66,"type":0,"shape":0,"lat":50.645714,"lng":36.590118,"radius":1815,"level":2,"updated_at":1447945800,"begin_at":0,"end_at":0,"name":"Belgorod International Airport","city":"Belgorod","country":"RU","runway_length":0,"runway_show":0,"points":"","url":"","address":"","is_web":0},{"area_id":10163,"type":0,"shape":0,"lat":50.605599,"lng":137.081753,"radius":1464,"level":2,"updated_at":1447945800,"begin_at":0,"end_at":0,"name":"Dzemgi Airport","city":"Komsomolsk-on-Amur","country":"RU","runway_length":0,"runway_show":0,"points":"","url":"","address":"","is_web":0},{"area_id":3439,"type":0,"shape":0,"lat":50.425856,"lng":127.40834,"radius":1956,"level":2,"updated_at":1447945800,"begin_at":0,"end_at":0,"name":"Ignatyevo Airport","city":"Blagoveschensk","country":"RU","runway_length":0,"runway_show":0,"points":"","url":"","address":"","is_web":0},{"area_id":5205,"type":0,"shape":0,"lat":50.410046,"lng":136.935242,"radius":1726,"level":2,"updated_at":1447945800,"begin_at":0,"end_at":0,"name":"Komsomolsk-on-Amur Airport","city":"Komsomolsk-on-Amur","country":"RU","runway_length":0,"runway_show":0,"points":"","url":"","address":"","is_web":0},{"area_id":10168,"type":0,"shape":0,"lat":50.03199,"lng":118.061801,"radius":1296,"level":2,"updated_at":1447945800,"begin_at":0,"end_at":0,"name":"Krasnokamensk Airport","city":"Krasnokamensk","country":"RU","runway_length":0,"runway_show":0,"points":"","url":"","address":"","is_web":0},{"area_id":2529,"type":0,"shape":0,"lat":48.927241,"lng":140.034956,"radius":1594,"level":2,"updated_at":1447945800,"begin_at":0,"end_at":0,"name":"Maygatka. Airport","city":"Sovetskaya Gavan","country":"RU","runway_length":0,"runway_show":0,"points":"","url":"","address":"","is_web":0},{"area_id":7175,"type":0,"shape":0,"lat":48.783276,"lng":44.343735,"radius":2192,"level":2,"updated_at":1447945800,"begin_at":0,"end_at":0,"name":"Volgograd International Airport","city":"Volgograd","country":"RU","runway_length":0,"runway_show":0,"points":"","url":"","address":"","is_web":0},{"area_id":31751,"type":1,"shape":0,"lat":48.734444,"lng":44.548333,"radius":500,"level":2,"updated_at":1447945800,"begin_at":0,"end_at":0,"name":"Central Stadium (Volgograd)","city":"Volgograd","country":"RU","runway_length":0,"runway_show":0,"points":"","url":"","address":"","is_web":0},{"area_id":4892,"type":0,"shape":0,"lat":48.529793,"lng":135.187834,"radius":2391,"level":2,"updated_at":1447945800,"begin_at":0,"end_at":0,"name":"Khabarovsk-Novy Airport","city":"Khabarovsk","country":"RU","runway_length":0,"runway_show":0,"points":"","url":"","address":"","is_web":0},{"area_id":10098,"type":0,"shape":0,"lat":48.309363,"lng":46.238577,"radius":4931,"level":2,"updated_at":1447945800,"begin_at":0,"end_at":0,"name":"Akhtubinsk Air Base","city":"Akhtubinsk","country":"RU","runway_length":0,"runway_show":0,"points":"","url":"","address":"","is_web":0},{"area_id":7150,"type":0,"shape":0,"lat":47.682698,"lng":42.076805,"radius":1701,"level":2,"updated_at":1447945800,"begin_at":0,"end_at":0,"name":"Volgodonsk Airport","city":"","country":"RU","runway_length":0,"runway_show":0,"points":"","url":"","address":"","is_web":0},{"area_id":10101,"type":0,"shape":0,"lat":47.261667,"lng":142.768333,"radius":1552,"level":2,"updated_at":1447945800,"begin_at":0,"end_at":0,"name":"Dolinsk-Sokol","city":"NULL","country":"RU","runway_length":0,"runway_show":0,"points":"","url":"","address":"","is_web":0},{"area_id":5455,"type":0,"shape":0,"lat":47.259667,"lng":39.818291,"radius":2104,"level":2,"updated_at":1447945800,"begin_at":0,"end_at":0,"name":"Rostov-na-Donu Airport","city":"Rostov-on-Don","country":"RU","runway_length":0,"runway_show":0,"points":"","url":"","address":"","is_web":0},{"area_id":7030,"type":0,"shape":0,"lat":46.885442,"lng":142.718142,"radius":2550,"level":2,"updated_at":1447945800,"begin_at":0,"end_at":0,"name":"Yuzhno-Sakhalinsk Airport","city":"Yuzhno-Sakhalinsk","country":"RU","runway_length":0,"runway_show":0,"points":"","url":"","address":"","is_web":0},{"area_id":200,"type":0,"shape":0,"lat":46.374845,"lng":44.32552,"radius":2699,"level":2,"updated_at":1447945800,"begin_at":0,"end_at":0,"name":"Elista Airport","city":"Elista","country":"RU","runway_length":0,"runway_show":0,"points":"","url":"","address":"","is_web":0},{"area_id":1181,"type":0,"shape":0,"lat":46.284066,"lng":48.013771,"radius":2474,"level":2,"updated_at":1447945800,"begin_at":0,"end_at":0,"name":"Astrakhan Airport","city":"Astrakhan","country":"RU","runway_length":0,"runway_show":0,"points":"","url":"","address":"","is_web":0},{"area_id":31764,"type":1,"shape":0,"lat":45.025278,"lng":38.999444,"radius":500,"level":2,"updated_at":1447945800,"begin_at":0,"end_at":0,"name":"Kuban Stadium","city":"Krasnodar","country":"RU","runway_length":0,"runway_show":0,"points":"","url":"","address":"","is_web":0},{"area_id":801,"type":0,"shape":0,"lat":45.004996,"lng":37.349024,"radius":2053,"level":2,"updated_at":1447945800,"begin_at":0,"end_at":0,"name":"Anapa Airport","city":"Anapa","country":"RU","runway_length":0,"runway_show":0,"points":"","url":"","address":"","is_web":0},{"area_id":10191,"type":0,"shape":0,"lat":44.679878,"lng":40.036702,"radius":1472,"level":2,"updated_at":1447945800,"begin_at":0,"end_at":0,"name":"Khanskaya","city":"NULL","country":"RU","runway_length":0,"runway_show":0,"points":"","url":"","address":"","is_web":0},{"area_id":2267,"type":0,"shape":0,"lat":44.582431,"lng":38.012395,"radius":1998,"level":2,"updated_at":1447945800,"begin_at":0,"end_at":0,"name":"Gelendzhik Airport","city":"Gelendzhik","country":"RU","runway_length":0,"runway_show":0,"points":"","url":"","address":"","is_web":0},{"area_id":10092,"type":0,"shape":0,"lat":44.323264,"lng":132.544351,"radius":1706,"level":2,"updated_at":1447945800,"begin_at":0,"end_at":0,"name":"Chernigovka Air Base","city":"Chernigovka","country":"RU","runway_length":0,"runway_show":0,"points":"","url":"","address":"","is_web":0},{"area_id":6639,"type":0,"shape":0,"lat":44.225505,"lng":43.081626,"radius":3003,"level":2,"updated_at":1447945800,"begin_at":0,"end_at":0,"name":"Mineralnyye Vody Airport","city":"Mineralnyye Vody","country":"RU","runway_length":0,"runway_show":0,"points":"","url":"","address":"","is_web":0},{"area_id":4127,"type":0,"shape":0,"lat":43.512792,"lng":43.637844,"radius":1610,"level":2,"updated_at":1447945800,"begin_at":0,"end_at":0,"name":"Nalchik Airport","city":"Nalchik","country":"RU","runway_length":0,"runway_show":0,"points":"","url":"","address":"","is_web":0},{"area_id":897,"type":0,"shape":0,"lat":43.446636,"lng":39.943277,"radius":1783,"level":2,"updated_at":1447945800,"begin_at":0,"end_at":0,"name":"Sochi International Airport","city":"Sochi","country":"RU","runway_length":0,"runway_show":0,"points":"","url":"","address":"","is_web":0},{"area_id":31690,"type":1,"shape":0,"lat":43.402267,"lng":39.956111,"radius":500,"level":2,"updated_at":1447945800,"begin_at":0,"end_at":0,"name":"Fisht Olympic Stadium","city":"Sochi","country":"RU","runway_length":0,"runway_show":0,"points":"","url":"","address":"","is_web":0},{"area_id":2462,"type":0,"shape":0,"lat":43.388107,"lng":45.699928,"radius":1773,"level":2,"updated_at":1447945800,"begin_at":0,"end_at":0,"name":"Grozny North Airport","city":"Grozny","country":"RU","runway_length":0,"runway_show":0,"points":"","url":"","address":"","is_web":0},{"area_id":31779,"type":1,"shape":0,"lat":43.323176,"lng":45.745252,"radius":500,"level":2,"updated_at":1447945800,"begin_at":0,"end_at":0,"name":"Terek Stadium","city":"Grozni","country":"RU","runway_length":0,"runway_show":0,"points":"","url":"","address":"","is_web":0},{"area_id":2829,"type":0,"shape":0,"lat":43.322091,"lng":45.01295,"radius":1984,"level":2,"updated_at":1447945800,"begin_at":0,"end_at":0,"name":"Magas Airport","city":"Magas","country":"RU","runway_length":0,"runway_show":0,"points":"","url":"","address":"","is_web":0},{"area_id":4505,"type":0,"shape":0,"lat":43.205002,"lng":44.606667,"radius":2456,"level":2,"updated_at":1447945800,"begin_at":0,"end_at":0,"name":"Beslan Airport","city":"Beslan","country":"RU","runway_length":0,"runway_show":0,"points":"","url":"","address":"","is_web":0},{"area_id":31745,"type":1,"shape":0,"lat":43.023056,"lng":44.695,"radius":500,"level":2,"updated_at":1447945800,"begin_at":0,"end_at":0,"name":"Republican Spartak Stadium","city":"Vladikavkaz","country":"RU","runway_length":0,"runway_show":0,"points":"","url":"","address":"","is_web":0},{"area_id":31797,"type":1,"shape":0,"lat":42.907901,"lng":47.618587,"radius":500,"level":2,"updated_at":1447945800,"begin_at":0,"end_at":0,"name":"Anzhi-Arena","city":"Kaspiysk","country":"RU","runway_length":0,"runway_show":0,"points":"","url":"","address":"","is_web":0},{"area_id":6277,"type":0,"shape":0,"lat":42.817005,"lng":47.652309,"radius":2191,"level":2,"updated_at":1447945800,"begin_at":0,"end_at":0,"name":"Uytash Airport","city":"Makhachkala","country":"RU","runway_length":0,"runway_show":0,"points":"","url":"","address":"","is_web":0}],"status":"200"}