{"data":[{"area_id":1414,"type":0,"shape":0,"lat":10.528868,"lng":32.500563,"radius":1349,"level":2,"updated_at":1447945800,"begin_at":0,"end_at":0,"name":"Paloich, Airport","city":"Higleig","country":"SS","runway_length":0,"runway_show":0,"points":"","url":"","address":"","is_web":0},{"area_id":6212,"type":0,"shape":0,"lat":9.563502,"lng":31.654963,"radius":1569,"level":2,"updated_at":1447945800,"begin_at":0,"end_at":0,"name":"Malakal Airport","city":"Malakal","country":"SS","runway_length":0,"runway_show":0,"points":"","url":"","address":"","is_web":0},{"area_id":8074,"type":0,"shape":0,"lat":7.725922,"lng":27.973824,"radius":1472,"level":2,"updated_at":1447945800,"begin_at":0,"end_at":0,"name":"Wau Airport","city":"Wau","country":"SS","runway_length":0,"runway_show":0,"points":"","url":"","address":"","is_web":0},{"area_id":5279,"type":0,"shape":0,"lat":6.829717,"lng":29.669826,"radius":1314,"level":2,"updated_at":1447945800,"begin_at":0,"end_at":0,"name":"Rumbek Airport","city":"Rumbek","country":"SS","runway_length":0,"runway_show":0,"points":"","url":"","address":"","is_web":0},{"area_id":2740,"type":0,"shape":0,"lat":4.874339,"lng":31.598105,"radius":1746,"level":2,"updated_at":1447945800,"begin_at":0,"end_at":0,"name":"Juba Airport","city":"Juba","country":"SS","runway_length":0,"runway_show":0,"points":"","url":"","address":"","is_web":0}],"status":"200"}