{"data":[{"area_id":4205,"type":0,"shape":0,"lat":-15.977174,"lng":-173.79127,"radius":802,"level":2,"updated_at":1447945800,"begin_at":0,"end_at":0,"name":"Mata'aho Airport","city":"Angaha, Niuafo'ou Island","country":"TO","runway_length":0,"runway_show":0,"points":"","url":"","address":"","is_web":0},{"area_id":7062,"type":0,"shape":0,"lat":-18.585527,"lng":-173.96272,"radius":946,"level":2,"updated_at":1447945800,"begin_at":0,"end_at":0,"name":"Vava'u International Airport","city":"Vava'u Island","country":"TO","runway_length":0,"runway_show":0,"points":"","url":"","address":"","is_web":0},{"area_id":1534,"type":0,"shape":0,"lat":-19.777213,"lng":-174.341671,"radius":751,"level":2,"updated_at":1447945800,"begin_at":0,"end_at":0,"name":"Lifuka Island Airport","city":"Lifuka","country":"TO","runway_length":0,"runway_show":0,"points":"","url":"","address":"","is_web":0},{"area_id":7278,"type":0,"shape":0,"lat":-21.239925,"lng":-175.149245,"radius":1573,"level":2,"updated_at":1447945800,"begin_at":0,"end_at":0,"name":"Fua'amotu International Airport","city":"Nuku'alofa","country":"TO","runway_length":0,"runway_show":0,"points":"","url":"","address":"","is_web":0},{"area_id":215,"type":0,"shape":0,"lat":-21.377916,"lng":-174.957703,"radius":567,"level":2,"updated_at":1447945800,"begin_at":0,"end_at":0,"name":"Kaufana Airport","city":"Eua Island","country":"TO","runway_length":0,"runway_show":0,"points":"","url":"","address":"","is_web":0}],"status":"200"}