{"data":[{"area_id":6689,"type":0,"shape":0,"lat":-13.665958,"lng":167.711347,"radius":494,"level":2,"updated_at":1447945800,"begin_at":0,"end_at":0,"name":"Mota Lava Airport","city":"Ablow","country":"VU","runway_length":0,"runway_show":0,"points":"","url":"","address":"","is_web":0},{"area_id":4551,"type":0,"shape":0,"lat":-14.8815,"lng":166.558,"radius":473,"level":2,"updated_at":1447945800,"begin_at":0,"end_at":0,"name":"Olpoi Airport","city":"Lajmoli","country":"VU","runway_length":0,"runway_show":0,"points":"","url":"","address":"","is_web":0},{"area_id":8550,"type":0,"shape":0,"lat":-15.470892,"lng":168.152382,"radius":222,"level":2,"updated_at":1447945800,"begin_at":0,"end_at":0,"name":"Sara Airport","city":"Sara","country":"VU","runway_length":0,"runway_show":0,"points":"","url":"","address":"","is_web":0},{"area_id":8457,"type":0,"shape":0,"lat":-15.504482,"lng":167.219785,"radius":1018,"level":2,"updated_at":1447945800,"begin_at":0,"end_at":0,"name":"Santo-Pekoa International Airport","city":"Luganville","country":"VU","runway_length":0,"runway_show":0,"points":"","url":"","address":"","is_web":0},{"area_id":3905,"type":0,"shape":0,"lat":-15.865099,"lng":168.17206,"radius":589,"level":2,"updated_at":1447945800,"begin_at":0,"end_at":0,"name":"Lonorore Airport","city":"Lonorore","country":"VU","runway_length":0,"runway_show":0,"points":"","url":"","address":"","is_web":0},{"area_id":4396,"type":0,"shape":0,"lat":-16.078292,"lng":167.400053,"radius":680,"level":2,"updated_at":1447945800,"begin_at":0,"end_at":0,"name":"Norsup Airport","city":"Norsup","country":"VU","runway_length":0,"runway_show":0,"points":"","url":"","address":"","is_web":0},{"area_id":6925,"type":0,"shape":0,"lat":-16.329663,"lng":168.30088,"radius":420,"level":2,"updated_at":1447945800,"begin_at":0,"end_at":0,"name":"Ulei Airport","city":"Ulei","country":"VU","runway_length":0,"runway_show":0,"points":"","url":"","address":"","is_web":0},{"area_id":3902,"type":0,"shape":0,"lat":-16.585565,"lng":168.159633,"radius":530,"level":2,"updated_at":1447945800,"begin_at":0,"end_at":0,"name":"Lamen Bay Airport","city":"Lamen Bay","country":"VU","runway_length":0,"runway_show":0,"points":"","url":"","address":"","is_web":0},{"area_id":7157,"type":0,"shape":0,"lat":-16.796348,"lng":168.177263,"radius":541,"level":2,"updated_at":1447945800,"begin_at":0,"end_at":0,"name":"Valesdir Airport","city":"Valesdir","country":"VU","runway_length":0,"runway_show":0,"points":"","url":"","address":"","is_web":0},{"area_id":7365,"type":0,"shape":0,"lat":-16.890822,"lng":168.551109,"radius":497,"level":2,"updated_at":1447945800,"begin_at":0,"end_at":0,"name":"Tongoa Airport","city":"Tongoa Island","country":"VU","runway_length":0,"runway_show":0,"points":"","url":"","address":"","is_web":0},{"area_id":7149,"type":0,"shape":0,"lat":-17.697795,"lng":168.31775,"radius":1306,"level":2,"updated_at":1447945800,"begin_at":0,"end_at":0,"name":"Port Vila Bauerfield Airport","city":"Port-Vila","country":"VU","runway_length":0,"runway_show":0,"points":"","url":"","address":"","is_web":0},{"area_id":630,"type":0,"shape":0,"lat":-18.769483,"lng":169.001336,"radius":768,"level":2,"updated_at":1447945800,"begin_at":0,"end_at":0,"name":"Dillon's Bay Airport","city":"Dillon's Bay","country":"VU","runway_length":0,"runway_show":0,"points":"","url":"","address":"","is_web":0},{"area_id":1268,"type":0,"shape":0,"lat":-19.234156,"lng":169.600853,"radius":533,"level":2,"updated_at":1447945800,"begin_at":0,"end_at":0,"name":"Aniwa Airport","city":"Aniwa","country":"VU","runway_length":0,"runway_show":0,"points":"","url":"","address":"","is_web":0},{"area_id":7239,"type":0,"shape":0,"lat":-19.455,"lng":169.223689,"radius":613,"level":2,"updated_at":1447945800,"begin_at":0,"end_at":0,"name":"Tanna Airport","city":"Lenakel","country":"VU","runway_length":0,"runway_show":0,"points":"","url":"","address":"","is_web":0}],"status":"200"}