{"data":[{"area_id":3636,"type":0,"shape":0,"lat":-16.816626,"lng":28.345043,"radius":747,"level":2,"updated_at":1447945800,"begin_at":0,"end_at":0,"name":"Bumi Hills Airport","city":"Bumi Hills","country":"ZW","runway_length":0,"runway_show":0,"points":"","url":"","address":"","is_web":0},{"area_id":9846,"type":0,"shape":0,"lat":-17.431917,"lng":32.184502,"radius":701,"level":2,"updated_at":1447945800,"begin_at":0,"end_at":0,"name":"Mutoko Airport","city":"NULL","country":"ZW","runway_length":0,"runway_show":0,"points":"","url":"","address":"","is_web":0},{"area_id":1546,"type":0,"shape":0,"lat":-17.930869,"lng":31.092391,"radius":2488,"level":2,"updated_at":1447945800,"begin_at":0,"end_at":0,"name":"Harare International Airport","city":"Harare","country":"ZW","runway_length":0,"runway_show":0,"points":"","url":"","address":"","is_web":0},{"area_id":7965,"type":0,"shape":0,"lat":-18.362661,"lng":26.520702,"radius":888,"level":2,"updated_at":1447945800,"begin_at":0,"end_at":0,"name":"Hwange Airport","city":"Hwange","country":"ZW","runway_length":0,"runway_show":0,"points":"","url":"","address":"","is_web":0},{"area_id":1617,"type":0,"shape":0,"lat":-18.630083,"lng":27.01862,"radius":3413,"level":2,"updated_at":1447945800,"begin_at":0,"end_at":0,"name":"Hwange National Park Airport","city":"Hwange","country":"ZW","runway_length":0,"runway_show":0,"points":"","url":"","address":"","is_web":0},{"area_id":7009,"type":0,"shape":0,"lat":-18.997145,"lng":32.62727,"radius":483,"level":2,"updated_at":1447945800,"begin_at":0,"end_at":0,"name":"Mutare Airport Terminal","city":"Mutare","country":"ZW","runway_length":0,"runway_show":0,"points":"","url":"","address":"","is_web":0},{"area_id":2537,"type":0,"shape":0,"lat":-19.436666,"lng":29.861666,"radius":1992,"level":2,"updated_at":1447945800,"begin_at":0,"end_at":0,"name":"Thornhill Air Base Airport","city":"Gweru","country":"ZW","runway_length":0,"runway_show":0,"points":"","url":"","address":"","is_web":0},{"area_id":3534,"type":0,"shape":0,"lat":-20.018333,"lng":28.624722,"radius":2548,"level":2,"updated_at":1447945800,"begin_at":0,"end_at":0,"name":"Joshua Mqabuko Nkomo International Airport","city":"Bulawayo","country":"ZW","runway_length":0,"runway_show":0,"points":"","url":"","address":"","is_web":0},{"area_id":6744,"type":0,"shape":0,"lat":-20.055,"lng":30.858334,"radius":1203,"level":2,"updated_at":1447945800,"begin_at":0,"end_at":0,"name":"Masvingo International Airport","city":"Masvingo","country":"ZW","runway_length":0,"runway_show":0,"points":"","url":"","address":"","is_web":0},{"area_id":1809,"type":0,"shape":0,"lat":-20.206508,"lng":32.628805,"radius":689,"level":2,"updated_at":1447945800,"begin_at":0,"end_at":0,"name":"Chipinge Airport","city":"Chipinge","country":"ZW","runway_length":0,"runway_show":0,"points":"","url":"","address":"","is_web":0},{"area_id":3169,"type":0,"shape":0,"lat":-21.006699,"lng":31.576903,"radius":1946,"level":2,"updated_at":1447945800,"begin_at":0,"end_at":0,"name":"Buffalo Range Airport","city":"Chiredzi","country":"ZW","runway_length":0,"runway_show":0,"points":"","url":"","address":"","is_web":0}],"status":"200"}