{"data":[{"area_id":4075,"type":0,"shape":0,"lat":40.75,"lng":43.858891,"radius":1645,"level":2,"updated_at":1447945800,"begin_at":0,"end_at":0,"name":"Gyumri Shirak Airport","city":"Gyumri","country":"AM","runway_length":0,"runway_show":0,"points":"","url":"","address":"","is_web":0},{"area_id":31631,"type":1,"shape":0,"lat":40.180403,"lng":44.494967,"radius":500,"level":2,"updated_at":1447945800,"begin_at":0,"end_at":0,"name":"Hrazdan Stadium","city":"Yerevan","country":"AM","runway_length":0,"runway_show":0,"points":"","url":"","address":"","is_web":0},{"area_id":231,"type":0,"shape":0,"lat":40.148916,"lng":44.396797,"radius":2491,"level":2,"updated_at":1447945800,"begin_at":0,"end_at":0,"name":"Zvartnots International Airport","city":"Yerevan","country":"AM","runway_length":0,"runway_show":0,"points":"","url":"","address":"","is_web":0},{"area_id":10149,"type":0,"shape":0,"lat":40.122525,"lng":44.464341,"radius":1532,"level":2,"updated_at":1447945800,"begin_at":0,"end_at":0,"name":"Erebuni Airport","city":"Yerevan","country":"AM","runway_length":0,"runway_show":0,"points":"","url":"","address":"","is_web":0},{"area_id":10162,"type":0,"shape":0,"lat":39.823406,"lng":45.673997,"radius":1149,"level":2,"updated_at":1447945800,"begin_at":0,"end_at":0,"name":"Jermuk Airport","city":"Jermuk","country":"AM","runway_length":0,"runway_show":0,"points":"","url":"","address":"","is_web":0}],"status":"200"}