{"data":[{"area_id":2552,"type":0,"shape":0,"lat":-10.823815,"lng":-65.344991,"radius":1240,"level":2,"updated_at":1447945800,"begin_at":0,"end_at":0,"name":"Capitán de Av. Emilio Beltrán Airport","city":"Guayaramerín","country":"BO","runway_length":0,"runway_show":0,"points":"","url":"","address":"","is_web":0},{"area_id":1833,"type":0,"shape":0,"lat":-11.038983,"lng":-68.782337,"radius":1323,"level":2,"updated_at":1447945800,"begin_at":0,"end_at":0,"name":"Capitán Aníbal Arab Airport","city":"Cobija","country":"BO","runway_length":0,"runway_show":0,"points":"","url":"","address":"","is_web":0},{"area_id":8513,"type":0,"shape":0,"lat":-13.263796,"lng":-64.604395,"radius":1122,"level":2,"updated_at":1447945800,"begin_at":0,"end_at":0,"name":"San Ramón Airport","city":"San Ramón / Mamoré","country":"BO","runway_length":0,"runway_show":0,"points":"","url":"","address":"","is_web":0},{"area_id":3554,"type":0,"shape":0,"lat":-13.657783,"lng":-63.702981,"radius":833,"level":2,"updated_at":1447945800,"begin_at":0,"end_at":0,"name":"Baures Airport","city":"Baures","country":"BO","runway_length":0,"runway_show":0,"points":"","url":"","address":"","is_web":0},{"area_id":8141,"type":0,"shape":0,"lat":-13.763646,"lng":-65.433712,"radius":1176,"level":2,"updated_at":1447945800,"begin_at":0,"end_at":0,"name":"Santa Ana Del Yacuma Airport","city":"Santa Ana del Yacuma","country":"BO","runway_length":0,"runway_show":0,"points":"","url":"","address":"","is_web":0},{"area_id":5328,"type":0,"shape":0,"lat":-14.305563,"lng":-67.354063,"radius":859,"level":2,"updated_at":1447945800,"begin_at":0,"end_at":0,"name":"Reyes Airport","city":"Reyes","country":"BO","runway_length":0,"runway_show":0,"points":"","url":"","address":"","is_web":0},{"area_id":5273,"type":0,"shape":0,"lat":-14.4275,"lng":-67.498056,"radius":1103,"level":2,"updated_at":1447945800,"begin_at":0,"end_at":0,"name":"Rurenabaque Airport","city":"Rurenabaque","country":"BO","runway_length":0,"runway_show":0,"points":"","url":"","address":"","is_web":0},{"area_id":8519,"type":0,"shape":0,"lat":-14.857759,"lng":-66.73735,"radius":1097,"level":2,"updated_at":1447945800,"begin_at":0,"end_at":0,"name":"Capitán Av. German Quiroga G. Airport","city":"San Borja","country":"BO","runway_length":0,"runway_show":0,"points":"","url":"","address":"","is_web":0},{"area_id":8431,"type":0,"shape":0,"lat":-14.966666,"lng":-65.633331,"radius":1170,"level":2,"updated_at":1447945800,"begin_at":0,"end_at":0,"name":"San Ignacio de Moxos Airport","city":"San Ignacio de Moxos","country":"BO","runway_length":0,"runway_show":0,"points":"","url":"","address":"","is_web":0},{"area_id":6605,"type":0,"shape":0,"lat":-16.339088,"lng":-58.401808,"radius":1191,"level":2,"updated_at":1447945800,"begin_at":0,"end_at":0,"name":"San Matías Airport","city":"San Matías","country":"BO","runway_length":0,"runway_show":0,"points":"","url":"","address":"","is_web":0},{"area_id":8426,"type":0,"shape":0,"lat":-16.384694,"lng":-60.962722,"radius":723,"level":2,"updated_at":1447945800,"begin_at":0,"end_at":0,"name":"Capitán Av. Juan Cochamanidis S. Airport","city":"San Ignacio de Velasco","country":"BO","runway_length":0,"runway_show":0,"points":"","url":"","address":"","is_web":0},{"area_id":10904,"type":1,"shape":0,"lat":-16.496354,"lng":-68.133586,"radius":109,"level":0,"updated_at":1459939260,"begin_at":0,"end_at":0,"name":"Government Palace","city":"La Paz","country":"BO","runway_length":0,"runway_show":0,"points":"","url":"","address":"","is_web":0},{"area_id":3947,"type":0,"shape":0,"lat":-16.513498,"lng":-68.188576,"radius":2937,"level":2,"updated_at":1447945800,"begin_at":0,"end_at":0,"name":"El Alto International Airport","city":"La Paz / El Alto","country":"BO","runway_length":0,"runway_show":0,"points":"","url":"","address":"","is_web":0},{"area_id":10903,"type":1,"shape":0,"lat":-16.515801,"lng":-68.118917,"radius":66,"level":0,"updated_at":1459939260,"begin_at":0,"end_at":0,"name":"Presidential House","city":"La Paz","country":"BO","runway_length":0,"runway_show":0,"points":"","url":"","address":"","is_web":0},{"area_id":7222,"type":0,"shape":0,"lat":-17.650687,"lng":-63.136454,"radius":2871,"level":2,"updated_at":1447945800,"begin_at":0,"end_at":0,"name":"Viru Viru International Airport","city":"Santa Cruz","country":"BO","runway_length":0,"runway_show":0,"points":"","url":"","address":"","is_web":0},{"area_id":8534,"type":0,"shape":0,"lat":-17.811482,"lng":-63.17131,"radius":1559,"level":2,"updated_at":1447945800,"begin_at":0,"end_at":0,"name":"El Trompillo Airport","city":"Santa Cruz","country":"BO","runway_length":0,"runway_show":0,"points":"","url":"","address":"","is_web":0},{"area_id":8339,"type":0,"shape":0,"lat":-17.830842,"lng":-60.74335,"radius":900,"level":2,"updated_at":1447945800,"begin_at":0,"end_at":0,"name":"San José De Chiquitos Airport","city":"San José de Chiquitos","country":"BO","runway_length":0,"runway_show":0,"points":"","url":"","address":"","is_web":0},{"area_id":4629,"type":0,"shape":0,"lat":-17.955349,"lng":-67.075337,"radius":2272,"level":2,"updated_at":1447945800,"begin_at":0,"end_at":0,"name":"Juan Mendoza Airport","city":"Oruro","country":"BO","runway_length":0,"runway_show":0,"points":"","url":"","address":"","is_web":0},{"area_id":5271,"type":0,"shape":0,"lat":-18.326976,"lng":-59.765968,"radius":771,"level":2,"updated_at":1447945800,"begin_at":0,"end_at":0,"name":"Roboré Airport","city":"Roboré","country":"BO","runway_length":0,"runway_show":0,"points":"","url":"","address":"","is_web":0},{"area_id":8514,"type":0,"shape":0,"lat":-19.006799,"lng":-65.288731,"radius":1599,"level":2,"updated_at":1447945800,"begin_at":0,"end_at":0,"name":"Juana Azurduy De Padilla Airport","city":"Sucre","country":"BO","runway_length":0,"runway_show":0,"points":"","url":"","address":"","is_web":0},{"area_id":5999,"type":0,"shape":0,"lat":-19.543418,"lng":-65.723059,"radius":1567,"level":2,"updated_at":1447945800,"begin_at":0,"end_at":0,"name":"Capitan Nicolas Rojas Airport","city":"Potosí","country":"BO","runway_length":0,"runway_show":0,"points":"","url":"","address":"","is_web":0},{"area_id":6396,"type":0,"shape":0,"lat":-19.823929,"lng":-63.963071,"radius":1151,"level":2,"updated_at":1447945800,"begin_at":0,"end_at":0,"name":"Monteagudo Airport","city":"El Bañado","country":"BO","runway_length":0,"runway_show":0,"points":"","url":"","address":"","is_web":0},{"area_id":1647,"type":0,"shape":0,"lat":-20.006807,"lng":-63.527854,"radius":800,"level":2,"updated_at":1447945800,"begin_at":0,"end_at":0,"name":"Camiri Airport","city":"Camiri","country":"BO","runway_length":0,"runway_show":0,"points":"","url":"","address":"","is_web":0},{"area_id":7040,"type":0,"shape":0,"lat":-20.441314,"lng":-66.856985,"radius":2355,"level":2,"updated_at":1447945800,"begin_at":0,"end_at":0,"name":"Uyuni Airport","city":"Quijarro","country":"BO","runway_length":0,"runway_show":0,"points":"","url":"","address":"","is_web":0},{"area_id":7152,"type":0,"shape":0,"lat":-21.255,"lng":-63.405556,"radius":999,"level":2,"updated_at":1447945800,"begin_at":0,"end_at":0,"name":"Teniente Coronel Rafael Pabón Airport","city":"Villamontes","country":"BO","runway_length":0,"runway_show":0,"points":"","url":"","address":"","is_web":0},{"area_id":7428,"type":0,"shape":0,"lat":-21.555166,"lng":-64.700438,"radius":1903,"level":2,"updated_at":1447945800,"begin_at":0,"end_at":0,"name":"Capitan Oriel Lea Plaza Airport","city":"Tarija","country":"BO","runway_length":0,"runway_show":0,"points":"","url":"","address":"","is_web":0},{"area_id":3611,"type":0,"shape":0,"lat":-21.960269,"lng":-63.651578,"radius":1464,"level":2,"updated_at":1447945800,"begin_at":0,"end_at":0,"name":"Yacuiba Airport","city":"Yacuíba","country":"BO","runway_length":0,"runway_show":0,"points":"","url":"","address":"","is_web":0},{"area_id":3269,"type":0,"shape":0,"lat":-22.771377,"lng":-64.312385,"radius":1033,"level":2,"updated_at":1447945800,"begin_at":0,"end_at":0,"name":"Bermejo Airport","city":"Bermejo","country":"BO","runway_length":0,"runway_show":0,"points":"","url":"","address":"","is_web":0}],"status":"200"}