{"data":[{"area_id":2089,"type":0,"shape":0,"lat":17.735239,"lng":-88.032524,"radius":507,"level":2,"updated_at":1447945800,"begin_at":0,"end_at":0,"name":"Caye Caulker Airport","city":"Caye Caulker","country":"BZ","runway_length":0,"runway_show":0,"points":"","url":"","address":"","is_web":0},{"area_id":2152,"type":0,"shape":0,"lat":17.683524,"lng":-88.04497,"radius":568,"level":2,"updated_at":1447945800,"begin_at":0,"end_at":0,"name":"Caye Chapel Airport","city":"Caye Chapel","country":"BZ","runway_length":0,"runway_show":0,"points":"","url":"","address":"","is_web":0},{"area_id":3633,"type":0,"shape":0,"lat":17.539959,"lng":-88.304263,"radius":1658,"level":2,"updated_at":1447945800,"begin_at":0,"end_at":0,"name":"Philip S. W. Goldson International Airport","city":"Belize City","country":"BZ","runway_length":0,"runway_show":0,"points":"","url":"","address":"","is_web":0},{"area_id":7717,"type":0,"shape":0,"lat":17.517402,"lng":-88.196026,"radius":551,"level":2,"updated_at":1447945800,"begin_at":0,"end_at":0,"name":"Belize City Municipal Airport","city":"Belize City","country":"BZ","runway_length":0,"runway_show":0,"points":"","url":"","address":"","is_web":0},{"area_id":8503,"type":0,"shape":0,"lat":17.185848,"lng":-89.010007,"radius":392,"level":2,"updated_at":1447945800,"begin_at":0,"end_at":0,"name":"Matthew Spain Airport","city":"San Ignacio","country":"BZ","runway_length":0,"runway_show":0,"points":"","url":"","address":"","is_web":0},{"area_id":6281,"type":0,"shape":0,"lat":16.999701,"lng":-88.318942,"radius":481,"level":2,"updated_at":1447945800,"begin_at":0,"end_at":0,"name":"Melinda Airport","city":"Melinda","country":"BZ","runway_length":0,"runway_show":0,"points":"","url":"","address":"","is_web":0},{"area_id":553,"type":0,"shape":0,"lat":16.982211,"lng":-88.231011,"radius":435,"level":2,"updated_at":1447945800,"begin_at":0,"end_at":0,"name":"Dangriga Airport","city":"Dangriga","country":"BZ","runway_length":0,"runway_show":0,"points":"","url":"","address":"","is_web":0},{"area_id":5933,"type":0,"shape":0,"lat":16.536963,"lng":-88.362342,"radius":346,"level":2,"updated_at":1447945800,"begin_at":0,"end_at":0,"name":"Placencia Airport","city":"Placencia","country":"BZ","runway_length":0,"runway_show":0,"points":"","url":"","address":"","is_web":0}],"status":"200"}