{"data":[{"area_id":3122,"type":0,"shape":0,"lat":4.253116,"lng":20.975346,"radius":1624,"level":2,"updated_at":1447945800,"begin_at":0,"end_at":0,"name":"Gbadolite Airport","city":"Gbadolite","country":"CD","runway_length":0,"runway_show":0,"points":"","url":"","address":"","is_web":0},{"area_id":4953,"type":0,"shape":0,"lat":4.1581,"lng":21.6672,"radius":1076,"level":2,"updated_at":1447945800,"begin_at":0,"end_at":0,"name":"Kotakoli airport","city":"Dondo","country":"CD","runway_length":0,"runway_show":0,"points":"","url":"","address":"","is_web":0},{"area_id":3818,"type":0,"shape":0,"lat":3.62632,"lng":18.638979,"radius":815,"level":2,"updated_at":1447945800,"begin_at":0,"end_at":0,"name":"Libenge Airport","city":"Libenge","country":"CD","runway_length":0,"runway_show":0,"points":"","url":"","address":"","is_web":0},{"area_id":2374,"type":0,"shape":0,"lat":3.23547,"lng":19.771706,"radius":1056,"level":2,"updated_at":1447945800,"begin_at":0,"end_at":0,"name":"Gemena Airport","city":"Gemena","country":"CD","runway_length":0,"runway_show":0,"points":"","url":"","address":"","is_web":0},{"area_id":2948,"type":0,"shape":0,"lat":2.827597,"lng":27.5878,"radius":1407,"level":2,"updated_at":1447945800,"begin_at":0,"end_at":0,"name":"Matari Airport","city":"","country":"CD","runway_length":0,"runway_show":0,"points":"","url":"","address":"","is_web":0},{"area_id":3647,"type":0,"shape":0,"lat":2.817791,"lng":24.793989,"radius":1116,"level":2,"updated_at":1447945800,"begin_at":0,"end_at":0,"name":"Buta Zega Airport","city":"","country":"CD","runway_length":0,"runway_show":0,"points":"","url":"","address":"","is_web":0},{"area_id":3829,"type":0,"shape":0,"lat":2.170508,"lng":21.496485,"radius":1229,"level":2,"updated_at":1447945800,"begin_at":0,"end_at":0,"name":"Lisala Airport","city":"","country":"CD","runway_length":0,"runway_show":0,"points":"","url":"","address":"","is_web":0},{"area_id":3541,"type":0,"shape":0,"lat":1.564961,"lng":30.220673,"radius":950,"level":2,"updated_at":1447945800,"begin_at":0,"end_at":0,"name":"Bunia Airport","city":"","country":"CD","runway_length":0,"runway_show":0,"points":"","url":"","address":"","is_web":0},{"area_id":3488,"type":0,"shape":0,"lat":1.224493,"lng":19.788116,"radius":787,"level":2,"updated_at":1447945800,"begin_at":0,"end_at":0,"name":"Basankusu Airport","city":"Basankusu","country":"CD","runway_length":0,"runway_show":0,"points":"","url":"","address":"","is_web":0},{"area_id":3359,"type":0,"shape":0,"lat":0.576988,"lng":29.469971,"radius":1107,"level":2,"updated_at":1447945800,"begin_at":0,"end_at":0,"name":"Beni Airport","city":"Beni","country":"CD","runway_length":0,"runway_show":0,"points":"","url":"","address":"","is_web":0},{"area_id":339,"type":0,"shape":0,"lat":0.482768,"lng":25.337118,"radius":2429,"level":2,"updated_at":1447945800,"begin_at":0,"end_at":0,"name":"Bangoka International Airport","city":"Kisangani","country":"CD","runway_length":0,"runway_show":0,"points":"","url":"","address":"","is_web":0},{"area_id":5511,"type":0,"shape":0,"lat":0.11709,"lng":29.313224,"radius":428,"level":2,"updated_at":1447945800,"begin_at":0,"end_at":0,"name":"Rughenda Airfield Airport","city":"Butembo","country":"CD","runway_length":0,"runway_show":0,"points":"","url":"","address":"","is_web":0},{"area_id":6290,"type":0,"shape":0,"lat":0.022368,"lng":18.289962,"radius":1361,"level":2,"updated_at":1447945800,"begin_at":0,"end_at":0,"name":"Mbandaka Airport","city":"Mbandaka","country":"CD","runway_length":0,"runway_show":0,"points":"","url":"","address":"","is_web":0},{"area_id":3358,"type":0,"shape":0,"lat":-0.286745,"lng":20.88314,"radius":761,"level":2,"updated_at":1447945800,"begin_at":0,"end_at":0,"name":"Boende Airport","city":"Boende","country":"CD","runway_length":0,"runway_show":0,"points":"","url":"","address":"","is_web":0},{"area_id":2900,"type":0,"shape":0,"lat":-1.946713,"lng":18.285388,"radius":758,"level":2,"updated_at":1447945800,"begin_at":0,"end_at":0,"name":"Inongo Airport","city":"Inongo","country":"CD","runway_length":0,"runway_show":0,"points":"","url":"","address":"","is_web":0},{"area_id":3304,"type":0,"shape":0,"lat":-2.307387,"lng":28.807968,"radius":863,"level":2,"updated_at":1447945800,"begin_at":0,"end_at":0,"name":"Bukavu Kavumu Airport","city":"","country":"CD","runway_length":0,"runway_show":0,"points":"","url":"","address":"","is_web":0},{"area_id":4242,"type":0,"shape":0,"lat":-2.71744,"lng":17.685631,"radius":756,"level":2,"updated_at":1447945800,"begin_at":0,"end_at":0,"name":"Nioki Airport","city":"Nioki","country":"CD","runway_length":0,"runway_show":0,"points":"","url":"","address":"","is_web":0},{"area_id":4998,"type":0,"shape":0,"lat":-2.919066,"lng":25.915445,"radius":1137,"level":2,"updated_at":1447945800,"begin_at":0,"end_at":0,"name":"Kindu Airport","city":"Kindu","country":"CD","runway_length":0,"runway_show":0,"points":"","url":"","address":"","is_web":0},{"area_id":299,"type":0,"shape":0,"lat":-3.311411,"lng":17.381649,"radius":705,"level":2,"updated_at":1447945800,"begin_at":0,"end_at":0,"name":"Bandundu Airport","city":"Bandundu","country":"CD","runway_length":0,"runway_show":0,"points":"","url":"","address":"","is_web":0},{"area_id":4275,"type":0,"shape":0,"lat":-4.327222,"lng":15.325833,"radius":809,"level":2,"updated_at":1447945800,"begin_at":0,"end_at":0,"name":"Ndolo Airport","city":"Kinshasa","country":"CD","runway_length":0,"runway_show":0,"points":"","url":"","address":"","is_web":0},{"area_id":330,"type":0,"shape":0,"lat":-4.385556,"lng":15.444444,"radius":2176,"level":2,"updated_at":1447945800,"begin_at":0,"end_at":0,"name":"Ndjili International Airport","city":"Kinshasa","country":"CD","runway_length":0,"runway_show":0,"points":"","url":"","address":"","is_web":0},{"area_id":6656,"type":0,"shape":0,"lat":-4.782733,"lng":17.854075,"radius":614,"level":2,"updated_at":1447945800,"begin_at":0,"end_at":0,"name":"Masi Manimba Airport","city":"Masi Manimba","country":"CD","runway_length":0,"runway_show":0,"points":"","url":"","address":"","is_web":0},{"area_id":3690,"type":0,"shape":0,"lat":-4.96245,"lng":23.378633,"radius":690,"level":2,"updated_at":1447945800,"begin_at":0,"end_at":0,"name":"Lusambo Airport","city":"Lusambo","country":"CD","runway_length":0,"runway_show":0,"points":"","url":"","address":"","is_web":0},{"area_id":4942,"type":0,"shape":0,"lat":-5.036154,"lng":18.785444,"radius":899,"level":2,"updated_at":1447945800,"begin_at":0,"end_at":0,"name":"Kikwit Airport","city":"","country":"CD","runway_length":0,"runway_show":0,"points":"","url":"","address":"","is_web":0},{"area_id":6221,"type":0,"shape":0,"lat":-5.799699,"lng":13.441066,"radius":831,"level":2,"updated_at":1447945800,"begin_at":0,"end_at":0,"name":"Tshimpi Airport","city":"Matadi","country":"CD","runway_length":0,"runway_show":0,"points":"","url":"","address":"","is_web":0},{"area_id":3383,"type":0,"shape":0,"lat":-5.854054,"lng":13.063692,"radius":553,"level":2,"updated_at":1447945800,"begin_at":0,"end_at":0,"name":"Boma Airport","city":"Boma","country":"CD","runway_length":0,"runway_show":0,"points":"","url":"","address":"","is_web":0},{"area_id":371,"type":0,"shape":0,"lat":-5.875537,"lng":29.249397,"radius":916,"level":2,"updated_at":1447945800,"begin_at":0,"end_at":0,"name":"Kalemie Airport","city":"","country":"CD","runway_length":0,"runway_show":0,"points":"","url":"","address":"","is_web":0},{"area_id":4852,"type":0,"shape":0,"lat":-5.899818,"lng":22.469417,"radius":1154,"level":2,"updated_at":1447945800,"begin_at":0,"end_at":0,"name":"Kananga Airport","city":"Kananga","country":"CD","runway_length":0,"runway_show":0,"points":"","url":"","address":"","is_web":0},{"area_id":6525,"type":0,"shape":0,"lat":-5.930423,"lng":12.35119,"radius":777,"level":2,"updated_at":1447945800,"begin_at":0,"end_at":0,"name":"Muanda Airport","city":"Muanda","country":"CD","runway_length":0,"runway_show":0,"points":"","url":"","address":"","is_web":0},{"area_id":4766,"type":0,"shape":0,"lat":-6.084659,"lng":26.917748,"radius":727,"level":2,"updated_at":1447945800,"begin_at":0,"end_at":0,"name":"Kabalo Airport","city":"Kabalo","country":"CD","runway_length":0,"runway_show":0,"points":"","url":"","address":"","is_web":0},{"area_id":6435,"type":0,"shape":0,"lat":-6.119936,"lng":23.568999,"radius":1325,"level":2,"updated_at":1447945800,"begin_at":0,"end_at":0,"name":"Mbuji Mayi Airport","city":"Mbuji Mayi","country":"CD","runway_length":0,"runway_show":0,"points":"","url":"","address":"","is_web":0},{"area_id":7615,"type":0,"shape":0,"lat":-6.441714,"lng":20.796387,"radius":826,"level":2,"updated_at":1447945800,"begin_at":0,"end_at":0,"name":"Tshikapa Airport","city":"Tshikapa","country":"CD","runway_length":0,"runway_show":0,"points":"","url":"","address":"","is_web":0},{"area_id":6537,"type":0,"shape":0,"lat":-7.288793,"lng":27.39366,"radius":727,"level":2,"updated_at":1447945800,"begin_at":0,"end_at":0,"name":"Manono Airport","city":"Manono","country":"CD","runway_length":0,"runway_show":0,"points":"","url":"","address":"","is_web":0},{"area_id":6171,"type":0,"shape":0,"lat":-8.467115,"lng":28.889631,"radius":463,"level":2,"updated_at":1447945800,"begin_at":0,"end_at":0,"name":"Pweto Airport","city":"Pweto","country":"CD","runway_length":0,"runway_show":0,"points":"","url":"","address":"","is_web":0},{"area_id":4983,"type":0,"shape":0,"lat":-8.642901,"lng":25.257388,"radius":4642,"level":2,"updated_at":1447945800,"begin_at":0,"end_at":0,"name":"Kamina Base Airport","city":"","country":"CD","runway_length":0,"runway_show":0,"points":"","url":"","address":"","is_web":0},{"area_id":4824,"type":0,"shape":0,"lat":-10.355095,"lng":28.617287,"radius":720,"level":2,"updated_at":1447945800,"begin_at":0,"end_at":0,"name":"Kasenga Airport","city":"Kasenga","country":"CD","runway_length":0,"runway_show":0,"points":"","url":"","address":"","is_web":0},{"area_id":5201,"type":0,"shape":0,"lat":-10.766836,"lng":25.507932,"radius":1850,"level":2,"updated_at":1447945800,"begin_at":0,"end_at":0,"name":"Kolwezi Airport","city":"Kolwezi","country":"CD","runway_length":0,"runway_show":0,"points":"","url":"","address":"","is_web":0},{"area_id":282,"type":0,"shape":0,"lat":-11.591111,"lng":27.530832,"radius":3203,"level":2,"updated_at":1447945800,"begin_at":0,"end_at":0,"name":"Lubumbashi International Airport","city":"Lubumbashi","country":"CD","runway_length":0,"runway_show":0,"points":"","url":"","address":"","is_web":0}],"status":"200"}