{"data":[{"area_id":5495,"type":0,"shape":0,"lat":-12.482751,"lng":177.071602,"radius":1000,"level":2,"updated_at":1447945800,"begin_at":0,"end_at":0,"name":"Rotuma Airport","city":"Rotuma","country":"FJ","runway_length":0,"runway_show":0,"points":"","url":"","address":"","is_web":0},{"area_id":3694,"type":0,"shape":0,"lat":-16.468482,"lng":179.340003,"radius":535,"level":2,"updated_at":1447945800,"begin_at":0,"end_at":0,"name":"Labasa Airport","city":"Labasa","country":"FJ","runway_length":0,"runway_show":0,"points":"","url":"","address":"","is_web":0},{"area_id":7682,"type":0,"shape":0,"lat":-16.690687,"lng":-179.877179,"radius":626,"level":2,"updated_at":1447945800,"begin_at":0,"end_at":0,"name":"Matei Airport","city":"Matei","country":"FJ","runway_length":0,"runway_show":0,"points":"","url":"","address":"","is_web":0},{"area_id":8872,"type":0,"shape":0,"lat":-16.759255,"lng":177.545612,"radius":368,"level":2,"updated_at":1447945800,"begin_at":0,"end_at":0,"name":"Yasawa Island Airport","city":"Yasawa Island","country":"FJ","runway_length":0,"runway_show":0,"points":"","url":"","address":"","is_web":0},{"area_id":8622,"type":0,"shape":0,"lat":-16.803251,"lng":179.340721,"radius":573,"level":2,"updated_at":1447945800,"begin_at":0,"end_at":0,"name":"Savusavu Airport","city":"Savusavu","country":"FJ","runway_length":0,"runway_show":0,"points":"","url":"","address":"","is_web":0},{"area_id":6529,"type":0,"shape":0,"lat":-17.673056,"lng":177.098333,"radius":357,"level":2,"updated_at":1447945800,"begin_at":0,"end_at":0,"name":"Mana Island Airport","city":"Mana Island","country":"FJ","runway_length":0,"runway_show":0,"points":"","url":"","address":"","is_web":0},{"area_id":3764,"type":0,"shape":0,"lat":-17.711632,"lng":178.758309,"radius":495,"level":2,"updated_at":1447945800,"begin_at":0,"end_at":0,"name":"Levuka Airfield Airport","city":"Bureta","country":"FJ","runway_length":0,"runway_show":0,"points":"","url":"","address":"","is_web":0},{"area_id":2785,"type":0,"shape":0,"lat":-17.743649,"lng":-179.341963,"radius":511,"level":2,"updated_at":1447945800,"begin_at":0,"end_at":0,"name":"Cicia Airport","city":"Cicia","country":"FJ","runway_length":0,"runway_show":0,"points":"","url":"","address":"","is_web":0},{"area_id":4300,"type":0,"shape":0,"lat":-17.761622,"lng":177.441366,"radius":2420,"level":2,"updated_at":1447945800,"begin_at":0,"end_at":0,"name":"Nadi International Airport","city":"Nadi","country":"FJ","runway_length":0,"runway_show":0,"points":"","url":"","address":"","is_web":0},{"area_id":8601,"type":0,"shape":0,"lat":-18.043465,"lng":178.558884,"radius":1214,"level":2,"updated_at":1447945800,"begin_at":0,"end_at":0,"name":"Nausori International Airport","city":"Nausori","country":"FJ","runway_length":0,"runway_show":0,"points":"","url":"","address":"","is_web":0},{"area_id":4212,"type":0,"shape":0,"lat":-18.115556,"lng":179.339722,"radius":447,"level":2,"updated_at":1447945800,"begin_at":0,"end_at":0,"name":"Ngau Airport","city":"Ngau","country":"FJ","runway_length":0,"runway_show":0,"points":"","url":"","address":"","is_web":0},{"area_id":7210,"type":0,"shape":0,"lat":-18.512319,"lng":177.638791,"radius":539,"level":2,"updated_at":1447945800,"begin_at":0,"end_at":0,"name":"Vatulele Airport","city":"Vatulele","country":"FJ","runway_length":0,"runway_show":0,"points":"","url":"","address":"","is_web":0},{"area_id":6338,"type":0,"shape":0,"lat":-18.566546,"lng":179.950546,"radius":462,"level":2,"updated_at":1447945800,"begin_at":0,"end_at":0,"name":"Moala Airport","city":"Moala","country":"FJ","runway_length":0,"runway_show":0,"points":"","url":"","address":"","is_web":0},{"area_id":4820,"type":0,"shape":0,"lat":-19.057813,"lng":178.156952,"radius":535,"level":2,"updated_at":1447945800,"begin_at":0,"end_at":0,"name":"Vunisea Airport","city":"Vunisea","country":"FJ","runway_length":0,"runway_show":0,"points":"","url":"","address":"","is_web":0}],"status":"200"}