{"data":[{"area_id":427,"type":0,"shape":0,"lat":16.913708,"lng":-89.865997,"radius":1829,"level":2,"updated_at":1447945800,"begin_at":0,"end_at":0,"name":"Mundo Maya International Airport","city":"Santa Elena","country":"GT","runway_length":0,"runway_show":0,"points":"","url":"","address":"","is_web":0},{"area_id":6002,"type":0,"shape":0,"lat":16.325712,"lng":-89.416873,"radius":1493,"level":2,"updated_at":1447945800,"begin_at":0,"end_at":0,"name":"Poptún Airport","city":"Poptún","country":"GT","runway_length":0,"runway_show":0,"points":"","url":"","address":"","is_web":0},{"area_id":5909,"type":0,"shape":0,"lat":15.9975,"lng":-90.741667,"radius":1082,"level":2,"updated_at":1447945800,"begin_at":0,"end_at":0,"name":"Playa Grande Airport","city":"Playa Grande","country":"GT","runway_length":0,"runway_show":0,"points":"","url":"","address":"","is_web":0},{"area_id":5524,"type":0,"shape":0,"lat":15.992027,"lng":-90.444795,"radius":807,"level":2,"updated_at":1447945800,"begin_at":0,"end_at":0,"name":"Rubelsanto Airport","city":"Rubelsanto","country":"GT","runway_length":0,"runway_show":0,"points":"","url":"","address":"","is_web":0},{"area_id":5747,"type":0,"shape":0,"lat":15.731392,"lng":-88.584263,"radius":1470,"level":2,"updated_at":1447945800,"begin_at":0,"end_at":0,"name":"Puerto Barrios Airport","city":"Puerto Barrios","country":"GT","runway_length":0,"runway_show":0,"points":"","url":"","address":"","is_web":0},{"area_id":1681,"type":0,"shape":0,"lat":15.469086,"lng":-90.406812,"radius":516,"level":2,"updated_at":1447945800,"begin_at":0,"end_at":0,"name":"Coban Airport","city":"Coban","country":"GT","runway_length":0,"runway_show":0,"points":"","url":"","address":"","is_web":0},{"area_id":1590,"type":0,"shape":0,"lat":15.316586,"lng":-91.505116,"radius":452,"level":2,"updated_at":1447945800,"begin_at":0,"end_at":0,"name":"Huehuetenango Airport","city":"Huehuetenango","country":"GT","runway_length":0,"runway_show":0,"points":"","url":"","address":"","is_web":0},{"area_id":1142,"type":0,"shape":0,"lat":15.01189,"lng":-91.150942,"radius":651,"level":2,"updated_at":1447945800,"begin_at":0,"end_at":0,"name":"Santa Cruz del Quiche Airport","city":"Santa Cruz del Quiche","country":"GT","runway_length":0,"runway_show":0,"points":"","url":"","address":"","is_web":0},{"area_id":810,"type":0,"shape":0,"lat":14.86555,"lng":-91.501981,"radius":1300,"level":2,"updated_at":1447945800,"begin_at":0,"end_at":0,"name":"Quezaltenango Airport","city":"Quezaltenango","country":"GT","runway_length":0,"runway_show":0,"points":"","url":"","address":"","is_web":0},{"area_id":1840,"type":0,"shape":0,"lat":14.830921,"lng":-89.521008,"radius":487,"level":2,"updated_at":1447945800,"begin_at":0,"end_at":0,"name":"Chiquimula Airport","city":"Chiquimula","country":"GT","runway_length":0,"runway_show":0,"points":"","url":"","address":"","is_web":0},{"area_id":2061,"type":0,"shape":0,"lat":14.694167,"lng":-91.8825,"radius":603,"level":2,"updated_at":1447945800,"begin_at":0,"end_at":0,"name":"Coatepeque Airport","city":"Coatepeque","country":"GT","runway_length":0,"runway_show":0,"points":"","url":"","address":"","is_web":0},{"area_id":2501,"type":0,"shape":0,"lat":14.583263,"lng":-90.527463,"radius":1593,"level":2,"updated_at":1447945800,"begin_at":0,"end_at":0,"name":"La Aurora Airport","city":"Guatemala City","country":"GT","runway_length":0,"runway_show":0,"points":"","url":"","address":"","is_web":0},{"area_id":5322,"type":0,"shape":0,"lat":14.522093,"lng":-91.695374,"radius":950,"level":2,"updated_at":1447945800,"begin_at":0,"end_at":0,"name":"Retalhuleu Airport","city":"Retalhuleu","country":"GT","runway_length":0,"runway_show":0,"points":"","url":"","address":"","is_web":0},{"area_id":8329,"type":0,"shape":0,"lat":13.934445,"lng":-90.83775,"radius":1643,"level":2,"updated_at":1447945800,"begin_at":0,"end_at":0,"name":"San Jose Airport","city":"San Jose","country":"GT","runway_length":0,"runway_show":0,"points":"","url":"","address":"","is_web":0}],"status":"200"}