{"data":[{"area_id":5496,"type":0,"shape":0,"lat":16.317404,"lng":-86.522466,"radius":1204,"level":2,"updated_at":1447945800,"begin_at":0,"end_at":0,"name":"Juan Manuel Galvez International Airport","city":"Roatan Island","country":"HN","runway_length":0,"runway_show":0,"points":"","url":"","address":"","is_web":0},{"area_id":6901,"type":0,"shape":0,"lat":16.112654,"lng":-86.881618,"radius":682,"level":2,"updated_at":1447945800,"begin_at":0,"end_at":0,"name":"Utila Airport","city":"Utila Island","country":"HN","runway_length":0,"runway_show":0,"points":"","url":"","address":"","is_web":0},{"area_id":7325,"type":0,"shape":0,"lat":15.775581,"lng":-87.475874,"radius":773,"level":2,"updated_at":1447945800,"begin_at":0,"end_at":0,"name":"Tela Airport","city":"Tela","country":"HN","runway_length":0,"runway_show":0,"points":"","url":"","address":"","is_web":0},{"area_id":3211,"type":0,"shape":0,"lat":15.761854,"lng":-84.54245,"radius":373,"level":2,"updated_at":1447945800,"begin_at":0,"end_at":0,"name":"Brus Laguna Airport","city":"Brus Laguna","country":"HN","runway_length":0,"runway_show":0,"points":"","url":"","address":"","is_web":0},{"area_id":3706,"type":0,"shape":0,"lat":15.744719,"lng":-86.851918,"radius":1695,"level":2,"updated_at":1447945800,"begin_at":0,"end_at":0,"name":"Goloson International Airport","city":"La Ceiba","country":"HN","runway_length":0,"runway_show":0,"points":"","url":"","address":"","is_web":0},{"area_id":8117,"type":0,"shape":0,"lat":15.459545,"lng":-87.924157,"radius":2572,"level":2,"updated_at":1447945800,"begin_at":0,"end_at":0,"name":"Ramón Villeda Morales International Airport","city":"La Mesa","country":"HN","runway_length":0,"runway_show":0,"points":"","url":"","address":"","is_web":0},{"area_id":2157,"type":0,"shape":0,"lat":15.445375,"lng":-86.676532,"radius":627,"level":2,"updated_at":1447945800,"begin_at":0,"end_at":0,"name":"Coyoles Airport","city":"Coyoles","country":"HN","runway_length":0,"runway_show":0,"points":"","url":"","address":"","is_web":0},{"area_id":3868,"type":0,"shape":0,"lat":15.443655,"lng":-87.898633,"radius":576,"level":2,"updated_at":1447945800,"begin_at":0,"end_at":0,"name":"Las Limas Airport","city":"Las Limas","country":"HN","runway_length":0,"runway_show":0,"points":"","url":"","address":"","is_web":0},{"area_id":7815,"type":0,"shape":0,"lat":14.3825,"lng":-87.621109,"radius":1641,"level":2,"updated_at":1447945800,"begin_at":0,"end_at":0,"name":"Coronel Enrique Soto Cano Air Base Airport","city":"Comayagua","country":"HN","runway_length":0,"runway_show":0,"points":"","url":"","address":"","is_web":0},{"area_id":3768,"type":0,"shape":0,"lat":14.290556,"lng":-88.175,"radius":518,"level":2,"updated_at":1447945800,"begin_at":0,"end_at":0,"name":"La Esperanza Airport","city":"La Esperanza","country":"HN","runway_length":0,"runway_show":0,"points":"","url":"","address":"","is_web":0},{"area_id":7377,"type":0,"shape":0,"lat":14.059876,"lng":-87.217868,"radius":1186,"level":2,"updated_at":1447945800,"begin_at":0,"end_at":0,"name":"Toncontín International Airport","city":"Tegucigalpa","country":"HN","runway_length":0,"runway_show":0,"points":"","url":"","address":"","is_web":0}],"status":"200"}