{"data":[{"area_id":32656,"type":1,"shape":0,"lat":55.1757909,"lng":-6.9490367,"radius":502,"level":2,"updated_at":1478700212,"begin_at":0,"end_at":0,"name":"H M Magilligan Prison","city":"Causeway Coast and Glens","country":"IE","runway_length":0,"runway_show":0,"points":"","url":"","address":"","is_web":0},{"area_id":1770,"type":0,"shape":0,"lat":55.043874,"lng":-8.340148,"radius":798,"level":2,"updated_at":1447945800,"begin_at":0,"end_at":0,"name":"Donegal Airport","city":"Donegal","country":"IE","runway_length":0,"runway_show":0,"points":"","url":"","address":"","is_web":0},{"area_id":8665,"type":0,"shape":0,"lat":54.281186,"lng":-8.599677,"radius":844,"level":2,"updated_at":1447945800,"begin_at":0,"end_at":0,"name":"Sligo Airport","city":"Sligo","country":"IE","runway_length":0,"runway_show":0,"points":"","url":"","address":"","is_web":0},{"area_id":3329,"type":0,"shape":0,"lat":54.222989,"lng":-10.030374,"radius":301,"level":2,"updated_at":1447945800,"begin_at":0,"end_at":0,"name":"Belmullet Aerodrome Airport","city":"Belmullet","country":"IE","runway_length":0,"runway_show":0,"points":"","url":"","address":"","is_web":0},{"area_id":31708,"type":1,"shape":0,"lat":54.185556,"lng":-7.232778,"radius":500,"level":2,"updated_at":1447945800,"begin_at":0,"end_at":0,"name":"St Tiernach's Park","city":"Clones","country":"IE","runway_length":0,"runway_show":0,"points":"","url":"","address":"","is_web":0},{"area_id":31756,"type":1,"shape":0,"lat":53.981944,"lng":-7.359167,"radius":500,"level":2,"updated_at":1447945800,"begin_at":0,"end_at":0,"name":"Breffni Park","city":"Cavan","country":"IE","runway_length":0,"runway_show":0,"points":"","url":"","address":"","is_web":0},{"area_id":4306,"type":0,"shape":0,"lat":53.912516,"lng":-8.820659,"radius":1529,"level":2,"updated_at":1447945800,"begin_at":0,"end_at":0,"name":"Ireland West Knock Airport","city":"Charleston","country":"IE","runway_length":0,"runway_show":0,"points":"","url":"","address":"","is_web":0},{"area_id":31677,"type":1,"shape":0,"lat":53.853889,"lng":-9.284444,"radius":500,"level":2,"updated_at":1447945800,"begin_at":0,"end_at":0,"name":"MacHale Park","city":"Castlebar","country":"IE","runway_length":0,"runway_show":0,"points":"","url":"","address":"","is_web":0},{"area_id":737,"type":0,"shape":0,"lat":53.426654,"lng":-6.262613,"radius":2432,"level":2,"updated_at":1447945800,"begin_at":0,"end_at":0,"name":"Dublin Airport","city":"Dublin","country":"IE","runway_length":0,"runway_show":0,"points":"","url":"","address":"","is_web":0},{"area_id":31643,"type":1,"shape":0,"lat":53.335139,"lng":-6.228333,"radius":500,"level":2,"updated_at":1447945800,"begin_at":0,"end_at":0,"name":"Aviva Stadium","city":"Dublin","country":"IE","runway_length":0,"runway_show":0,"points":"","url":"","address":"","is_web":0},{"area_id":9802,"type":0,"shape":0,"lat":53.302339,"lng":-6.456228,"radius":1367,"level":2,"updated_at":1447945800,"begin_at":0,"end_at":0,"name":"Casement Air Base","city":"NULL","country":"IE","runway_length":0,"runway_show":0,"points":"","url":"","address":"","is_web":0},{"area_id":31849,"type":1,"shape":0,"lat":53.263333,"lng":-9.084167,"radius":500,"level":2,"updated_at":1447945800,"begin_at":0,"end_at":0,"name":"Pearse Stadium","city":"Galway","country":"IE","runway_length":0,"runway_show":0,"points":"","url":"","address":"","is_web":0},{"area_id":4299,"type":0,"shape":0,"lat":53.230625,"lng":-9.46873,"radius":374,"level":2,"updated_at":1447945800,"begin_at":0,"end_at":0,"name":"Connemara Regional Airport","city":"Inverin","country":"IE","runway_length":0,"runway_show":0,"points":"","url":"","address":"","is_web":0},{"area_id":2916,"type":0,"shape":0,"lat":53.106265,"lng":-9.653744,"radius":398,"level":2,"updated_at":1447945800,"begin_at":0,"end_at":0,"name":"Inishmore Aerodrome Airport","city":"Inis Mór","country":"IE","runway_length":0,"runway_show":0,"points":"","url":"","address":"","is_web":0},{"area_id":2837,"type":0,"shape":0,"lat":53.092983,"lng":-9.567909,"radius":335,"level":2,"updated_at":1447945800,"begin_at":0,"end_at":0,"name":"Inishmaan Aerodrome Airport","city":"Inis Meáin","country":"IE","runway_length":0,"runway_show":0,"points":"","url":"","address":"","is_web":0},{"area_id":2901,"type":0,"shape":0,"lat":53.064455,"lng":-9.511007,"radius":318,"level":2,"updated_at":1447945800,"begin_at":0,"end_at":0,"name":"Inisheer Aerodrome Airport","city":"Inis Oírr","country":"IE","runway_length":0,"runway_show":0,"points":"","url":"","address":"","is_web":0},{"area_id":31840,"type":1,"shape":0,"lat":53.026111,"lng":-7.302222,"radius":500,"level":2,"updated_at":1447945800,"begin_at":0,"end_at":0,"name":"O'Moore Park","city":"Portlaoise","country":"IE","runway_length":0,"runway_show":0,"points":"","url":"","address":"","is_web":0},{"area_id":8432,"type":0,"shape":0,"lat":52.699033,"lng":-8.919841,"radius":2075,"level":2,"updated_at":1447945800,"begin_at":0,"end_at":0,"name":"Shannon Airport","city":"Shannon","country":"IE","runway_length":0,"runway_show":0,"points":"","url":"","address":"","is_web":0},{"area_id":31634,"type":1,"shape":0,"lat":52.682222,"lng":-7.825,"radius":500,"level":2,"updated_at":1447945800,"begin_at":0,"end_at":0,"name":"Semple Stadium","city":"Thurles","country":"IE","runway_length":0,"runway_show":0,"points":"","url":"","address":"","is_web":0},{"area_id":31857,"type":1,"shape":0,"lat":52.674167,"lng":-8.6425,"radius":500,"level":2,"updated_at":1447945800,"begin_at":0,"end_at":0,"name":"Thomond Park","city":"Limerick","country":"IE","runway_length":0,"runway_show":0,"points":"","url":"","address":"","is_web":0},{"area_id":31654,"type":1,"shape":0,"lat":52.670139,"lng":-8.654194,"radius":500,"level":2,"updated_at":1447945800,"begin_at":0,"end_at":0,"name":"Gaelic Grounds","city":"Limerick","country":"IE","runway_length":0,"runway_show":0,"points":"","url":"","address":"","is_web":0},{"area_id":4944,"type":0,"shape":0,"lat":52.650859,"lng":-7.298473,"radius":699,"level":2,"updated_at":1447945800,"begin_at":0,"end_at":0,"name":"Kilkenny Airport","city":"Kilkenny","country":"IE","runway_length":0,"runway_show":0,"points":"","url":"","address":"","is_web":0},{"area_id":31877,"type":1,"shape":0,"lat":52.3325,"lng":-6.475833,"radius":500,"level":2,"updated_at":1447945800,"begin_at":0,"end_at":0,"name":"Wexford Park","city":"Wexford","country":"IE","runway_length":0,"runway_show":0,"points":"","url":"","address":"","is_web":0},{"area_id":7878,"type":0,"shape":0,"lat":52.186723,"lng":-7.086347,"radius":800,"level":2,"updated_at":1447945800,"begin_at":0,"end_at":0,"name":"Waterford Airport","city":"Waterford","country":"IE","runway_length":0,"runway_show":0,"points":"","url":"","address":"","is_web":0},{"area_id":4912,"type":0,"shape":0,"lat":52.180832,"lng":-9.523611,"radius":1191,"level":2,"updated_at":1447945800,"begin_at":0,"end_at":0,"name":"Kerry Airport","city":"Killarney","country":"IE","runway_length":0,"runway_show":0,"points":"","url":"","address":"","is_web":0},{"area_id":31670,"type":1,"shape":0,"lat":52.066389,"lng":-9.508056,"radius":500,"level":2,"updated_at":1447945800,"begin_at":0,"end_at":0,"name":"Fitzgerald Stadium","city":"Killarney","country":"IE","runway_length":0,"runway_show":0,"points":"","url":"","address":"","is_web":0},{"area_id":31667,"type":1,"shape":0,"lat":51.89975,"lng":-8.435042,"radius":500,"level":2,"updated_at":1447945800,"begin_at":0,"end_at":0,"name":"Pairc Ui Chaoimh","city":"Cork City","country":"IE","runway_length":0,"runway_show":0,"points":"","url":"","address":"","is_web":0},{"area_id":4620,"type":0,"shape":0,"lat":51.841747,"lng":-8.490732,"radius":1389,"level":2,"updated_at":1447945800,"begin_at":0,"end_at":0,"name":"Cork Airport","city":"Cork","country":"IE","runway_length":0,"runway_show":0,"points":"","url":"","address":"","is_web":0},{"area_id":3624,"type":0,"shape":0,"lat":51.677513,"lng":-9.487174,"radius":273,"level":2,"updated_at":1474121958,"begin_at":0,"end_at":0,"name":"Bantry Aerodrome Airport","city":"Bantry","country":"IE","runway_length":0,"runway_show":0,"points":"","url":"","address":"","is_web":0}],"status":"200"}