{"data":[{"area_id":3810,"type":0,"shape":0,"lat":34.135997,"lng":77.546988,"radius":2077,"level":2,"updated_at":1447945800,"begin_at":0,"end_at":0,"name":"Leh Airport","city":"Lehu","country":"IN","runway_length":0,"runway_show":0,"points":"","url":"","address":"","is_web":0},{"area_id":8671,"type":0,"shape":0,"lat":33.989277,"lng":74.770842,"radius":2508,"level":2,"updated_at":1447945800,"begin_at":0,"end_at":0,"name":"Sheikh ul Alam Airport","city":"Srinagar","country":"IN","runway_length":0,"runway_show":0,"points":"","url":"","address":"","is_web":0},{"area_id":3007,"type":0,"shape":0,"lat":33.877897,"lng":74.977863,"radius":2138,"level":2,"updated_at":1447945800,"begin_at":0,"end_at":0,"name":"Jammu Airport","city":"Jammu","country":"IN","runway_length":0,"runway_show":0,"points":"","url":"","address":"","is_web":0},{"area_id":5379,"type":0,"shape":0,"lat":33.377421,"lng":74.315422,"radius":530,"level":2,"updated_at":1447945800,"begin_at":0,"end_at":0,"name":"Rajouri Airport","city":"Rajouri","country":"IN","runway_length":0,"runway_show":0,"points":"","url":"","address":"","is_web":0},{"area_id":576,"type":0,"shape":0,"lat":32.164878,"lng":76.263206,"radius":860,"level":2,"updated_at":1447945800,"begin_at":0,"end_at":0,"name":"Kangra Airport","city":"","country":"IN","runway_length":0,"runway_show":0,"points":"","url":"","address":"","is_web":0},{"area_id":5165,"type":0,"shape":0,"lat":31.876387,"lng":77.154691,"radius":627,"level":2,"updated_at":1447945800,"begin_at":0,"end_at":0,"name":"Kullu Manali Airport","city":"","country":"IN","runway_length":0,"runway_show":0,"points":"","url":"","address":"","is_web":0},{"area_id":1217,"type":0,"shape":0,"lat":31.705525,"lng":74.806801,"radius":2067,"level":2,"updated_at":1447945800,"begin_at":0,"end_at":0,"name":"Sri Guru Ram Dass Jee International, Amritsar Airport","city":"Amritsar","country":"IN","runway_length":0,"runway_show":0,"points":"","url":"","address":"","is_web":0},{"area_id":10213,"type":0,"shape":0,"lat":31.433746,"lng":75.759571,"radius":1804,"level":2,"updated_at":1447945800,"begin_at":0,"end_at":0,"name":"Air Force Station","city":"NULL","country":"IN","runway_length":0,"runway_show":0,"points":"","url":"","address":"","is_web":0},{"area_id":8393,"type":0,"shape":0,"lat":31.082544,"lng":77.067676,"radius":738,"level":2,"updated_at":1447945800,"begin_at":0,"end_at":0,"name":"Shimla Airport","city":"","country":"IN","runway_length":0,"runway_show":0,"points":"","url":"","address":"","is_web":0},{"area_id":4037,"type":0,"shape":0,"lat":30.854423,"lng":75.951624,"radius":912,"level":2,"updated_at":1447945800,"begin_at":0,"end_at":0,"name":"Ludhiana Airport","city":"","country":"IN","runway_length":0,"runway_show":0,"points":"","url":"","address":"","is_web":0},{"area_id":3001,"type":0,"shape":0,"lat":30.672736,"lng":76.788942,"radius":1768,"level":2,"updated_at":1447945800,"begin_at":0,"end_at":0,"name":"Chandigarh Airport","city":"Chandigarh","country":"IN","runway_length":0,"runway_show":0,"points":"","url":"","address":"","is_web":0},{"area_id":10210,"type":0,"shape":0,"lat":30.372757,"lng":76.814774,"radius":1963,"level":2,"updated_at":1447945800,"begin_at":0,"end_at":0,"name":"Ambala Air Force Base","city":"Mandli","country":"IN","runway_length":0,"runway_show":0,"points":"","url":"","address":"","is_web":0},{"area_id":5928,"type":0,"shape":0,"lat":30.314444,"lng":76.362221,"radius":648,"level":2,"updated_at":1447945800,"begin_at":0,"end_at":0,"name":"Paiela Airport","city":"Paiela","country":"IN","runway_length":0,"runway_show":0,"points":"","url":"","address":"","is_web":0},{"area_id":3533,"type":0,"shape":0,"lat":30.270444,"lng":74.756689,"radius":1882,"level":2,"updated_at":1447945800,"begin_at":0,"end_at":0,"name":"Bhatinda Air Force Station Airport","city":"","country":"IN","runway_length":0,"runway_show":0,"points":"","url":"","address":"","is_web":0},{"area_id":536,"type":0,"shape":0,"lat":30.190993,"lng":78.181351,"radius":1570,"level":2,"updated_at":1447945800,"begin_at":0,"end_at":0,"name":"Dehradun Airport","city":"Dehradun","country":"IN","runway_length":0,"runway_show":0,"points":"","url":"","address":"","is_web":0},{"area_id":10212,"type":0,"shape":0,"lat":29.563291,"lng":75.006395,"radius":1820,"level":2,"updated_at":1447945800,"begin_at":0,"end_at":0,"name":"Sirsa Air Force Station","city":"Sirsa","country":"IN","runway_length":0,"runway_show":0,"points":"","url":"","address":"","is_web":0},{"area_id":1566,"type":0,"shape":0,"lat":29.179542,"lng":75.754894,"radius":850,"level":2,"updated_at":1447945800,"begin_at":0,"end_at":0,"name":"Hissar Airport","city":"","country":"IN","runway_length":0,"runway_show":0,"points":"","url":"","address":"","is_web":0},{"area_id":5834,"type":0,"shape":0,"lat":29.033098,"lng":79.472896,"radius":860,"level":2,"updated_at":1447945800,"begin_at":0,"end_at":0,"name":"Pantnagar Airport","city":"Pantnagar","country":"IN","runway_length":0,"runway_show":0,"points":"","url":"","address":"","is_web":0},{"area_id":10211,"type":0,"shape":0,"lat":28.583334,"lng":77.205833,"radius":762,"level":2,"updated_at":1447945800,"begin_at":0,"end_at":0,"name":"Safdarjung Airport","city":"New Delhi","country":"IN","runway_length":0,"runway_show":0,"points":"","url":"","address":"","is_web":0},{"area_id":541,"type":0,"shape":0,"lat":28.555559,"lng":77.099441,"radius":3255,"level":2,"updated_at":1447945800,"begin_at":0,"end_at":0,"name":"Indira Gandhi International Airport","city":"New Delhi","country":"IN","runway_length":0,"runway_show":0,"points":"","url":"","address":"","is_web":0},{"area_id":3139,"type":0,"shape":0,"lat":28.421221,"lng":79.449876,"radius":2016,"level":2,"updated_at":1447945800,"begin_at":0,"end_at":0,"name":"Bareli Airport","city":"Bareli","country":"IN","runway_length":0,"runway_show":0,"points":"","url":"","address":"","is_web":0},{"area_id":3018,"type":0,"shape":0,"lat":28.176639,"lng":94.804976,"radius":647,"level":2,"updated_at":1447945800,"begin_at":0,"end_at":0,"name":"Along Airport","city":"","country":"IN","runway_length":0,"runway_show":0,"points":"","url":"","address":"","is_web":0},{"area_id":7333,"type":0,"shape":0,"lat":27.941917,"lng":96.134865,"radius":969,"level":2,"updated_at":1447945800,"begin_at":0,"end_at":0,"name":"Tezu Airport","city":"Tezu","country":"IN","runway_length":0,"runway_show":0,"points":"","url":"","address":"","is_web":0},{"area_id":8754,"type":0,"shape":0,"lat":27.588348,"lng":93.828321,"radius":769,"level":2,"updated_at":1447945800,"begin_at":0,"end_at":0,"name":"Zero Airport","city":"","country":"IN","runway_length":0,"runway_show":0,"points":"","url":"","address":"","is_web":0},{"area_id":580,"type":0,"shape":0,"lat":27.484201,"lng":95.017972,"radius":1112,"level":2,"updated_at":1447945800,"begin_at":0,"end_at":0,"name":"Dibrugarh Airport","city":"Dibrugarh","country":"IN","runway_length":0,"runway_show":0,"points":"","url":"","address":"","is_web":0},{"area_id":3006,"type":0,"shape":0,"lat":27.295091,"lng":94.096896,"radius":1259,"level":2,"updated_at":1447945800,"begin_at":0,"end_at":0,"name":"North Lakhimpur Airport","city":"Lilabari","country":"IN","runway_length":0,"runway_show":0,"points":"","url":"","address":"","is_web":0},{"area_id":934,"type":0,"shape":0,"lat":27.158078,"lng":77.961277,"radius":1711,"level":2,"updated_at":1447945800,"begin_at":0,"end_at":0,"name":"Agra Airport","city":"","country":"IN","runway_length":0,"runway_show":0,"points":"","url":"","address":"","is_web":0},{"area_id":2722,"type":0,"shape":0,"lat":26.887771,"lng":70.8671,"radius":1923,"level":2,"updated_at":1447945800,"begin_at":0,"end_at":0,"name":"Jaisalmer Airport","city":"","country":"IN","runway_length":0,"runway_show":0,"points":"","url":"","address":"","is_web":0},{"area_id":2578,"type":0,"shape":0,"lat":26.824277,"lng":75.815306,"radius":2479,"level":2,"updated_at":1447945800,"begin_at":0,"end_at":0,"name":"Jaipur International Airport","city":"Jaipur","country":"IN","runway_length":0,"runway_show":0,"points":"","url":"","address":"","is_web":0},{"area_id":3854,"type":0,"shape":0,"lat":26.760429,"lng":80.893199,"radius":2091,"level":2,"updated_at":1447945800,"begin_at":0,"end_at":0,"name":"Chaudhary Charan Singh International Airport","city":"Lucknow","country":"IN","runway_length":0,"runway_show":0,"points":"","url":"","address":"","is_web":0},{"area_id":2422,"type":0,"shape":0,"lat":26.740326,"lng":83.452139,"radius":2113,"level":2,"updated_at":1447945800,"begin_at":0,"end_at":0,"name":"Gorakhpur Airport","city":"Gorakhpur","country":"IN","runway_length":0,"runway_show":0,"points":"","url":"","address":"","is_web":0},{"area_id":2717,"type":0,"shape":0,"lat":26.73,"lng":94.175,"radius":2011,"level":2,"updated_at":1447945800,"begin_at":0,"end_at":0,"name":"Jorhat Airport","city":"Jorhat","country":"IN","runway_length":0,"runway_show":0,"points":"","url":"","address":"","is_web":0},{"area_id":7347,"type":0,"shape":0,"lat":26.711101,"lng":92.783644,"radius":1909,"level":2,"updated_at":1447945800,"begin_at":0,"end_at":0,"name":"Tezpur Airport","city":"","country":"IN","runway_length":0,"runway_show":0,"points":"","url":"","address":"","is_web":0},{"area_id":10208,"type":0,"shape":0,"lat":26.698448,"lng":89.369202,"radius":1969,"level":2,"updated_at":1447945800,"begin_at":0,"end_at":0,"name":"Hashimara Air Force Station","city":"Uttar Satali","country":"IN","runway_length":0,"runway_show":0,"points":"","url":"","address":"","is_web":0},{"area_id":3000,"type":0,"shape":0,"lat":26.682009,"lng":88.329145,"radius":1823,"level":2,"updated_at":1447945800,"begin_at":0,"end_at":0,"name":"Bagdogra Airport","city":"Siliguri","country":"IN","runway_length":0,"runway_show":0,"points":"","url":"","address":"","is_web":0},{"area_id":5015,"type":0,"shape":0,"lat":26.403517,"lng":80.414893,"radius":1751,"level":2,"updated_at":1447945800,"begin_at":0,"end_at":0,"name":"Kanpur Airport","city":"","country":"IN","runway_length":0,"runway_show":0,"points":"","url":"","address":"","is_web":0},{"area_id":1961,"type":0,"shape":0,"lat":26.330338,"lng":89.467396,"radius":673,"level":2,"updated_at":1447945800,"begin_at":0,"end_at":0,"name":"Cooch Behar Airport","city":"","country":"IN","runway_length":0,"runway_show":0,"points":"","url":"","address":"","is_web":0},{"area_id":2538,"type":0,"shape":0,"lat":26.295752,"lng":78.226699,"radius":2040,"level":2,"updated_at":1447945800,"begin_at":0,"end_at":0,"name":"Gwalior Airport","city":"Gwalior","country":"IN","runway_length":0,"runway_show":0,"points":"","url":"","address":"","is_web":0},{"area_id":2614,"type":0,"shape":0,"lat":26.251176,"lng":73.048483,"radius":1779,"level":2,"updated_at":1447945800,"begin_at":0,"end_at":0,"name":"Jodhpur Airport","city":"Jodhpur","country":"IN","runway_length":0,"runway_show":0,"points":"","url":"","address":"","is_web":0},{"area_id":5519,"type":0,"shape":0,"lat":26.141455,"lng":89.907612,"radius":1026,"level":2,"updated_at":1447945800,"begin_at":0,"end_at":0,"name":"Rupsi India Airport","city":"","country":"IN","runway_length":0,"runway_show":0,"points":"","url":"","address":"","is_web":0},{"area_id":6839,"type":0,"shape":0,"lat":26.1175,"lng":85.313332,"radius":666,"level":2,"updated_at":1447945800,"begin_at":0,"end_at":0,"name":"Muzaffarpur Airport","city":"","country":"IN","runway_length":0,"runway_show":0,"points":"","url":"","address":"","is_web":0},{"area_id":2208,"type":0,"shape":0,"lat":26.107705,"lng":91.586557,"radius":1934,"level":2,"updated_at":1447945800,"begin_at":0,"end_at":0,"name":"Lokpriya Gopinath Bordoloi International Airport","city":"Guwahati","country":"IN","runway_length":0,"runway_show":0,"points":"","url":"","address":"","is_web":0},{"area_id":642,"type":0,"shape":0,"lat":25.883481,"lng":93.771612,"radius":1372,"level":2,"updated_at":1447945800,"begin_at":0,"end_at":0,"name":"Dimapur Airport","city":"Dimapur","country":"IN","runway_length":0,"runway_show":0,"points":"","url":"","address":"","is_web":0},{"area_id":8284,"type":0,"shape":0,"lat":25.704443,"lng":91.977326,"radius":1391,"level":2,"updated_at":1447945800,"begin_at":0,"end_at":0,"name":"Shillong Airport","city":"Shillong","country":"IN","runway_length":0,"runway_show":0,"points":"","url":"","address":"","is_web":0},{"area_id":7170,"type":0,"shape":0,"lat":25.452033,"lng":82.862016,"radius":1700,"level":2,"updated_at":1447945800,"begin_at":0,"end_at":0,"name":"Lal Bahadur Shastri Airport","city":"Varanasi","country":"IN","runway_length":0,"runway_show":0,"points":"","url":"","address":"","is_web":0},{"area_id":3002,"type":0,"shape":0,"lat":25.437601,"lng":81.736125,"radius":1502,"level":2,"updated_at":1447945800,"begin_at":0,"end_at":0,"name":"Allahabad Airport","city":"Allahabad","country":"IN","runway_length":0,"runway_show":0,"points":"","url":"","address":"","is_web":0},{"area_id":5339,"type":0,"shape":0,"lat":25.262133,"lng":88.794516,"radius":1093,"level":2,"updated_at":1447945800,"begin_at":0,"end_at":0,"name":"Balurghat Airport","city":"Balurghat","country":"IN","runway_length":0,"runway_show":0,"points":"","url":"","address":"","is_web":0},{"area_id":5141,"type":0,"shape":0,"lat":25.160108,"lng":75.845631,"radius":666,"level":2,"updated_at":1447945800,"begin_at":0,"end_at":0,"name":"Kota Airport","city":"","country":"IN","runway_length":0,"runway_show":0,"points":"","url":"","address":"","is_web":0},{"area_id":3015,"type":0,"shape":0,"lat":24.914425,"lng":92.979867,"radius":1482,"level":2,"updated_at":1447945800,"begin_at":0,"end_at":0,"name":"Silchar Airport","city":"Silchar","country":"IN","runway_length":0,"runway_show":0,"points":"","url":"","address":"","is_web":0},{"area_id":1452,"type":0,"shape":0,"lat":24.819497,"lng":79.919477,"radius":2034,"level":2,"updated_at":1447945800,"begin_at":0,"end_at":0,"name":"Khajuraho Airport","city":"Khajuraho","country":"IN","runway_length":0,"runway_show":0,"points":"","url":"","address":"","is_web":0},{"area_id":2875,"type":0,"shape":0,"lat":24.760036,"lng":93.898326,"radius":1835,"level":2,"updated_at":1447945800,"begin_at":0,"end_at":0,"name":"Imphal Airport","city":"Imphal","country":"IN","runway_length":0,"runway_show":0,"points":"","url":"","address":"","is_web":0},{"area_id":2212,"type":0,"shape":0,"lat":24.744276,"lng":84.949756,"radius":1280,"level":2,"updated_at":1447945800,"begin_at":0,"end_at":0,"name":"Gaya Airport","city":"","country":"IN","runway_length":0,"runway_show":0,"points":"","url":"","address":"","is_web":0},{"area_id":2523,"type":0,"shape":0,"lat":24.654679,"lng":77.347476,"radius":612,"level":2,"updated_at":1447945800,"begin_at":0,"end_at":0,"name":"Guna Airport","city":"","country":"IN","runway_length":0,"runway_show":0,"points":"","url":"","address":"","is_web":0},{"area_id":6881,"type":0,"shape":0,"lat":24.618581,"lng":73.8956,"radius":1685,"level":2,"updated_at":1447945800,"begin_at":0,"end_at":0,"name":"Maharana Pratap Airport","city":"Udaipur","country":"IN","runway_length":0,"runway_show":0,"points":"","url":"","address":"","is_web":0},{"area_id":7521,"type":0,"shape":0,"lat":24.561906,"lng":80.852559,"radius":1008,"level":2,"updated_at":1447945800,"begin_at":0,"end_at":0,"name":"Satna Airport","city":"","country":"IN","runway_length":0,"runway_show":0,"points":"","url":"","address":"","is_web":0},{"area_id":3005,"type":0,"shape":0,"lat":24.308677,"lng":92.006628,"radius":674,"level":2,"updated_at":1447945800,"begin_at":0,"end_at":0,"name":"Kailashahar Airport","city":"","country":"IN","runway_length":0,"runway_show":0,"points":"","url":"","address":"","is_web":0},{"area_id":3013,"type":0,"shape":0,"lat":24.133055,"lng":91.8125,"radius":1019,"level":2,"updated_at":1447945800,"begin_at":0,"end_at":0,"name":"Kamalpur Airport","city":"","country":"IN","runway_length":0,"runway_show":0,"points":"","url":"","address":"","is_web":0},{"area_id":3011,"type":0,"shape":0,"lat":24.061773,"lng":91.603843,"radius":695,"level":2,"updated_at":1447945800,"begin_at":0,"end_at":0,"name":"Khowai Airport","city":"Khowai","country":"IN","runway_length":0,"runway_show":0,"points":"","url":"","address":"","is_web":0},{"area_id":2999,"type":0,"shape":0,"lat":23.887391,"lng":91.238315,"radius":1349,"level":2,"updated_at":1447945800,"begin_at":0,"end_at":0,"name":"Agartala Airport","city":"Agartala","country":"IN","runway_length":0,"runway_show":0,"points":"","url":"","address":"","is_web":0},{"area_id":988,"type":0,"shape":0,"lat":23.840088,"lng":92.620074,"radius":1463,"level":2,"updated_at":1447945800,"begin_at":0,"end_at":0,"name":"Lengpui Airport","city":"Aizawl","country":"IN","runway_length":0,"runway_show":0,"points":"","url":"","address":"","is_web":0},{"area_id":545,"type":0,"shape":0,"lat":23.833988,"lng":86.425496,"radius":606,"level":2,"updated_at":1447945800,"begin_at":0,"end_at":0,"name":"Dhanbad Airport","city":"Dhanbad","country":"IN","runway_length":0,"runway_show":0,"points":"","url":"","address":"","is_web":0},{"area_id":10209,"type":0,"shape":0,"lat":23.473473,"lng":87.428001,"radius":1519,"level":2,"updated_at":1447945800,"begin_at":0,"end_at":0,"name":"Panagarh Airport","city":"Brindabanpur","country":"IN","runway_length":0,"runway_show":0,"points":"","url":"","address":"","is_web":0},{"area_id":3014,"type":0,"shape":0,"lat":23.316628,"lng":85.323506,"radius":1609,"level":2,"updated_at":1447945800,"begin_at":0,"end_at":0,"name":"Birsa Munda Airport","city":"Ranchi","country":"IN","runway_length":0,"runway_show":0,"points":"","url":"","address":"","is_web":0},{"area_id":3219,"type":0,"shape":0,"lat":23.292125,"lng":77.333003,"radius":1732,"level":2,"updated_at":1447945800,"begin_at":0,"end_at":0,"name":"Raja Bhoj International Airport","city":"Bhopal","country":"IN","runway_length":0,"runway_show":0,"points":"","url":"","address":"","is_web":0},{"area_id":3214,"type":0,"shape":0,"lat":23.287767,"lng":69.67045,"radius":1732,"level":2,"updated_at":1447945800,"begin_at":0,"end_at":0,"name":"Bhuj Airport","city":"Bhuj","country":"IN","runway_length":0,"runway_show":0,"points":"","url":"","address":"","is_web":0},{"area_id":2672,"type":0,"shape":0,"lat":23.17991,"lng":80.052421,"radius":1373,"level":2,"updated_at":1447945800,"begin_at":0,"end_at":0,"name":"Jabalpur Airport","city":"","country":"IN","runway_length":0,"runway_show":0,"points":"","url":"","address":"","is_web":0},{"area_id":3020,"type":0,"shape":0,"lat":23.112661,"lng":70.100755,"radius":1163,"level":2,"updated_at":1447945800,"begin_at":0,"end_at":0,"name":"Kandla Airport","city":"Kandla","country":"IN","runway_length":0,"runway_show":0,"points":"","url":"","address":"","is_web":0},{"area_id":1049,"type":0,"shape":0,"lat":23.077215,"lng":72.630686,"radius":2631,"level":2,"updated_at":1447945800,"begin_at":0,"end_at":0,"name":"Sardar Vallabhbhai Patel International Airport","city":"Ahmedabad","country":"IN","runway_length":0,"runway_show":0,"points":"","url":"","address":"","is_web":0},{"area_id":3019,"type":0,"shape":0,"lat":22.813444,"lng":86.168808,"radius":646,"level":2,"updated_at":1447945800,"begin_at":0,"end_at":0,"name":"Jamshedpur Airport","city":"","country":"IN","runway_length":0,"runway_show":0,"points":"","url":"","address":"","is_web":0},{"area_id":2803,"type":0,"shape":0,"lat":22.720164,"lng":75.797314,"radius":1920,"level":2,"updated_at":1447945800,"begin_at":0,"end_at":0,"name":"Devi Ahilyabai Holkar Airport","city":"Indore","country":"IN","runway_length":0,"runway_show":0,"points":"","url":"","address":"","is_web":0},{"area_id":3413,"type":0,"shape":0,"lat":22.659013,"lng":88.448643,"radius":2436,"level":2,"updated_at":1447945800,"begin_at":0,"end_at":0,"name":"Bagan Airport","city":"Nyaung U","country":"IN","runway_length":0,"runway_show":0,"points":"","url":"","address":"","is_web":0},{"area_id":2629,"type":0,"shape":0,"lat":22.464725,"lng":70.00879,"radius":1945,"level":2,"updated_at":1447945800,"begin_at":0,"end_at":0,"name":"Jamnagar Airport","city":"Jamnagar","country":"IN","runway_length":0,"runway_show":0,"points":"","url":"","address":"","is_web":0},{"area_id":3119,"type":0,"shape":0,"lat":22.336389,"lng":73.226696,"radius":1602,"level":2,"updated_at":1447945800,"begin_at":0,"end_at":0,"name":"Vadodara Airport","city":"Vadodara","country":"IN","runway_length":0,"runway_show":0,"points":"","url":"","address":"","is_web":0},{"area_id":5242,"type":0,"shape":0,"lat":22.309224,"lng":70.781669,"radius":1381,"level":2,"updated_at":1447945800,"begin_at":0,"end_at":0,"name":"Rajkot Airport","city":"Rajkot","country":"IN","runway_length":0,"runway_show":0,"points":"","url":"","address":"","is_web":0},{"area_id":5471,"type":0,"shape":0,"lat":22.255977,"lng":84.81512,"radius":1077,"level":2,"updated_at":1447945800,"begin_at":0,"end_at":0,"name":"Rourkela Airport","city":"","country":"IN","runway_length":0,"runway_show":0,"points":"","url":"","address":"","is_web":0},{"area_id":5706,"type":0,"shape":0,"lat":21.989628,"lng":82.113364,"radius":1052,"level":2,"updated_at":1447945800,"begin_at":0,"end_at":0,"name":"Bilaspur Airport","city":"","country":"IN","runway_length":0,"runway_show":0,"points":"","url":"","address":"","is_web":0},{"area_id":3225,"type":0,"shape":0,"lat":21.752018,"lng":72.185487,"radius":1187,"level":2,"updated_at":1447945800,"begin_at":0,"end_at":0,"name":"Bhavnagar Airport","city":"Bhavnagar","country":"IN","runway_length":0,"runway_show":0,"points":"","url":"","address":"","is_web":0},{"area_id":5733,"type":0,"shape":0,"lat":21.649369,"lng":69.656506,"radius":1001,"level":2,"updated_at":1447945800,"begin_at":0,"end_at":0,"name":"Porbandar Airport","city":"Porbandar","country":"IN","runway_length":0,"runway_show":0,"points":"","url":"","address":"","is_web":0},{"area_id":3008,"type":0,"shape":0,"lat":21.316829,"lng":70.269618,"radius":838,"level":2,"updated_at":1447945800,"begin_at":0,"end_at":0,"name":"Keshod Airport","city":"","country":"IN","runway_length":0,"runway_show":0,"points":"","url":"","address":"","is_web":0},{"area_id":5463,"type":0,"shape":0,"lat":21.18197,"lng":81.740434,"radius":1293,"level":2,"updated_at":1447945800,"begin_at":0,"end_at":0,"name":"Raipur Airport","city":"Raipur","country":"IN","runway_length":0,"runway_show":0,"points":"","url":"","address":"","is_web":0},{"area_id":8577,"type":0,"shape":0,"lat":21.118319,"lng":72.744249,"radius":1356,"level":2,"updated_at":1447945800,"begin_at":0,"end_at":0,"name":"Surat Airport","city":"","country":"IN","runway_length":0,"runway_show":0,"points":"","url":"","address":"","is_web":0},{"area_id":4122,"type":0,"shape":0,"lat":21.098875,"lng":79.041213,"radius":2105,"level":2,"updated_at":1447945800,"begin_at":0,"end_at":0,"name":"Dr. Babasaheb Ambedkar International Airport","city":"Naqpur","country":"IN","runway_length":0,"runway_show":0,"points":"","url":"","address":"","is_web":0},{"area_id":593,"type":0,"shape":0,"lat":20.713957,"lng":70.921446,"radius":1136,"level":2,"updated_at":1447945800,"begin_at":0,"end_at":0,"name":"Diu Airport","city":"Diu","country":"IN","runway_length":0,"runway_show":0,"points":"","url":"","address":"","is_web":0},{"area_id":998,"type":0,"shape":0,"lat":20.69837,"lng":77.05693,"radius":770,"level":2,"updated_at":1447945800,"begin_at":0,"end_at":0,"name":"Akola Airport","city":"","country":"IN","runway_length":0,"runway_show":0,"points":"","url":"","address":"","is_web":0},{"area_id":4281,"type":0,"shape":0,"lat":20.431356,"lng":72.841172,"radius":1013,"level":2,"updated_at":1447945800,"begin_at":0,"end_at":0,"name":"Daman Airport","city":"","country":"IN","runway_length":0,"runway_show":0,"points":"","url":"","address":"","is_web":0},{"area_id":3059,"type":0,"shape":0,"lat":20.2511,"lng":85.812805,"radius":1623,"level":2,"updated_at":1447945800,"begin_at":0,"end_at":0,"name":"Biju Patnaik Airport","city":"Bhubaneswar","country":"IN","runway_length":0,"runway_show":0,"points":"","url":"","address":"","is_web":0},{"area_id":2960,"type":0,"shape":0,"lat":19.964925,"lng":73.809102,"radius":1065,"level":2,"updated_at":1447945800,"begin_at":0,"end_at":0,"name":"Gandhinagar Airport","city":"Nashik","country":"IN","runway_length":0,"runway_show":0,"points":"","url":"","address":"","is_web":0},{"area_id":3017,"type":0,"shape":0,"lat":19.864471,"lng":75.396131,"radius":1735,"level":2,"updated_at":1447945800,"begin_at":0,"end_at":0,"name":"Aurangabad Airport","city":"Aurangabad","country":"IN","runway_length":0,"runway_show":0,"points":"","url":"","address":"","is_web":0},{"area_id":4173,"type":0,"shape":0,"lat":19.182319,"lng":77.326197,"radius":1399,"level":2,"updated_at":1447945800,"begin_at":0,"end_at":0,"name":"Nanded Airport","city":"Nanded","country":"IN","runway_length":0,"runway_show":0,"points":"","url":"","address":"","is_web":0},{"area_id":3395,"type":0,"shape":0,"lat":19.090582,"lng":72.864249,"radius":1959,"level":2,"updated_at":1447945800,"begin_at":0,"end_at":0,"name":"Chhatrapati Shivaji International Airport","city":"Mumbai","country":"IN","runway_length":0,"runway_show":0,"points":"","url":"","address":"","is_web":0},{"area_id":2630,"type":0,"shape":0,"lat":19.073367,"lng":82.035849,"radius":1246,"level":2,"updated_at":1447945800,"begin_at":0,"end_at":0,"name":"Jagdalpur Airport","city":"Jagdalpur","country":"IN","runway_length":0,"runway_show":0,"points":"","url":"","address":"","is_web":0},{"area_id":6180,"type":0,"shape":0,"lat":18.879856,"lng":82.552399,"radius":497,"level":2,"updated_at":1447945800,"begin_at":0,"end_at":0,"name":"Jeypore Airport","city":"Jeypore","country":"IN","runway_length":0,"runway_show":0,"points":"","url":"","address":"","is_web":0},{"area_id":5407,"type":0,"shape":0,"lat":18.701155,"lng":79.392052,"radius":869,"level":2,"updated_at":1447945800,"begin_at":0,"end_at":0,"name":"Ramagundam Airport","city":"Ramagundam","country":"IN","runway_length":0,"runway_show":0,"points":"","url":"","address":"","is_web":0},{"area_id":5983,"type":0,"shape":0,"lat":18.582603,"lng":73.918779,"radius":1499,"level":2,"updated_at":1447945800,"begin_at":0,"end_at":0,"name":"Pune Airport","city":"Pune","country":"IN","runway_length":0,"runway_show":0,"points":"","url":"","address":"","is_web":0},{"area_id":4027,"type":0,"shape":0,"lat":18.412225,"lng":76.464406,"radius":1242,"level":2,"updated_at":1447945800,"begin_at":0,"end_at":0,"name":"Murod Kond Airport","city":"Latur","country":"IN","runway_length":0,"runway_show":0,"points":"","url":"","address":"","is_web":0},{"area_id":4573,"type":0,"shape":0,"lat":18.280397,"lng":76.057273,"radius":993,"level":2,"updated_at":1447945800,"begin_at":0,"end_at":0,"name":"Osmanabad Airport","city":"Osmanabad","country":"IN","runway_length":0,"runway_show":0,"points":"","url":"","address":"","is_web":0},{"area_id":7928,"type":0,"shape":0,"lat":17.913282,"lng":79.606326,"radius":1304,"level":2,"updated_at":1447945800,"begin_at":0,"end_at":0,"name":"Warangal Airport","city":"Warrangal","country":"IN","runway_length":0,"runway_show":0,"points":"","url":"","address":"","is_web":0},{"area_id":10215,"type":0,"shape":0,"lat":17.905733,"lng":77.477486,"radius":2427,"level":2,"updated_at":1447945800,"begin_at":0,"end_at":0,"name":"Bidar Air Force Station","city":"Bidar","country":"IN","runway_length":0,"runway_show":0,"points":"","url":"","address":"","is_web":0},{"area_id":7216,"type":0,"shape":0,"lat":17.721444,"lng":83.23218,"radius":2006,"level":2,"updated_at":1447945800,"begin_at":0,"end_at":0,"name":"Vishakhapatnam Airport","city":"Visakhapatnam","country":"IN","runway_length":0,"runway_show":0,"points":"","url":"","address":"","is_web":0},{"area_id":10216,"type":0,"shape":0,"lat":17.628776,"lng":78.401702,"radius":1948,"level":2,"updated_at":1447945800,"begin_at":0,"end_at":0,"name":"Air Force Academy","city":"NULL","country":"IN","runway_length":0,"runway_show":0,"points":"","url":"","address":"","is_web":0},{"area_id":8539,"type":0,"shape":0,"lat":17.627797,"lng":75.934265,"radius":1324,"level":2,"updated_at":1447945800,"begin_at":0,"end_at":0,"name":"Solapur Airport","city":"Solapur","country":"IN","runway_length":0,"runway_show":0,"points":"","url":"","address":"","is_web":0},{"area_id":3420,"type":0,"shape":0,"lat":17.452924,"lng":78.468845,"radius":1758,"level":2,"updated_at":1447945800,"begin_at":0,"end_at":0,"name":"Begumpet Airport","city":"Hyderabad","country":"IN","runway_length":0,"runway_show":0,"points":"","url":"","address":"","is_web":0},{"area_id":1622,"type":0,"shape":0,"lat":17.231574,"lng":78.43479,"radius":2919,"level":2,"updated_at":1447945800,"begin_at":0,"end_at":0,"name":"Rajiv Gandhi International, Shamshabad Airport","city":"Hyderabad","country":"IN","runway_length":0,"runway_show":0,"points":"","url":"","address":"","is_web":0},{"area_id":5376,"type":0,"shape":0,"lat":17.109492,"lng":81.818096,"radius":1204,"level":2,"updated_at":1447945800,"begin_at":0,"end_at":0,"name":"Rajahmundry Airport","city":"Rajahmundry","country":"IN","runway_length":0,"runway_show":0,"points":"","url":"","address":"","is_web":0},{"area_id":5497,"type":0,"shape":0,"lat":17.013703,"lng":73.328885,"radius":858,"level":2,"updated_at":1447945800,"begin_at":0,"end_at":0,"name":"Ratnagiri Airport","city":"","country":"IN","runway_length":0,"runway_show":0,"points":"","url":"","address":"","is_web":0},{"area_id":4952,"type":0,"shape":0,"lat":16.664452,"lng":74.288987,"radius":1006,"level":2,"updated_at":1447945800,"begin_at":0,"end_at":0,"name":"Kolhapur Airport","city":"","country":"IN","runway_length":0,"runway_show":0,"points":"","url":"","address":"","is_web":0},{"area_id":7103,"type":0,"shape":0,"lat":16.531269,"lng":80.800203,"radius":1483,"level":2,"updated_at":1447945800,"begin_at":0,"end_at":0,"name":"Vijayawada Airport","city":"","country":"IN","runway_length":0,"runway_show":0,"points":"","url":"","address":"","is_web":0},{"area_id":3004,"type":0,"shape":0,"lat":15.85909,"lng":74.617298,"radius":1267,"level":2,"updated_at":1447945800,"begin_at":0,"end_at":0,"name":"Belgaum Airport","city":"Belgaum","country":"IN","runway_length":0,"runway_show":0,"points":"","url":"","address":"","is_web":0},{"area_id":2415,"type":0,"shape":0,"lat":15.380142,"lng":73.832888,"radius":1887,"level":2,"updated_at":1447945800,"begin_at":0,"end_at":0,"name":"Dabolim Airport","city":"Vasco da Gama","country":"IN","runway_length":0,"runway_show":0,"points":"","url":"","address":"","is_web":0},{"area_id":1363,"type":0,"shape":0,"lat":15.361255,"lng":75.085037,"radius":1021,"level":2,"updated_at":1447945800,"begin_at":0,"end_at":0,"name":"Hubli Airport","city":"Hubli","country":"IN","runway_length":0,"runway_show":0,"points":"","url":"","address":"","is_web":0},{"area_id":3144,"type":0,"shape":0,"lat":15.162022,"lng":76.881492,"radius":671,"level":2,"updated_at":1447945800,"begin_at":0,"end_at":0,"name":"Bellary Airport","city":"Bellary","country":"IN","runway_length":0,"runway_show":0,"points":"","url":"","address":"","is_web":0},{"area_id":1726,"type":0,"shape":0,"lat":14.512588,"lng":78.7712,"radius":1089,"level":2,"updated_at":1447945800,"begin_at":0,"end_at":0,"name":"Cuddapah Airport","city":"","country":"IN","runway_length":0,"runway_show":0,"points":"","url":"","address":"","is_web":0},{"area_id":6138,"type":0,"shape":0,"lat":14.148597,"lng":77.791441,"radius":1225,"level":2,"updated_at":1447945800,"begin_at":0,"end_at":0,"name":"Puttaprathe Airport","city":"Puttaparthi","country":"IN","runway_length":0,"runway_show":0,"points":"","url":"","address":"","is_web":0},{"area_id":7421,"type":0,"shape":0,"lat":13.63252,"lng":79.543464,"radius":1204,"level":2,"updated_at":1447945800,"begin_at":0,"end_at":0,"name":"Tirupati Airport","city":"Tirupati","country":"IN","runway_length":0,"runway_show":0,"points":"","url":"","address":"","is_web":0},{"area_id":3322,"type":0,"shape":0,"lat":13.205913,"lng":77.704771,"radius":2281,"level":2,"updated_at":1447945800,"begin_at":0,"end_at":0,"name":"Bengaluru International Airport","city":"Bangalore","country":"IN","runway_length":0,"runway_show":0,"points":"","url":"","address":"","is_web":0},{"area_id":6202,"type":0,"shape":0,"lat":12.994363,"lng":80.168722,"radius":2242,"level":2,"updated_at":1447945800,"begin_at":0,"end_at":0,"name":"Chennai International Airport","city":"Chennai","country":"IN","runway_length":0,"runway_show":0,"points":"","url":"","address":"","is_web":0},{"area_id":3003,"type":0,"shape":0,"lat":12.955864,"lng":74.886588,"radius":1804,"level":2,"updated_at":1447945800,"begin_at":0,"end_at":0,"name":"Mangalore International Airport","city":"Mangalore","country":"IN","runway_length":0,"runway_show":0,"points":"","url":"","address":"","is_web":0},{"area_id":10214,"type":0,"shape":0,"lat":12.951853,"lng":77.668629,"radius":2148,"level":2,"updated_at":1447945800,"begin_at":0,"end_at":0,"name":"HAL Bangalore International Airport","city":"Bengaluru","country":"IN","runway_length":0,"runway_show":0,"points":"","url":"","address":"","is_web":0},{"area_id":6810,"type":0,"shape":0,"lat":12.230671,"lng":76.653168,"radius":968,"level":2,"updated_at":1447945800,"begin_at":0,"end_at":0,"name":"Mysore Airport","city":"Mysore","country":"IN","runway_length":0,"runway_show":0,"points":"","url":"","address":"","is_web":0},{"area_id":3021,"type":0,"shape":0,"lat":11.639846,"lng":92.72991,"radius":1868,"level":2,"updated_at":1447945800,"begin_at":0,"end_at":0,"name":"Vir Savarkar International Airport","city":"Port Blair","country":"IN","runway_length":0,"runway_show":0,"points":"","url":"","address":"","is_web":0},{"area_id":4412,"type":0,"shape":0,"lat":11.613113,"lng":79.528246,"radius":764,"level":2,"updated_at":1447945800,"begin_at":0,"end_at":0,"name":"Neyveli Airport","city":"Neyveli","country":"IN","runway_length":0,"runway_show":0,"points":"","url":"","address":"","is_web":0},{"area_id":1695,"type":0,"shape":0,"lat":11.136207,"lng":75.955038,"radius":1790,"level":2,"updated_at":1447945800,"begin_at":0,"end_at":0,"name":"Calicut International Airport","city":"Calicut","country":"IN","runway_length":0,"runway_show":0,"points":"","url":"","address":"","is_web":0},{"area_id":1850,"type":0,"shape":0,"lat":11.031909,"lng":77.043724,"radius":1929,"level":2,"updated_at":1447945800,"begin_at":0,"end_at":0,"name":"Coimbatore International Airport","city":"Coimbatore","country":"IN","runway_length":0,"runway_show":0,"points":"","url":"","address":"","is_web":0},{"area_id":940,"type":0,"shape":0,"lat":10.824333,"lng":72.176043,"radius":984,"level":2,"updated_at":1447945800,"begin_at":0,"end_at":0,"name":"Agatti Airport","city":"","country":"IN","runway_length":0,"runway_show":0,"points":"","url":"","address":"","is_web":0},{"area_id":7440,"type":0,"shape":0,"lat":10.724127,"lng":79.111225,"radius":1916,"level":2,"updated_at":1447945800,"begin_at":0,"end_at":0,"name":"Tanjore Air Force Base Airport","city":"Thanjavur","country":"IN","runway_length":0,"runway_show":0,"points":"","url":"","address":"","is_web":0},{"area_id":1964,"type":0,"shape":0,"lat":10.153726,"lng":76.400513,"radius":2325,"level":2,"updated_at":1447945800,"begin_at":0,"end_at":0,"name":"Cochin International Airport","city":"Cochin","country":"IN","runway_length":0,"runway_show":0,"points":"","url":"","address":"","is_web":0},{"area_id":3010,"type":0,"shape":0,"lat":9.835629,"lng":78.090416,"radius":1370,"level":2,"updated_at":1447945800,"begin_at":0,"end_at":0,"name":"Madurai Airport","city":"Madurai","country":"IN","runway_length":0,"runway_show":0,"points":"","url":"","address":"","is_web":0},{"area_id":7299,"type":0,"shape":0,"lat":8.723751,"lng":78.02746,"radius":869,"level":2,"updated_at":1447945800,"begin_at":0,"end_at":0,"name":"Tuticorin Airport","city":"Tuticorin","country":"IN","runway_length":0,"runway_show":0,"points":"","url":"","address":"","is_web":0},{"area_id":7604,"type":0,"shape":0,"lat":8.48342,"lng":76.919823,"radius":1925,"level":2,"updated_at":1447945800,"begin_at":0,"end_at":0,"name":"Trivandrum International Airport","city":"Trivandrum","country":"IN","runway_length":0,"runway_show":0,"points":"","url":"","address":"","is_web":0}],"status":"200"}