{"data":[{"area_id":32760,"type":1,"shape":0,"lat":36.763832,"lng":43.026516,"radius":63157,"level":2,"updated_at":1488191081,"begin_at":0,"end_at":0,"name":"NFZ 38 of Iraq","city":"","country":"IQ","runway_length":0,"runway_show":0,"points":"","url":"","address":"","is_web":0},{"area_id":32761,"type":1,"shape":0,"lat":36.609051,"lng":43.818691,"radius":63157,"level":2,"updated_at":1488191105,"begin_at":0,"end_at":0,"name":"NFZ 39 of Iraq","city":"Akre District","country":"IQ","runway_length":0,"runway_show":0,"points":"","url":"","address":"","is_web":0},{"area_id":32828,"type":1,"shape":0,"lat":36.418457,"lng":44.631035,"radius":30000,"level":2,"updated_at":1488046048,"begin_at":0,"end_at":0,"name":"NFZ 1 of Iraq","city":"","country":"IQ","runway_length":0,"runway_show":0,"points":"","url":"","address":"","is_web":0},{"area_id":4644,"type":0,"shape":0,"lat":36.306482,"lng":43.1474,"radius":2297,"level":2,"updated_at":1447945800,"begin_at":0,"end_at":0,"name":"Mosul Airport","city":"Mosul","country":"IQ","runway_length":0,"runway_show":0,"points":"","url":"","address":"","is_web":0},{"area_id":17,"type":0,"shape":0,"lat":36.245252,"lng":43.953785,"radius":3134,"level":2,"updated_at":1447945800,"begin_at":0,"end_at":0,"name":"Erbil International Airport","city":"Arbil","country":"IQ","runway_length":0,"runway_show":0,"points":"","url":"","address":"","is_web":0},{"area_id":10724,"type":1,"shape":0,"lat":36.12908,"lng":41.907051,"radius":63157,"level":2,"updated_at":1488190904,"begin_at":0,"end_at":0,"name":"NFZ 30 of Iraq","city":"","country":"IQ","runway_length":0,"runway_show":0,"points":"","url":"","address":"","is_web":0},{"area_id":10725,"type":1,"shape":0,"lat":35.884886,"lng":43.083859,"radius":63157,"level":2,"updated_at":1488190974,"begin_at":0,"end_at":0,"name":"NFZ 31 of Iraq","city":"","country":"IQ","runway_length":0,"runway_show":0,"points":"","url":"","address":"","is_web":0},{"area_id":32829,"type":1,"shape":0,"lat":35.770409,"lng":44.762871,"radius":60000,"level":2,"updated_at":1488045824,"begin_at":0,"end_at":0,"name":"NFZ 2 of Iraq","city":"","country":"IQ","runway_length":0,"runway_show":0,"points":"","url":"","address":"","is_web":0},{"area_id":5467,"type":0,"shape":0,"lat":35.755765,"lng":43.264166,"radius":1720,"level":2,"updated_at":1447945800,"begin_at":0,"end_at":0,"name":"Qayyarah West Airport","city":"Qayyarah","country":"IQ","runway_length":0,"runway_show":0,"points":"","url":"","address":"","is_web":0},{"area_id":32831,"type":1,"shape":0,"lat":35.645516,"lng":43.930156,"radius":65000,"level":2,"updated_at":1488082557,"begin_at":0,"end_at":0,"name":"NFZ 4 of Iraq","city":"","country":"IQ","runway_length":0,"runway_show":0,"points":"","url":"","address":"","is_web":0},{"area_id":2968,"type":0,"shape":0,"lat":35.5608,"lng":45.314716,"radius":1895,"level":2,"updated_at":1447945800,"begin_at":0,"end_at":0,"name":"Sulaymaniyah International Airport","city":"Sulaymaniyah","country":"IQ","runway_length":0,"runway_show":0,"points":"","url":"","address":"","is_web":0},{"area_id":32832,"type":1,"shape":0,"lat":35.510926,"lng":45.733101,"radius":30000,"level":2,"updated_at":1488077753,"begin_at":0,"end_at":0,"name":"NFZ 5 of Iraq","city":"","country":"IQ","runway_length":0,"runway_show":0,"points":"","url":"","address":"","is_web":0},{"area_id":4905,"type":0,"shape":0,"lat":35.469514,"lng":44.347168,"radius":1578,"level":2,"updated_at":1447945800,"begin_at":0,"end_at":0,"name":"Kirkuk Air Base Airport","city":"Kirkuk","country":"IQ","runway_length":0,"runway_show":0,"points":"","url":"","address":"","is_web":0},{"area_id":10732,"type":1,"shape":0,"lat":35.169207,"lng":42.160025,"radius":63157,"level":2,"updated_at":1488191066,"begin_at":0,"end_at":0,"name":"NFZ 36 of Iraq","city":"","country":"IQ","runway_length":0,"runway_show":0,"points":"","url":"","address":"","is_web":0},{"area_id":32830,"type":1,"shape":0,"lat":35.168272,"lng":44.70794,"radius":65000,"level":2,"updated_at":1488082629,"begin_at":0,"end_at":0,"name":"NFZ 3 of Iraq","city":"","country":"IQ","runway_length":0,"runway_show":0,"points":"","url":"","address":"","is_web":0},{"area_id":10728,"type":1,"shape":0,"lat":34.856721,"lng":43.095727,"radius":63157,"level":2,"updated_at":1488191022,"begin_at":0,"end_at":0,"name":"NFZ 32 of Iraq","city":"","country":"IQ","runway_length":0,"runway_show":0,"points":"","url":"","address":"","is_web":0},{"area_id":10734,"type":1,"shape":0,"lat":34.429223,"lng":41.319438,"radius":63157,"level":2,"updated_at":1488191071,"begin_at":0,"end_at":0,"name":"NFZ 37 of Iraq","city":"","country":"IQ","runway_length":0,"runway_show":0,"points":"","url":"","address":"","is_web":0},{"area_id":10730,"type":1,"shape":0,"lat":34.349456,"lng":44.256448,"radius":63157,"level":2,"updated_at":1488191044,"begin_at":0,"end_at":0,"name":"NFZ 34 of Iraq","city":"","country":"IQ","runway_length":0,"runway_show":0,"points":"","url":"","address":"","is_web":0},{"area_id":10731,"type":1,"shape":0,"lat":34.198247,"lng":42.336301,"radius":63157,"level":2,"updated_at":1488191052,"begin_at":0,"end_at":0,"name":"NFZ 35 of Iraq","city":"","country":"IQ","runway_length":0,"runway_show":0,"points":"","url":"","address":"","is_web":0},{"area_id":10729,"type":1,"shape":0,"lat":33.861245,"lng":43.510918,"radius":63157,"level":2,"updated_at":1488191032,"begin_at":0,"end_at":0,"name":"NFZ 33 of Iraq","city":"","country":"IQ","runway_length":0,"runway_show":0,"points":"","url":"","address":"","is_web":0},{"area_id":2931,"type":0,"shape":0,"lat":33.792478,"lng":42.44072,"radius":3769,"level":2,"updated_at":1447945800,"begin_at":0,"end_at":0,"name":"Al Asad Air Base Airport","city":"Hīt","country":"IQ","runway_length":0,"runway_show":0,"points":"","url":"","address":"","is_web":0},{"area_id":9857,"type":0,"shape":0,"lat":33.355409,"lng":40.602894,"radius":2318,"level":2,"updated_at":1447945800,"begin_at":0,"end_at":0,"name":"H2 Air Base","city":"NULL","country":"IQ","runway_length":0,"runway_show":0,"points":"","url":"","address":"","is_web":0},{"area_id":10047,"type":0,"shape":0,"lat":33.338196,"lng":43.596973,"radius":2007,"level":2,"updated_at":1447945800,"begin_at":0,"end_at":0,"name":"Al Taqaddum","city":"NULL","country":"IQ","runway_length":0,"runway_show":0,"points":"","url":"","address":"","is_web":0},{"area_id":3201,"type":0,"shape":0,"lat":33.264801,"lng":44.23114,"radius":4607,"level":2,"updated_at":1447945800,"begin_at":0,"end_at":0,"name":"Baghdad International Airport","city":"Baghdad","country":"IQ","runway_length":0,"runway_show":0,"points":"","url":"","address":"","is_web":0},{"area_id":32833,"type":1,"shape":0,"lat":32.903738,"lng":43.82148,"radius":65000,"level":2,"updated_at":1488078478,"begin_at":0,"end_at":0,"name":"NFZ 6 of Iraq","city":"","country":"IQ","runway_length":0,"runway_show":0,"points":"","url":"","address":"","is_web":0},{"area_id":4610,"type":0,"shape":0,"lat":32.503947,"lng":45.33441,"radius":3339,"level":2,"updated_at":1447945800,"begin_at":0,"end_at":0,"name":"Orán Airport","city":"Orán","country":"IQ","runway_length":0,"runway_show":0,"points":"","url":"","address":"","is_web":0},{"area_id":10050,"type":0,"shape":0,"lat":32.480456,"lng":45.759207,"radius":2236,"level":2,"updated_at":1447945800,"begin_at":0,"end_at":0,"name":"Abu Ubaydah Bin Al Jarrah","city":"Kut","country":"IQ","runway_length":0,"runway_show":0,"points":"","url":"","address":"","is_web":0},{"area_id":4250,"type":0,"shape":0,"lat":31.989834,"lng":44.404335,"radius":2562,"level":2,"updated_at":1447945800,"begin_at":0,"end_at":0,"name":"Al Najaf International Airport","city":"","country":"IQ","runway_length":0,"runway_show":0,"points":"","url":"","address":"","is_web":0},{"area_id":3485,"type":0,"shape":0,"lat":30.548889,"lng":47.661944,"radius":2453,"level":2,"updated_at":1447945800,"begin_at":0,"end_at":0,"name":"Basrah International Airport","city":"Basrah","country":"IQ","runway_length":0,"runway_show":0,"points":"","url":"","address":"","is_web":0}],"status":"200"}