{"data":[{"area_id":4175,"type":0,"shape":0,"lat":3.9339,"lng":41.843621,"radius":807,"level":2,"updated_at":1447945800,"begin_at":0,"end_at":0,"name":"Mandera Airport","city":"Mandera","country":"KE","runway_length":0,"runway_show":0,"points":"","url":"","address":"","is_web":0},{"area_id":3859,"type":0,"shape":0,"lat":3.491616,"lng":35.836733,"radius":557,"level":2,"updated_at":1447945800,"begin_at":0,"end_at":0,"name":"Lake Rudolf Airport","city":"Lake Rudolf","country":"KE","runway_length":0,"runway_show":0,"points":"","url":"","address":"","is_web":0},{"area_id":4714,"type":0,"shape":0,"lat":3.469861,"lng":39.101944,"radius":905,"level":2,"updated_at":1447945800,"begin_at":0,"end_at":0,"name":"Moyale Airport","city":"Moyale","country":"KE","runway_length":0,"runway_show":0,"points":"","url":"","address":"","is_web":0},{"area_id":250,"type":0,"shape":0,"lat":3.236424,"lng":35.97443,"radius":436,"level":2,"updated_at":1447945800,"begin_at":0,"end_at":0,"name":"Eliye Springs Airport","city":"Eliye Springs","country":"KE","runway_length":0,"runway_show":0,"points":"","url":"","address":"","is_web":0},{"area_id":3735,"type":0,"shape":0,"lat":3.122349,"lng":35.610119,"radius":958,"level":2,"updated_at":1447945800,"begin_at":0,"end_at":0,"name":"Lodwar Airport","city":"Lodar","country":"KE","runway_length":0,"runway_show":0,"points":"","url":"","address":"","is_web":0},{"area_id":3944,"type":0,"shape":0,"lat":2.763306,"lng":36.718334,"radius":615,"level":2,"updated_at":1447945800,"begin_at":0,"end_at":0,"name":"Loyengalani Airport","city":"Loyengalani","country":"KE","runway_length":0,"runway_show":0,"points":"","url":"","address":"","is_web":0},{"area_id":7960,"type":0,"shape":0,"lat":1.73425,"lng":40.090163,"radius":1671,"level":2,"updated_at":1447945800,"begin_at":0,"end_at":0,"name":"Wajir Airport","city":"Wajir","country":"KE","runway_length":0,"runway_show":0,"points":"","url":"","address":"","is_web":0},{"area_id":5132,"type":0,"shape":0,"lat":0.971989,"lng":34.958556,"radius":826,"level":2,"updated_at":1447945800,"begin_at":0,"end_at":0,"name":"Kitale Airport","city":"Kitale","country":"KE","runway_length":0,"runway_show":0,"points":"","url":"","address":"","is_web":0},{"area_id":6856,"type":0,"shape":0,"lat":0.533753,"lng":37.532912,"radius":601,"level":2,"updated_at":1447945800,"begin_at":0,"end_at":0,"name":"Samburu South Airport","city":"Samburu South","country":"KE","runway_length":0,"runway_show":0,"points":"","url":"","address":"","is_web":0},{"area_id":43,"type":0,"shape":0,"lat":0.403498,"lng":35.236088,"radius":2825,"level":2,"updated_at":1447945800,"begin_at":0,"end_at":0,"name":"Eldoret International Airport","city":"Eldoret","country":"KE","runway_length":0,"runway_show":0,"points":"","url":"","address":"","is_web":0},{"area_id":2302,"type":0,"shape":0,"lat":0.271067,"lng":34.788572,"radius":682,"level":2,"updated_at":1447945800,"begin_at":0,"end_at":0,"name":"Kakamega Airport","city":"Kakamega","country":"KE","runway_length":0,"runway_show":0,"points":"","url":"","address":"","is_web":0},{"area_id":4424,"type":0,"shape":0,"lat":0.027787,"lng":37.024273,"radius":2517,"level":2,"updated_at":1447945800,"begin_at":0,"end_at":0,"name":"Nanyuki Airport","city":"Nanyuki","country":"KE","runway_length":0,"runway_show":0,"points":"","url":"","address":"","is_web":0},{"area_id":4913,"type":0,"shape":0,"lat":-0.088454,"lng":34.7238,"radius":1772,"level":2,"updated_at":1447945800,"begin_at":0,"end_at":0,"name":"Kisumu Airport","city":"Kisumu","country":"KE","runway_length":0,"runway_show":0,"points":"","url":"","address":"","is_web":0},{"area_id":4398,"type":0,"shape":0,"lat":-0.297425,"lng":36.153617,"radius":1600,"level":2,"updated_at":1447945800,"begin_at":0,"end_at":0,"name":"Nakuru Airport","city":"Nakuru","country":"KE","runway_length":0,"runway_show":0,"points":"","url":"","address":"","is_web":0},{"area_id":4421,"type":0,"shape":0,"lat":-0.36878,"lng":36.97982,"radius":964,"level":2,"updated_at":1447945800,"begin_at":0,"end_at":0,"name":"Nyeri Airport","city":"Nyeri","country":"KE","runway_length":0,"runway_show":0,"points":"","url":"","address":"","is_web":0},{"area_id":2206,"type":0,"shape":0,"lat":-0.463379,"lng":39.647673,"radius":692,"level":2,"updated_at":1447945800,"begin_at":0,"end_at":0,"name":"Garissa Airport","city":"Garissa","country":"KE","runway_length":0,"runway_show":0,"points":"","url":"","address":"","is_web":0},{"area_id":9853,"type":0,"shape":0,"lat":-1.275454,"lng":36.861597,"radius":1437,"level":2,"updated_at":1447945800,"begin_at":0,"end_at":0,"name":"Moi Air Base","city":"Nairobi","country":"KE","runway_length":0,"runway_show":0,"points":"","url":"","address":"","is_web":0},{"area_id":4149,"type":0,"shape":0,"lat":-1.320136,"lng":36.928736,"radius":2952,"level":2,"updated_at":1447945800,"begin_at":0,"end_at":0,"name":"Jomo Kenyatta International Airport","city":"Nairobi","country":"KE","runway_length":0,"runway_show":0,"points":"","url":"","address":"","is_web":0},{"area_id":7951,"type":0,"shape":0,"lat":-1.325444,"lng":36.815194,"radius":907,"level":2,"updated_at":1447945800,"begin_at":0,"end_at":0,"name":"Nairobi Wilson Airport","city":"Nairobi","country":"KE","runway_length":0,"runway_show":0,"points":"","url":"","address":"","is_web":0},{"area_id":1510,"type":0,"shape":0,"lat":-1.52,"lng":40.003889,"radius":673,"level":2,"updated_at":1447945800,"begin_at":0,"end_at":0,"name":"Hola Airport","city":"Hola","country":"KE","runway_length":0,"runway_show":0,"points":"","url":"","address":"","is_web":0},{"area_id":5200,"type":0,"shape":0,"lat":-1.960556,"lng":41.2975,"radius":620,"level":2,"updated_at":1447945800,"begin_at":0,"end_at":0,"name":"Kiwayu Airport","city":"Kiwayu","country":"KE","runway_length":0,"runway_show":0,"points":"","url":"","address":"","is_web":0},{"area_id":9852,"type":0,"shape":0,"lat":-2.254838,"lng":40.914,"radius":1202,"level":2,"updated_at":1447945800,"begin_at":0,"end_at":0,"name":"Manda Airport","city":"Lamu","country":"KE","runway_length":0,"runway_show":0,"points":"","url":"","address":"","is_web":0},{"area_id":1196,"type":0,"shape":0,"lat":-2.644792,"lng":37.252493,"radius":653,"level":2,"updated_at":1447945800,"begin_at":0,"end_at":0,"name":"Amboseli Airport","city":"Amboseli National Park","country":"KE","runway_length":0,"runway_show":0,"points":"","url":"","address":"","is_web":0},{"area_id":2868,"type":0,"shape":0,"lat":-2.909858,"lng":38.07186,"radius":1311,"level":2,"updated_at":1447945800,"begin_at":0,"end_at":0,"name":"Kilaguni Airport","city":"Kilaguni","country":"KE","runway_length":0,"runway_show":0,"points":"","url":"","address":"","is_web":0},{"area_id":6797,"type":0,"shape":0,"lat":-3.224384,"lng":40.096544,"radius":1182,"level":2,"updated_at":1447945800,"begin_at":0,"end_at":0,"name":"Malindi Airport","city":"Malindi","country":"KE","runway_length":0,"runway_show":0,"points":"","url":"","address":"","is_web":0},{"area_id":7183,"type":0,"shape":0,"lat":-3.808531,"lng":39.796681,"radius":886,"level":2,"updated_at":1447945800,"begin_at":0,"end_at":0,"name":"Vipingo Estate Airport","city":"Vipingo Estate","country":"KE","runway_length":0,"runway_show":0,"points":"","url":"","address":"","is_web":0},{"area_id":3347,"type":0,"shape":0,"lat":-3.980011,"lng":39.730894,"radius":648,"level":2,"updated_at":1447945800,"begin_at":0,"end_at":0,"name":"Bamburi Airport","city":"","country":"KE","runway_length":0,"runway_show":0,"points":"","url":"","address":"","is_web":0},{"area_id":6706,"type":0,"shape":0,"lat":-4.026895,"lng":39.600068,"radius":2130,"level":2,"updated_at":1447945800,"begin_at":0,"end_at":0,"name":"Moi International Airport","city":"Mumias","country":"KE","runway_length":0,"runway_show":0,"points":"","url":"","address":"","is_web":0},{"area_id":6913,"type":0,"shape":0,"lat":-4.29326,"lng":39.571576,"radius":614,"level":2,"updated_at":1447945800,"begin_at":0,"end_at":0,"name":"Ukunda Airstrip Airport","city":"Ukunda","country":"KE","runway_length":0,"runway_show":0,"points":"","url":"","address":"","is_web":0}],"status":"200"}