{"data":[{"area_id":5262,"type":0,"shape":0,"lat":13.731265,"lng":106.983917,"radius":814,"level":2,"updated_at":1447945800,"begin_at":0,"end_at":0,"name":"Ratanakiri Airport","city":"Ratanakiri","country":"KH","runway_length":0,"runway_show":0,"points":"","url":"","address":"","is_web":0},{"area_id":7535,"type":0,"shape":0,"lat":13.531335,"lng":106.014185,"radius":833,"level":2,"updated_at":1447945800,"begin_at":0,"end_at":0,"name":"Stung Treng Airport","city":"Stung Treng","country":"KH","runway_length":0,"runway_show":0,"points":"","url":"","address":"","is_web":0},{"area_id":5320,"type":0,"shape":0,"lat":13.411632,"lng":103.812988,"radius":1778,"level":2,"updated_at":1447945800,"begin_at":0,"end_at":0,"name":"Siem Reap International Airport","city":"Krong Siem Reap","country":"KH","runway_length":0,"runway_show":0,"points":"","url":"","address":"","is_web":0},{"area_id":3063,"type":0,"shape":0,"lat":13.094944,"lng":103.224267,"radius":974,"level":2,"updated_at":1447945800,"begin_at":0,"end_at":0,"name":"Battambang Airport","city":"Battambang","country":"KH","runway_length":0,"runway_show":0,"points":"","url":"","address":"","is_web":0},{"area_id":5130,"type":0,"shape":0,"lat":12.490996,"lng":106.05497,"radius":743,"level":2,"updated_at":1447945800,"begin_at":0,"end_at":0,"name":"Kratie Airport","city":"Kratie","country":"KH","runway_length":0,"runway_show":0,"points":"","url":"","address":"","is_web":0},{"area_id":5224,"type":0,"shape":0,"lat":12.25525,"lng":104.563889,"radius":1556,"level":2,"updated_at":1447945800,"begin_at":0,"end_at":0,"name":"Kampong Chhnang Airport","city":"","country":"KH","runway_length":0,"runway_show":0,"points":"","url":"","address":"","is_web":0},{"area_id":4945,"type":0,"shape":0,"lat":11.613836,"lng":102.996814,"radius":820,"level":2,"updated_at":1447945800,"begin_at":0,"end_at":0,"name":"Kaoh Kong Airport","city":"Kaoh Kong","country":"KH","runway_length":0,"runway_show":0,"points":"","url":"","address":"","is_web":0},{"area_id":5977,"type":0,"shape":0,"lat":11.546279,"lng":104.846574,"radius":1988,"level":2,"updated_at":1447945800,"begin_at":0,"end_at":0,"name":"Phnom Penh International Airport","city":"Phnom Penh","country":"KH","runway_length":0,"runway_show":0,"points":"","url":"","address":"","is_web":0},{"area_id":4989,"type":0,"shape":0,"lat":10.634154,"lng":104.162187,"radius":567,"level":2,"updated_at":1447945800,"begin_at":0,"end_at":0,"name":"Kampot Airport","city":"Kampot","country":"KH","runway_length":0,"runway_show":0,"points":"","url":"","address":"","is_web":0},{"area_id":5039,"type":0,"shape":0,"lat":10.575781,"lng":103.633682,"radius":1654,"level":2,"updated_at":1447945800,"begin_at":0,"end_at":0,"name":"Sihanoukville International Airport","city":"Sihanukville","country":"KH","runway_length":0,"runway_show":0,"points":"","url":"","address":"","is_web":0}],"status":"200"}