{"data":[{"area_id":8287,"type":0,"shape":0,"lat":38.1425,"lng":128.598333,"radius":900,"level":2,"updated_at":1447945800,"begin_at":0,"end_at":0,"name":"Sokcho Airport","city":"","country":"KR","runway_length":0,"runway_show":0,"points":"","url":"","address":"","is_web":0},{"area_id":9120,"type":0,"shape":0,"lat":38.060703,"lng":128.667771,"radius":1822,"level":2,"updated_at":1447945800,"begin_at":0,"end_at":0,"name":"Yangyang International Airport","city":"Sokcho / Gangneung","country":"KR","runway_length":0,"runway_show":0,"points":"","url":"","address":"","is_web":0},{"area_id":4732,"type":0,"shape":0,"lat":37.753333,"lng":128.943611,"radius":1799,"level":2,"updated_at":1447945800,"begin_at":0,"end_at":0,"name":"Gangneung Airport","city":"Gangneung","country":"KR","runway_length":0,"runway_show":0,"points":"","url":"","address":"","is_web":0},{"area_id":10234,"type":1,"shape":0,"lat":37.585821,"lng":126.974935,"radius":3000,"level":2,"updated_at":1455611160,"begin_at":0,"end_at":0,"name":"Blue House","city":"NULL","country":"KR","runway_length":0,"runway_show":0,"points":"","url":"","address":"","is_web":0},{"area_id":2384,"type":0,"shape":0,"lat":37.559608,"lng":126.7943,"radius":2123,"level":2,"updated_at":1447945800,"begin_at":0,"end_at":0,"name":"Gimpo International Airport","city":"Seoul","country":"KR","runway_length":0,"runway_show":0,"points":"","url":"","address":"","is_web":0},{"area_id":2788,"type":0,"shape":0,"lat":37.463051,"lng":126.442757,"radius":2869,"level":2,"updated_at":1447945800,"begin_at":0,"end_at":0,"name":"Incheon International Airport","city":"Seoul","country":"KR","runway_length":0,"runway_show":0,"points":"","url":"","address":"","is_web":0},{"area_id":10742,"type":1,"shape":0,"lat":37.351055,"lng":126.589622,"radius":3708,"level":0,"updated_at":1459939260,"begin_at":0,"end_at":0,"name":"P73A Seoul City","city":"Incheon","country":"KR","runway_length":0,"runway_show":0,"points":"","url":"","address":"","is_web":0},{"area_id":4645,"type":0,"shape":0,"lat":37.090556,"lng":127.029722,"radius":1860,"level":2,"updated_at":1447945800,"begin_at":0,"end_at":0,"name":"Osan Air Base Airport","city":"","country":"KR","runway_length":0,"runway_show":0,"points":"","url":"","address":"","is_web":0},{"area_id":10077,"type":0,"shape":0,"lat":37.03,"lng":127.885278,"radius":1915,"level":2,"updated_at":1447945800,"begin_at":0,"end_at":0,"name":"Jungwon Air Base","city":"Chungju-si","country":"KR","runway_length":0,"runway_show":0,"points":"","url":"","address":"","is_web":0},{"area_id":6912,"type":0,"shape":0,"lat":36.777468,"lng":129.462677,"radius":1431,"level":2,"updated_at":1447945800,"begin_at":0,"end_at":0,"name":"Uljin Airport","city":"Uljin","country":"KR","runway_length":0,"runway_show":0,"points":"","url":"","address":"","is_web":0},{"area_id":1854,"type":0,"shape":0,"lat":36.716337,"lng":127.498117,"radius":1716,"level":2,"updated_at":1447945800,"begin_at":0,"end_at":0,"name":"Cheongju International Airport","city":"Cheongju","country":"KR","runway_length":0,"runway_show":0,"points":"","url":"","address":"","is_web":0},{"area_id":8951,"type":0,"shape":0,"lat":36.629891,"lng":128.355259,"radius":1787,"level":2,"updated_at":1447945800,"begin_at":0,"end_at":0,"name":"Yecheon Airport","city":"","country":"KR","runway_length":0,"runway_show":0,"points":"","url":"","address":"","is_web":0},{"area_id":5060,"type":0,"shape":0,"lat":35.987939,"lng":129.420951,"radius":1348,"level":2,"updated_at":1447945800,"begin_at":0,"end_at":0,"name":"Pohang Airport","city":"Pohang","country":"KR","runway_length":0,"runway_show":0,"points":"","url":"","address":"","is_web":0},{"area_id":10075,"type":0,"shape":0,"lat":35.908269,"lng":126.623811,"radius":2205,"level":2,"updated_at":1447945800,"begin_at":0,"end_at":0,"name":"Kunsan Air Base","city":"Gunsan-si","country":"KR","runway_length":0,"runway_show":0,"points":"","url":"","address":"","is_web":0},{"area_id":7236,"type":0,"shape":0,"lat":35.894551,"lng":128.657709,"radius":1895,"level":2,"updated_at":1447945800,"begin_at":0,"end_at":0,"name":"Daegu Airport","city":"Daegu","country":"KR","runway_length":0,"runway_show":0,"points":"","url":"","address":"","is_web":0},{"area_id":1812,"type":0,"shape":0,"lat":35.878333,"lng":127.119444,"radius":897,"level":2,"updated_at":1447945800,"begin_at":0,"end_at":0,"name":"Jeon Ju Airport","city":"Jeon Ju","country":"KR","runway_length":0,"runway_show":0,"points":"","url":"","address":"","is_web":0},{"area_id":7003,"type":0,"shape":0,"lat":35.593251,"lng":129.351828,"radius":1079,"level":2,"updated_at":1447945800,"begin_at":0,"end_at":0,"name":"Ulsan Airport","city":"Ulsan","country":"KR","runway_length":0,"runway_show":0,"points":"","url":"","address":"","is_web":0},{"area_id":6137,"type":0,"shape":0,"lat":35.179676,"lng":128.939092,"radius":1950,"level":2,"updated_at":1447945800,"begin_at":0,"end_at":0,"name":"Gimhae International Airport","city":"Busan","country":"KR","runway_length":0,"runway_show":0,"points":"","url":"","address":"","is_web":0},{"area_id":5188,"type":0,"shape":0,"lat":35.127864,"lng":126.804788,"radius":1803,"level":2,"updated_at":1447945800,"begin_at":0,"end_at":0,"name":"Gwangju Airport","city":"Gwangju","country":"KR","runway_length":0,"runway_show":0,"points":"","url":"","address":"","is_web":0},{"area_id":1443,"type":0,"shape":0,"lat":35.089755,"lng":128.06966,"radius":1804,"level":2,"updated_at":1447945800,"begin_at":0,"end_at":0,"name":"Sacheon Air Base Airport","city":"Sacheon","country":"KR","runway_length":0,"runway_show":0,"points":"","url":"","address":"","is_web":0},{"area_id":6766,"type":0,"shape":0,"lat":34.992178,"lng":126.382696,"radius":1876,"level":2,"updated_at":1447945800,"begin_at":0,"end_at":0,"name":"Muan International Airport","city":"Muan","country":"KR","runway_length":0,"runway_show":0,"points":"","url":"","address":"","is_web":0},{"area_id":5492,"type":0,"shape":0,"lat":34.841821,"lng":127.616015,"radius":1409,"level":2,"updated_at":1447945800,"begin_at":0,"end_at":0,"name":"Yeosu Airport","city":"Suncheon","country":"KR","runway_length":0,"runway_show":0,"points":"","url":"","address":"","is_web":0},{"area_id":1860,"type":0,"shape":0,"lat":33.50841,"lng":126.484577,"radius":2358,"level":2,"updated_at":1447945800,"begin_at":0,"end_at":0,"name":"Jeju International Airport","city":"Jeju City","country":"KR","runway_length":0,"runway_show":0,"points":"","url":"","address":"","is_web":0}],"status":"200"}