{"data":[{"area_id":7549,"type":0,"shape":0,"lat":16.730437,"lng":-3.007263,"radius":1422,"level":2,"updated_at":1447945800,"begin_at":0,"end_at":0,"name":"Timbuktu Airport","city":"Timbuktu","country":"ML","runway_length":0,"runway_show":0,"points":"","url":"","address":"","is_web":0},{"area_id":4247,"type":0,"shape":0,"lat":15.238877,"lng":-9.576619,"radius":867,"level":2,"updated_at":1447945800,"begin_at":0,"end_at":0,"name":"Nioro du Sahel Airport","city":"Nioro du Sahel","country":"ML","runway_length":0,"runway_show":0,"points":"","url":"","address":"","is_web":0},{"area_id":247,"type":0,"shape":0,"lat":15.123165,"lng":-10.568379,"radius":950,"level":2,"updated_at":1447945800,"begin_at":0,"end_at":0,"name":"Yélimané Airport","city":"Yélimané","country":"ML","runway_length":0,"runway_show":0,"points":"","url":"","address":"","is_web":0},{"area_id":6827,"type":0,"shape":0,"lat":14.512803,"lng":-4.079541,"radius":1598,"level":2,"updated_at":1447945800,"begin_at":0,"end_at":0,"name":"Ambodedjo Airport","city":"","country":"ML","runway_length":0,"runway_show":0,"points":"","url":"","address":"","is_web":0},{"area_id":5218,"type":0,"shape":0,"lat":14.482313,"lng":-11.400833,"radius":1945,"level":2,"updated_at":1447945800,"begin_at":0,"end_at":0,"name":"Kayes Dag Dag Airport","city":"","country":"ML","runway_length":0,"runway_show":0,"points":"","url":"","address":"","is_web":0},{"area_id":5020,"type":0,"shape":0,"lat":12.839609,"lng":-11.252867,"radius":728,"level":2,"updated_at":1447945800,"begin_at":0,"end_at":0,"name":"Kenieba Airport","city":"Kenieba","country":"ML","runway_length":0,"runway_show":0,"points":"","url":"","address":"","is_web":0},{"area_id":1153,"type":0,"shape":0,"lat":12.537239,"lng":-7.949482,"radius":3084,"level":2,"updated_at":1447945800,"begin_at":0,"end_at":0,"name":"Aeroport international de bamako -senou Airport","city":"Alor Island","country":"ML","runway_length":0,"runway_show":0,"points":"","url":"","address":"","is_web":0}],"status":"200"}