{"data":[{"area_id":1342,"type":0,"shape":0,"lat":6.746845,"lng":73.169521,"radius":1433,"level":2,"updated_at":1447945800,"begin_at":0,"end_at":0,"name":"Hanimaadhoo Airport","city":"Haa Dhaalu Atoll","country":"MV","runway_length":0,"runway_show":0,"points":"","url":"","address":"","is_web":0},{"area_id":6477,"type":0,"shape":0,"lat":4.192892,"lng":73.529356,"radius":1875,"level":2,"updated_at":1447945800,"begin_at":0,"end_at":0,"name":"Malé International Airport","city":"Malé","country":"MV","runway_length":0,"runway_show":0,"points":"","url":"","address":"","is_web":0},{"area_id":4813,"type":0,"shape":0,"lat":1.860598,"lng":73.521192,"radius":926,"level":2,"updated_at":1447945800,"begin_at":0,"end_at":0,"name":"Kadhdhoo Airport","city":"Kadhdhoo","country":"MV","runway_length":0,"runway_show":0,"points":"","url":"","address":"","is_web":0},{"area_id":2343,"type":0,"shape":0,"lat":0.733342,"lng":73.433853,"radius":740,"level":2,"updated_at":1447945800,"begin_at":0,"end_at":0,"name":"Kooddoo Airport","city":"Huvadhu Atoll","country":"MV","runway_length":0,"runway_show":0,"points":"","url":"","address":"","is_web":0},{"area_id":4811,"type":0,"shape":0,"lat":0.48818,"lng":72.995542,"radius":983,"level":2,"updated_at":1447945800,"begin_at":0,"end_at":0,"name":"Kaadedhdhoo Airport","city":"Huvadhu Atoll","country":"MV","runway_length":0,"runway_show":0,"points":"","url":"","address":"","is_web":0},{"area_id":464,"type":0,"shape":0,"lat":-0.309496,"lng":73.433403,"radius":663,"level":2,"updated_at":1447945800,"begin_at":0,"end_at":0,"name":"Fuvahmulah Airport","city":"Fuvahmulah Island","country":"MV","runway_length":0,"runway_show":0,"points":"","url":"","address":"","is_web":0},{"area_id":2201,"type":0,"shape":0,"lat":-0.693184,"lng":73.155678,"radius":1437,"level":2,"updated_at":1447945800,"begin_at":0,"end_at":0,"name":"Gan International Airport","city":"Gan","country":"MV","runway_length":0,"runway_show":0,"points":"","url":"","address":"","is_web":0}],"status":"200"}