{"data":[{"area_id":5148,"type":0,"shape":0,"lat":6.923966,"lng":116.836952,"radius":405,"level":2,"updated_at":1447945800,"begin_at":0,"end_at":0,"name":"Kudat Airport","city":"Kudat","country":"MY","runway_length":0,"runway_show":0,"points":"","url":"","address":"","is_web":0},{"area_id":3787,"type":0,"shape":0,"lat":6.331913,"lng":99.727886,"radius":2262,"level":2,"updated_at":1447945800,"begin_at":0,"end_at":0,"name":"Langkawi International Airport","city":"Langkawi","country":"MY","runway_length":0,"runway_show":0,"points":"","url":"","address":"","is_web":0},{"area_id":1113,"type":0,"shape":0,"lat":6.189849,"lng":100.398912,"radius":1700,"level":2,"updated_at":1447945800,"begin_at":0,"end_at":0,"name":"Sultan Abdul Halim Airport","city":"Alor Satar","country":"MY","runway_length":0,"runway_show":0,"points":"","url":"","address":"","is_web":0},{"area_id":4769,"type":0,"shape":0,"lat":6.167037,"lng":102.294158,"radius":1382,"level":2,"updated_at":1447945800,"begin_at":0,"end_at":0,"name":"Sultan Ismail Petra Airport","city":"Kota Baharu","country":"MY","runway_length":0,"runway_show":0,"points":"","url":"","address":"","is_web":0},{"area_id":3289,"type":0,"shape":0,"lat":5.933394,"lng":116.049635,"radius":2335,"level":2,"updated_at":1447945800,"begin_at":0,"end_at":0,"name":"Kota Kinabalu International Airport","city":"Kota Kinabalu","country":"MY","runway_length":0,"runway_show":0,"points":"","url":"","address":"","is_web":0},{"area_id":8187,"type":0,"shape":0,"lat":5.901701,"lng":118.061399,"radius":1487,"level":2,"updated_at":1447945800,"begin_at":0,"end_at":0,"name":"Sandakan Airport","city":"Sandakan","country":"MY","runway_length":0,"runway_show":0,"points":"","url":"","address":"","is_web":0},{"area_id":3573,"type":0,"shape":0,"lat":5.465341,"lng":100.391319,"radius":1365,"level":2,"updated_at":1447945800,"begin_at":0,"end_at":0,"name":"Butterworth Airport","city":"Butterworth","country":"MY","runway_length":0,"runway_show":0,"points":"","url":"","address":"","is_web":0},{"area_id":7364,"type":0,"shape":0,"lat":5.381745,"lng":103.102454,"radius":2159,"level":2,"updated_at":1447945800,"begin_at":0,"end_at":0,"name":"Sultan Mahmud Airport","city":"Kuala Terengganu","country":"MY","runway_length":0,"runway_show":0,"points":"","url":"","address":"","is_web":0},{"area_id":4870,"type":0,"shape":0,"lat":5.355829,"lng":116.164719,"radius":461,"level":2,"updated_at":1447945800,"begin_at":0,"end_at":0,"name":"Keningau Airport","city":"Keningau","country":"MY","runway_length":0,"runway_show":0,"points":"","url":"","address":"","is_web":0},{"area_id":3696,"type":0,"shape":0,"lat":5.30201,"lng":115.249849,"radius":1698,"level":2,"updated_at":1447945800,"begin_at":0,"end_at":0,"name":"Labuan Airport","city":"Labuan","country":"MY","runway_length":0,"runway_show":0,"points":"","url":"","address":"","is_web":0},{"area_id":5806,"type":0,"shape":0,"lat":5.299767,"lng":100.276327,"radius":2496,"level":2,"updated_at":1447945800,"begin_at":0,"end_at":0,"name":"Penang International Airport","city":"Penang","country":"MY","runway_length":0,"runway_show":0,"points":"","url":"","address":"","is_web":0},{"area_id":3737,"type":0,"shape":0,"lat":5.032398,"lng":118.323506,"radius":751,"level":2,"updated_at":1447945800,"begin_at":0,"end_at":0,"name":"Lahad Datu Airport","city":"Lahad Datu","country":"MY","runway_length":0,"runway_show":0,"points":"","url":"","address":"","is_web":0},{"area_id":4080,"type":0,"shape":0,"lat":4.850062,"lng":115.407917,"radius":442,"level":2,"updated_at":1447945800,"begin_at":0,"end_at":0,"name":"Lawas Airport","city":"Lawas","country":"MY","runway_length":0,"runway_show":0,"points":"","url":"","address":"","is_web":0},{"area_id":3891,"type":0,"shape":0,"lat":4.808056,"lng":115.010278,"radius":1237,"level":2,"updated_at":1447945800,"begin_at":0,"end_at":0,"name":"Limbang Airport","city":"Limbang","country":"MY","runway_length":0,"runway_show":0,"points":"","url":"","address":"","is_web":0},{"area_id":2924,"type":0,"shape":0,"lat":4.567652,"lng":101.091449,"radius":1219,"level":2,"updated_at":1447945800,"begin_at":0,"end_at":0,"name":"Sultan Azlan Shah Airport","city":"Ipoh","country":"MY","runway_length":0,"runway_show":0,"points":"","url":"","address":"","is_web":0},{"area_id":5127,"type":0,"shape":0,"lat":4.534027,"lng":103.427743,"radius":1585,"level":2,"updated_at":1447945800,"begin_at":0,"end_at":0,"name":"Kerteh Airport","city":"Kerteh","country":"MY","runway_length":0,"runway_show":0,"points":"","url":"","address":"","is_web":0},{"area_id":6817,"type":0,"shape":0,"lat":4.322626,"lng":113.986201,"radius":1552,"level":2,"updated_at":1447945800,"begin_at":0,"end_at":0,"name":"Miri Airport","city":"Miri","country":"MY","runway_length":0,"runway_show":0,"points":"","url":"","address":"","is_web":0},{"area_id":7693,"type":0,"shape":0,"lat":4.313528,"lng":118.121556,"radius":2977,"level":2,"updated_at":1447945800,"begin_at":0,"end_at":0,"name":"Tawau Airport","city":"Tawau","country":"MY","runway_length":0,"runway_show":0,"points":"","url":"","address":"","is_web":0},{"area_id":5907,"type":0,"shape":0,"lat":4.244431,"lng":100.553821,"radius":497,"level":2,"updated_at":1447945800,"begin_at":0,"end_at":0,"name":"Pulau Pangkor Airport","city":"Pangkor Island","country":"MY","runway_length":0,"runway_show":0,"points":"","url":"","address":"","is_web":0},{"area_id":6711,"type":0,"shape":0,"lat":4.178729,"lng":114.330269,"radius":724,"level":2,"updated_at":1447945800,"begin_at":0,"end_at":0,"name":"Marudi Airport","city":"Marudi","country":"MY","runway_length":0,"runway_show":0,"points":"","url":"","address":"","is_web":0},{"area_id":6840,"type":0,"shape":0,"lat":4.052214,"lng":114.810497,"radius":1157,"level":2,"updated_at":1447945800,"begin_at":0,"end_at":0,"name":"Mulu Airport","city":"Mulu","country":"MY","runway_length":0,"runway_show":0,"points":"","url":"","address":"","is_web":0},{"area_id":4478,"type":0,"shape":0,"lat":3.975956,"lng":115.067567,"radius":326,"level":2,"updated_at":1447945800,"begin_at":0,"end_at":0,"name":"Long Seridan Airport","city":"Long Seridan","country":"MY","runway_length":0,"runway_show":0,"points":"","url":"","address":"","is_web":0},{"area_id":5146,"type":0,"shape":0,"lat":3.776425,"lng":103.209264,"radius":1577,"level":2,"updated_at":1447945800,"begin_at":0,"end_at":0,"name":"Kuantan Airport","city":"Kuantan","country":"MY","runway_length":0,"runway_show":0,"points":"","url":"","address":"","is_web":0},{"area_id":3691,"type":0,"shape":0,"lat":3.202259,"lng":115.401897,"radius":297,"level":2,"updated_at":1447945800,"begin_at":0,"end_at":0,"name":"Long Banga Airport","city":"Long Banga","country":"MY","runway_length":0,"runway_show":0,"points":"","url":"","address":"","is_web":0},{"area_id":8132,"type":0,"shape":0,"lat":3.131561,"lng":101.548994,"radius":2127,"level":2,"updated_at":1447945800,"begin_at":0,"end_at":0,"name":"Selbang Airport","city":"Selbang","country":"MY","runway_length":0,"runway_show":0,"points":"","url":"","address":"","is_web":0},{"area_id":3514,"type":0,"shape":0,"lat":3.125433,"lng":113.019528,"radius":1864,"level":2,"updated_at":1447945800,"begin_at":0,"end_at":0,"name":"Bintulu Airport","city":"Bintulu","country":"MY","runway_length":0,"runway_show":0,"points":"","url":"","address":"","is_web":0},{"area_id":6460,"type":0,"shape":0,"lat":2.907144,"lng":112.077692,"radius":882,"level":2,"updated_at":1447945800,"begin_at":0,"end_at":0,"name":"Mukah Airport","city":"Mukah","country":"MY","runway_length":0,"runway_show":0,"points":"","url":"","address":"","is_web":0},{"area_id":5156,"type":0,"shape":0,"lat":2.744543,"lng":101.70287,"radius":4706,"level":2,"updated_at":1447945800,"begin_at":0,"end_at":0,"name":"Kuala Lumpur International Airport","city":"Kuala Lumpur","country":"MY","runway_length":0,"runway_show":0,"points":"","url":"","address":"","is_web":0},{"area_id":1560,"type":0,"shape":0,"lat":2.265765,"lng":102.252593,"radius":1460,"level":2,"updated_at":1447945800,"begin_at":0,"end_at":0,"name":"Lapangan Terbang Antarabangsa Melaka Airport","city":"Saga","country":"MY","runway_length":0,"runway_show":0,"points":"","url":"","address":"","is_web":0},{"area_id":8150,"type":0,"shape":0,"lat":2.261138,"lng":111.986734,"radius":1618,"level":2,"updated_at":1447945800,"begin_at":0,"end_at":0,"name":"Sibu Airport","city":"Sibu","country":"MY","runway_length":0,"runway_show":0,"points":"","url":"","address":"","is_web":0},{"area_id":7360,"type":0,"shape":0,"lat":2.178727,"lng":111.203133,"radius":1054,"level":2,"updated_at":1447945800,"begin_at":0,"end_at":0,"name":"Tanjung Manis Airport","city":"Tanjung Manis","country":"MY","runway_length":0,"runway_show":0,"points":"","url":"","address":"","is_web":0},{"area_id":10220,"type":0,"shape":0,"lat":2.041994,"lng":103.310731,"radius":353,"level":2,"updated_at":1474299341,"begin_at":0,"end_at":0,"name":"Kluang Airfield","city":"Kluang","country":"MY","runway_length":0,"runway_show":0,"points":"","url":"","address":"","is_web":0},{"area_id":5055,"type":0,"shape":0,"lat":2.010798,"lng":112.931678,"radius":273,"level":2,"updated_at":1447945800,"begin_at":0,"end_at":0,"name":"Kapit Airport","city":"Kapit","country":"MY","runway_length":0,"runway_show":0,"points":"","url":"","address":"","is_web":0},{"area_id":2637,"type":0,"shape":0,"lat":1.640239,"lng":103.669662,"radius":2434,"level":2,"updated_at":1447945800,"begin_at":0,"end_at":0,"name":"Senai International Airport","city":"Senai","country":"MY","runway_length":0,"runway_show":0,"points":"","url":"","address":"","is_web":0},{"area_id":4785,"type":0,"shape":0,"lat":1.487342,"lng":110.352272,"radius":2280,"level":2,"updated_at":1447945800,"begin_at":0,"end_at":0,"name":"Kuching International Airport","city":"Kuching","country":"MY","runway_length":0,"runway_show":0,"points":"","url":"","address":"","is_web":0}],"status":"200"}