{"data":[{"area_id":6820,"type":0,"shape":0,"lat":-11.361894,"lng":40.354843,"radius":1050,"level":2,"updated_at":1447945800,"begin_at":0,"end_at":0,"name":"Mocímboa da Praia Airport","city":"Mocímboa da Praia","country":"MZ","runway_length":0,"runway_show":0,"points":"","url":"","address":"","is_web":0},{"area_id":6697,"type":0,"shape":0,"lat":-11.673889,"lng":39.563889,"radius":1339,"level":2,"updated_at":1447945800,"begin_at":0,"end_at":0,"name":"Mueda Airport","city":"Mueda","country":"MZ","runway_length":0,"runway_show":0,"points":"","url":"","address":"","is_web":0},{"area_id":2780,"type":0,"shape":0,"lat":-12.350082,"lng":40.601994,"radius":468,"level":2,"updated_at":1447945800,"begin_at":0,"end_at":0,"name":"Ibo Airport","city":"Ibo","country":"MZ","runway_length":0,"runway_show":0,"points":"","url":"","address":"","is_web":0},{"area_id":5726,"type":0,"shape":0,"lat":-12.991608,"lng":40.524729,"radius":1575,"level":2,"updated_at":1447945800,"begin_at":0,"end_at":0,"name":"Aeroporto da Pemba","city":"Pambwa","country":"MZ","runway_length":0,"runway_show":0,"points":"","url":"","address":"","is_web":0},{"area_id":7227,"type":0,"shape":0,"lat":-13.27451,"lng":35.263401,"radius":1857,"level":2,"updated_at":1447945800,"begin_at":0,"end_at":0,"name":"Lichinga Airport","city":"Lichinga","country":"MZ","runway_length":0,"runway_show":0,"points":"","url":"","address":"","is_web":0},{"area_id":6526,"type":0,"shape":0,"lat":-14.48438,"lng":40.712926,"radius":2514,"level":2,"updated_at":1447945800,"begin_at":0,"end_at":0,"name":"Nacala Airport","city":"Nacala","country":"MZ","runway_length":0,"runway_show":0,"points":"","url":"","address":"","is_web":0},{"area_id":472,"type":0,"shape":0,"lat":-14.817492,"lng":36.528975,"radius":1309,"level":2,"updated_at":1447945800,"begin_at":0,"end_at":0,"name":"Cuamba Airport","city":"Cuamba","country":"MZ","runway_length":0,"runway_show":0,"points":"","url":"","address":"","is_web":0},{"area_id":3769,"type":0,"shape":0,"lat":-15.032991,"lng":40.671216,"radius":833,"level":2,"updated_at":1447945800,"begin_at":0,"end_at":0,"name":"Lumbo Airport","city":"Lumbo","country":"MZ","runway_length":0,"runway_show":0,"points":"","url":"","address":"","is_web":0},{"area_id":1127,"type":0,"shape":0,"lat":-15.108351,"lng":39.285071,"radius":1317,"level":2,"updated_at":1447945800,"begin_at":0,"end_at":0,"name":"Nampula Airport","city":"Nampula","country":"MZ","runway_length":0,"runway_show":0,"points":"","url":"","address":"","is_web":0},{"area_id":7303,"type":0,"shape":0,"lat":-16.104004,"lng":33.639896,"radius":2260,"level":2,"updated_at":1447945800,"begin_at":0,"end_at":0,"name":"Tete Airport","city":"Tete","country":"MZ","runway_length":0,"runway_show":0,"points":"","url":"","address":"","is_web":0},{"area_id":1086,"type":0,"shape":0,"lat":-16.181888,"lng":39.944352,"radius":627,"level":2,"updated_at":1447945800,"begin_at":0,"end_at":0,"name":"Angoche Airport","city":"Angoche","country":"MZ","runway_length":0,"runway_show":0,"points":"","url":"","address":"","is_web":0},{"area_id":1929,"type":0,"shape":0,"lat":-17.832862,"lng":35.333937,"radius":472,"level":2,"updated_at":1447945800,"begin_at":0,"end_at":0,"name":"Caia Airport","city":"Caia","country":"MZ","runway_length":0,"runway_show":0,"points":"","url":"","address":"","is_web":0},{"area_id":6883,"type":0,"shape":0,"lat":-17.855427,"lng":36.868588,"radius":977,"level":2,"updated_at":1447945800,"begin_at":0,"end_at":0,"name":"Quelimane Airport","city":"Quelimane","country":"MZ","runway_length":0,"runway_show":0,"points":"","url":"","address":"","is_web":0},{"area_id":7186,"type":0,"shape":0,"lat":-19.150422,"lng":33.427076,"radius":1431,"level":2,"updated_at":1447945800,"begin_at":0,"end_at":0,"name":"Chimoio Airport","city":"Chimoio","country":"MZ","runway_length":0,"runway_show":0,"points":"","url":"","address":"","is_web":0},{"area_id":3151,"type":0,"shape":0,"lat":-19.796824,"lng":34.908798,"radius":1975,"level":2,"updated_at":1447945800,"begin_at":0,"end_at":0,"name":"Beira Airport","city":"Beira","country":"MZ","runway_length":0,"runway_show":0,"points":"","url":"","address":"","is_web":0},{"area_id":2779,"type":0,"shape":0,"lat":-21.706808,"lng":35.451942,"radius":761,"level":2,"updated_at":1447945800,"begin_at":0,"end_at":0,"name":"Indigo Bay Lodge Airport","city":"Bazaruto Island","country":"MZ","runway_length":0,"runway_show":0,"points":"","url":"","address":"","is_web":0},{"area_id":7172,"type":0,"shape":0,"lat":-22.017112,"lng":35.312071,"radius":907,"level":2,"updated_at":1447945800,"begin_at":0,"end_at":0,"name":"Vilankulo Airport","city":"Vilanculo","country":"MZ","runway_length":0,"runway_show":0,"points":"","url":"","address":"","is_web":0},{"area_id":2893,"type":0,"shape":0,"lat":-23.876308,"lng":35.408237,"radius":844,"level":2,"updated_at":1447945800,"begin_at":0,"end_at":0,"name":"Inhambane Airport","city":"Inhambabe","country":"MZ","runway_length":0,"runway_show":0,"points":"","url":"","address":"","is_web":0},{"area_id":6580,"type":0,"shape":0,"lat":-25.907215,"lng":32.580609,"radius":2823,"level":2,"updated_at":1447945800,"begin_at":0,"end_at":0,"name":"Aeroporto Internacional de Maputo","city":"Maputo","country":"MZ","runway_length":0,"runway_show":0,"points":"","url":"","address":"","is_web":0},{"area_id":2832,"type":0,"shape":0,"lat":-25.998149,"lng":32.929259,"radius":413,"level":2,"updated_at":1447945800,"begin_at":0,"end_at":0,"name":"Inhaca Airport","city":"Inhaca","country":"MZ","runway_length":0,"runway_show":0,"points":"","url":"","address":"","is_web":0}],"status":"200"}