{"data":[{"area_id":1112,"type":0,"shape":0,"lat":-2.795811,"lng":-76.466859,"radius":1230,"level":2,"updated_at":1447945800,"begin_at":0,"end_at":0,"name":"Alferez FAP Alfredo Vladimir Sara Bauer Airport","city":"Andoas","country":"PE","runway_length":0,"runway_show":0,"points":"","url":"","address":"","is_web":0},{"area_id":7273,"type":0,"shape":0,"lat":-3.552275,"lng":-80.381078,"radius":1506,"level":2,"updated_at":1447945800,"begin_at":0,"end_at":0,"name":"Capitan FAP Pedro Canga Rodriguez Airport","city":"Tumbes","country":"PE","runway_length":0,"runway_show":0,"points":"","url":"","address":"","is_web":0},{"area_id":2935,"type":0,"shape":0,"lat":-3.784722,"lng":-73.308611,"radius":1344,"level":2,"updated_at":1447945800,"begin_at":0,"end_at":0,"name":"Coronel FAP Francisco Secada Vignetta International Airport","city":"Iquitos","country":"PE","runway_length":0,"runway_show":0,"points":"","url":"","address":"","is_web":0},{"area_id":7317,"type":0,"shape":0,"lat":-3.806008,"lng":-75.039292,"radius":1081,"level":2,"updated_at":1447945800,"begin_at":0,"end_at":0,"name":"Trompeteros Airport","city":"Corrientes","country":"PE","runway_length":0,"runway_show":0,"points":"","url":"","address":"","is_web":0},{"area_id":10124,"type":0,"shape":0,"lat":-3.916052,"lng":-70.507759,"radius":1005,"level":2,"updated_at":1447945800,"begin_at":0,"end_at":0,"name":"Caballococha Airport","city":"Caballococha","country":"PE","runway_length":0,"runway_show":0,"points":"","url":"","address":"","is_web":0},{"area_id":7710,"type":0,"shape":0,"lat":-4.576742,"lng":-81.254694,"radius":1333,"level":2,"updated_at":1447945800,"begin_at":0,"end_at":0,"name":"Capitan Montes Airport","city":"","country":"PE","runway_length":0,"runway_show":0,"points":"","url":"","address":"","is_web":0},{"area_id":5889,"type":0,"shape":0,"lat":-5.206418,"lng":-80.616387,"radius":1403,"level":2,"updated_at":1447945800,"begin_at":0,"end_at":0,"name":"Capitán FAP Guillermo Concha Iberico International Airport","city":"Piura","country":"PE","runway_length":0,"runway_show":0,"points":"","url":"","address":"","is_web":0},{"area_id":10125,"type":0,"shape":0,"lat":-5.591641,"lng":-78.773861,"radius":1488,"level":2,"updated_at":1447945800,"begin_at":0,"end_at":0,"name":"Aeropuerto de Shumba","city":"NULL","country":"PE","runway_length":0,"runway_show":0,"points":"","url":"","address":"","is_web":0},{"area_id":9095,"type":0,"shape":0,"lat":-5.89355,"lng":-76.118794,"radius":1055,"level":2,"updated_at":1447945800,"begin_at":0,"end_at":0,"name":"Moises Benzaquen Rengifo Airport","city":"Yurimaguas","country":"PE","runway_length":0,"runway_show":0,"points":"","url":"","address":"","is_web":0},{"area_id":5363,"type":0,"shape":0,"lat":-6.067277,"lng":-77.160401,"radius":1083,"level":2,"updated_at":1447945800,"begin_at":0,"end_at":0,"name":"Juan Simons Vela Airport","city":"Rioja","country":"PE","runway_length":0,"runway_show":0,"points":"","url":"","address":"","is_web":0},{"area_id":1807,"type":0,"shape":0,"lat":-6.201948,"lng":-77.855711,"radius":1140,"level":2,"updated_at":1447945800,"begin_at":0,"end_at":0,"name":"Chachapoyas Airport","city":"Chachapoyas","country":"PE","runway_length":0,"runway_show":0,"points":"","url":"","address":"","is_web":0},{"area_id":5366,"type":0,"shape":0,"lat":-6.392068,"lng":-77.501806,"radius":1082,"level":2,"updated_at":1447945800,"begin_at":0,"end_at":0,"name":"San Nicolas Airport","city":"Rodriguez de Mendoza","country":"PE","runway_length":0,"runway_show":0,"points":"","url":"","address":"","is_web":0},{"area_id":1847,"type":0,"shape":0,"lat":-6.786753,"lng":-79.828097,"radius":1390,"level":2,"updated_at":1447945800,"begin_at":0,"end_at":0,"name":"Capitan FAP Jose A Quinones Gonzales International Airport","city":"Chiclayo","country":"PE","runway_length":0,"runway_show":0,"points":"","url":"","address":"","is_web":0},{"area_id":1849,"type":0,"shape":0,"lat":-7.139659,"lng":-78.489355,"radius":1384,"level":2,"updated_at":1447945800,"begin_at":0,"end_at":0,"name":"Mayor General FAP Armando Revoredo Iglesias Airport","city":"Cajamarca","country":"PE","runway_length":0,"runway_show":0,"points":"","url":"","address":"","is_web":0},{"area_id":2660,"type":0,"shape":0,"lat":-7.166943,"lng":-76.727335,"radius":1427,"level":2,"updated_at":1447945800,"begin_at":0,"end_at":0,"name":"Juanjui Airport","city":"Juanjuí","country":"PE","runway_length":0,"runway_show":0,"points":"","url":"","address":"","is_web":0},{"area_id":7603,"type":0,"shape":0,"lat":-8.082143,"lng":-79.107591,"radius":1717,"level":2,"updated_at":1447945800,"begin_at":0,"end_at":0,"name":"Capitan FAP Carlos Martinez De Pinillos International Airport","city":"Trujillo","country":"PE","runway_length":0,"runway_show":0,"points":"","url":"","address":"","is_web":0},{"area_id":7366,"type":0,"shape":0,"lat":-9.289111,"lng":-76.005226,"radius":1174,"level":2,"updated_at":1447945800,"begin_at":0,"end_at":0,"name":"Tingo Maria Airport","city":"Tingo Maria","country":"PE","runway_length":0,"runway_show":0,"points":"","url":"","address":"","is_web":0},{"area_id":1201,"type":0,"shape":0,"lat":-9.347618,"lng":-77.599187,"radius":1547,"level":2,"updated_at":1447945800,"begin_at":0,"end_at":0,"name":"Comandante FAP German Arias Graziani Airport","city":"Anta","country":"PE","runway_length":0,"runway_show":0,"points":"","url":"","address":"","is_web":0},{"area_id":1600,"type":0,"shape":0,"lat":-9.878171,"lng":-76.20451,"radius":1427,"level":2,"updated_at":1447945800,"begin_at":0,"end_at":0,"name":"Alferez Fap David Figueroa Fernandini Airport","city":"Huánuco","country":"PE","runway_length":0,"runway_show":0,"points":"","url":"","address":"","is_web":0},{"area_id":2781,"type":0,"shape":0,"lat":-11.411082,"lng":-69.488398,"radius":746,"level":2,"updated_at":1447945800,"begin_at":0,"end_at":0,"name":"Iberia Airport","city":"Iberia","country":"PE","runway_length":0,"runway_show":0,"points":"","url":"","address":"","is_web":0},{"area_id":2589,"type":0,"shape":0,"lat":-11.784048,"lng":-75.473585,"radius":1507,"level":2,"updated_at":1447945800,"begin_at":0,"end_at":0,"name":"Francisco Carle Airport","city":"Jauja","country":"PE","runway_length":0,"runway_show":0,"points":"","url":"","address":"","is_web":0},{"area_id":3825,"type":0,"shape":0,"lat":-12.020527,"lng":-77.11195,"radius":2077,"level":2,"updated_at":1447945800,"begin_at":0,"end_at":0,"name":"Jorge Chávez International Airport","city":"Lima","country":"PE","runway_length":0,"runway_show":0,"points":"","url":"","address":"","is_web":0},{"area_id":5805,"type":0,"shape":0,"lat":-12.612272,"lng":-69.228756,"radius":2025,"level":2,"updated_at":1447945800,"begin_at":0,"end_at":0,"name":"Padre Aldamiz International Airport","city":"Puerto Maldonado","country":"PE","runway_length":0,"runway_show":0,"points":"","url":"","address":"","is_web":0},{"area_id":1295,"type":0,"shape":0,"lat":-13.15487,"lng":-74.204341,"radius":1528,"level":2,"updated_at":1447945800,"begin_at":0,"end_at":0,"name":"Aeropuerto Coronel FAP Alfredo Mendivil Duarte","city":"Ayacucho","country":"PE","runway_length":0,"runway_show":0,"points":"","url":"","address":"","is_web":0},{"area_id":2102,"type":0,"shape":0,"lat":-13.536023,"lng":-71.937383,"radius":2050,"level":2,"updated_at":1447945800,"begin_at":0,"end_at":0,"name":"Alejandro Velasco Astete International Airport","city":"Cusco","country":"PE","runway_length":0,"runway_show":0,"points":"","url":"","address":"","is_web":0},{"area_id":1090,"type":0,"shape":0,"lat":-13.709897,"lng":-73.352326,"radius":1626,"level":2,"updated_at":1447945800,"begin_at":0,"end_at":0,"name":"Andahuaylas Airport","city":"Andahuaylas","country":"PE","runway_length":0,"runway_show":0,"points":"","url":"","address":"","is_web":0},{"area_id":4429,"type":0,"shape":0,"lat":-14.85427,"lng":-74.961168,"radius":561,"level":2,"updated_at":1447945800,"begin_at":0,"end_at":0,"name":"Maria Reiche Neuman Airport","city":"Nazca","country":"PE","runway_length":0,"runway_show":0,"points":"","url":"","address":"","is_web":0},{"area_id":5899,"type":0,"shape":0,"lat":-15.357632,"lng":-75.134385,"radius":1242,"level":2,"updated_at":1447945800,"begin_at":0,"end_at":0,"name":"Aeropuerto Naval Marcona","city":"Port San Juan","country":"PE","runway_length":0,"runway_show":0,"points":"","url":"","address":"","is_web":0},{"area_id":2744,"type":0,"shape":0,"lat":-15.468319,"lng":-70.15753,"radius":2309,"level":2,"updated_at":1447945800,"begin_at":0,"end_at":0,"name":"Inca Manco Capac International Airport","city":"Juliaca","country":"PE","runway_length":0,"runway_show":0,"points":"","url":"","address":"","is_web":0},{"area_id":1147,"type":0,"shape":0,"lat":-16.342671,"lng":-71.570396,"radius":1768,"level":2,"updated_at":1447945800,"begin_at":0,"end_at":0,"name":"Rodríguez Ballón International Airport","city":"Arequipa","country":"PE","runway_length":0,"runway_show":0,"points":"","url":"","address":"","is_web":0},{"area_id":2866,"type":0,"shape":0,"lat":-17.69259,"lng":-71.343145,"radius":1483,"level":2,"updated_at":1447945800,"begin_at":0,"end_at":0,"name":"Ilo Airport","city":"Ilo","country":"PE","runway_length":0,"runway_show":0,"points":"","url":"","address":"","is_web":0},{"area_id":7298,"type":0,"shape":0,"lat":-18.054688,"lng":-70.276412,"radius":1698,"level":2,"updated_at":1447945800,"begin_at":0,"end_at":0,"name":"Coronel FAP Carlos Ciriani Santa Rosa International Airport","city":"Tacna","country":"PE","runway_length":0,"runway_show":0,"points":"","url":"","address":"","is_web":0}],"status":"200"}