{"data":[{"area_id":3181,"type":0,"shape":0,"lat":41.857859,"lng":-6.706917,"radius":971,"level":2,"updated_at":1447945800,"begin_at":0,"end_at":0,"name":"Braganca Airport","city":"","country":"PT","runway_length":0,"runway_show":0,"points":"","url":"","address":"","is_web":0},{"area_id":1819,"type":0,"shape":0,"lat":41.722592,"lng":-7.462978,"radius":535,"level":2,"updated_at":1447945800,"begin_at":0,"end_at":0,"name":"Chaves Airport","city":"Chaves","country":"PT","runway_length":0,"runway_show":0,"points":"","url":"","address":"","is_web":0},{"area_id":31788,"type":1,"shape":0,"lat":41.562528,"lng":-8.429889,"radius":500,"level":2,"updated_at":1447945800,"begin_at":0,"end_at":0,"name":"Estadio Municipal de Braga","city":"Braga","country":"PT","runway_length":0,"runway_show":0,"points":"","url":"","address":"","is_web":0},{"area_id":31814,"type":1,"shape":0,"lat":41.5388,"lng":-8.4209,"radius":500,"level":2,"updated_at":1447945800,"begin_at":0,"end_at":0,"name":"Estadio Primeiro de Maio","city":"Braga","country":"PT","runway_length":0,"runway_show":0,"points":"","url":"","address":"","is_web":0},{"area_id":31790,"type":1,"shape":0,"lat":41.445833,"lng":-8.301111,"radius":500,"level":2,"updated_at":1447945800,"begin_at":0,"end_at":0,"name":"Estadio D. Afonso Henriques","city":"Guimaraes","country":"PT","runway_length":0,"runway_show":0,"points":"","url":"","address":"","is_web":0},{"area_id":7194,"type":0,"shape":0,"lat":41.274095,"lng":-7.721034,"radius":559,"level":2,"updated_at":1447945800,"begin_at":0,"end_at":0,"name":"Vila Real Airport","city":"","country":"PT","runway_length":0,"runway_show":0,"points":"","url":"","address":"","is_web":0},{"area_id":10846,"type":1,"shape":0,"lat":41.207468,"lng":-8.638762,"radius":207,"level":0,"updated_at":1459939260,"begin_at":0,"end_at":0,"name":"Estabelecimento Prisional Do Portota","city":"Leça do Balio","country":"PT","runway_length":0,"runway_show":0,"points":"","url":"","address":"","is_web":0},{"area_id":31820,"type":1,"shape":0,"lat":41.162222,"lng":-8.642778,"radius":500,"level":2,"updated_at":1447945800,"begin_at":0,"end_at":0,"name":"Estadio do Bessa","city":"Porto","country":"PT","runway_length":0,"runway_show":0,"points":"","url":"","address":"","is_web":0},{"area_id":31642,"type":1,"shape":0,"lat":41.161758,"lng":-8.583933,"radius":500,"level":2,"updated_at":1447945800,"begin_at":0,"end_at":0,"name":"Estadio do Dragao","city":"Porto","country":"PT","runway_length":0,"runway_show":0,"points":"","url":"","address":"","is_web":0},{"area_id":10001,"type":0,"shape":0,"lat":40.915936,"lng":-8.646431,"radius":1768,"level":2,"updated_at":1447945800,"begin_at":0,"end_at":0,"name":"Ovar","city":"Arada","country":"PT","runway_length":0,"runway_show":0,"points":"","url":"","address":"","is_web":0},{"area_id":7201,"type":0,"shape":0,"lat":40.725568,"lng":-7.889214,"radius":701,"level":2,"updated_at":1447945800,"begin_at":0,"end_at":0,"name":"Viseu Airport","city":"","country":"PT","runway_length":0,"runway_show":0,"points":"","url":"","address":"","is_web":0},{"area_id":31773,"type":1,"shape":0,"lat":40.6475,"lng":-8.593611,"radius":500,"level":2,"updated_at":1447945800,"begin_at":0,"end_at":0,"name":"Estadio Municipal de Aveiro","city":"Aveiro, Portugal","country":"PT","runway_length":0,"runway_show":0,"points":"","url":"","address":"","is_web":0},{"area_id":31786,"type":1,"shape":0,"lat":40.203333,"lng":-8.407778,"radius":500,"level":2,"updated_at":1447945800,"begin_at":0,"end_at":0,"name":"Estadio Cidade de Coimbra","city":"Coimbra","country":"PT","runway_length":0,"runway_show":0,"points":"","url":"","address":"","is_web":0},{"area_id":1675,"type":0,"shape":0,"lat":40.158273,"lng":-8.469785,"radius":684,"level":2,"updated_at":1447945800,"begin_at":0,"end_at":0,"name":"Coimbra Airport","city":"","country":"PT","runway_length":0,"runway_show":0,"points":"","url":"","address":"","is_web":0},{"area_id":10847,"type":1,"shape":0,"lat":39.825819,"lng":-7.486437,"radius":95,"level":0,"updated_at":1459939260,"begin_at":0,"end_at":0,"name":"Estabelecimento Prisional De Castelo Branco","city":"Seara","country":"PT","runway_length":0,"runway_show":0,"points":"","url":"","address":"","is_web":0},{"area_id":2119,"type":0,"shape":0,"lat":39.671277,"lng":-31.1163,"radius":508,"level":2,"updated_at":1447945800,"begin_at":0,"end_at":0,"name":"Corvo Airport","city":"Corvo","country":"PT","runway_length":0,"runway_show":0,"points":"","url":"","address":"","is_web":0},{"area_id":10003,"type":0,"shape":0,"lat":39.475195,"lng":-8.37337,"radius":1357,"level":2,"updated_at":1447945800,"begin_at":0,"end_at":0,"name":"Tancos","city":"Praia do Ribatejo","country":"PT","runway_length":0,"runway_show":0,"points":"","url":"","address":"","is_web":0},{"area_id":5552,"type":0,"shape":0,"lat":39.455226,"lng":-31.131659,"radius":808,"level":2,"updated_at":1447945800,"begin_at":0,"end_at":0,"name":"Flores Airport","city":"Santa Cruz das Flores","country":"PT","runway_length":0,"runway_show":0,"points":"","url":"","address":"","is_web":0},{"area_id":4452,"type":0,"shape":0,"lat":39.390693,"lng":-9.198115,"radius":339,"level":2,"updated_at":1474294984,"begin_at":0,"end_at":0,"name":"Aeródromo de Óbidos","city":"Óbidos","country":"PT","runway_length":0,"runway_show":0,"points":"","url":"","address":"","is_web":0},{"area_id":2463,"type":0,"shape":0,"lat":39.09236,"lng":-28.029648,"radius":726,"level":2,"updated_at":1447945800,"begin_at":0,"end_at":0,"name":"Graciosa Airport","city":"Santa Cruz da Graciosa","country":"PT","runway_length":0,"runway_show":0,"points":"","url":"","address":"","is_web":0},{"area_id":9999,"type":0,"shape":0,"lat":38.885032,"lng":-9.031533,"radius":1781,"level":2,"updated_at":1447945800,"begin_at":0,"end_at":0,"name":"Alverca","city":"Alverca do Ribatejo","country":"PT","runway_length":0,"runway_show":0,"points":"","url":"","address":"","is_web":0},{"area_id":10002,"type":0,"shape":0,"lat":38.832084,"lng":-9.33772,"radius":1112,"level":2,"updated_at":1447945800,"begin_at":0,"end_at":0,"name":"Base Aérea Nº 1","city":"Pêro Pinheiro","country":"PT","runway_length":0,"runway_show":0,"points":"","url":"","address":"","is_web":0},{"area_id":3831,"type":0,"shape":0,"lat":38.781482,"lng":-9.134177,"radius":2156,"level":2,"updated_at":1447945800,"begin_at":0,"end_at":0,"name":"Lisbon Portela Airport","city":"Lisbon","country":"PT","runway_length":0,"runway_show":0,"points":"","url":"","address":"","is_web":0},{"area_id":3660,"type":0,"shape":0,"lat":38.765325,"lng":-27.093037,"radius":1962,"level":2,"updated_at":1447945800,"begin_at":0,"end_at":0,"name":"Lages Airport","city":"Lages","country":"PT","runway_length":0,"runway_show":0,"points":"","url":"","address":"","is_web":0},{"area_id":31649,"type":1,"shape":0,"lat":38.761194,"lng":-9.160783,"radius":500,"level":2,"updated_at":1447945800,"begin_at":0,"end_at":0,"name":"Estadio Jose Alvalade","city":"Lisbon","country":"PT","runway_length":0,"runway_show":0,"points":"","url":"","address":"","is_web":0},{"area_id":10838,"type":1,"shape":0,"lat":38.744109,"lng":-9.163329,"radius":26,"level":0,"updated_at":1459939260,"begin_at":0,"end_at":0,"name":"Embaixada dos Estados Unidos da América","city":"Lisboa","country":"PT","runway_length":0,"runway_show":0,"points":"","url":"","address":"","is_web":0},{"area_id":10841,"type":1,"shape":0,"lat":38.734205,"lng":-9.138021,"radius":88,"level":0,"updated_at":1459939260,"begin_at":0,"end_at":0,"name":"Посольство России в Португалии","city":"Lisboa","country":"PT","runway_length":0,"runway_show":0,"points":"","url":"","address":"","is_web":0},{"area_id":10848,"type":1,"shape":0,"lat":38.734117,"lng":-9.189801,"radius":123,"level":0,"updated_at":1459939260,"begin_at":0,"end_at":0,"name":"Estabelecimento Prisional De Monsanto","city":"Lisboa","country":"PT","runway_length":0,"runway_show":0,"points":"","url":"","address":"","is_web":0},{"area_id":10839,"type":1,"shape":0,"lat":38.721311,"lng":-9.140882,"radius":110,"level":0,"updated_at":1459939260,"begin_at":0,"end_at":0,"name":"Embaixada da República Federal da Alemanha","city":"Lisboa","country":"PT","runway_length":0,"runway_show":0,"points":"","url":"","address":"","is_web":0},{"area_id":10843,"type":1,"shape":0,"lat":38.72015,"lng":-9.146272,"radius":19,"level":0,"updated_at":1459939260,"begin_at":0,"end_at":0,"name":"Embaixada Do Canada","city":"Lisboa","country":"PT","runway_length":0,"runway_show":0,"points":"","url":"","address":"","is_web":0},{"area_id":10840,"type":1,"shape":0,"lat":38.716184,"lng":-9.157716,"radius":110,"level":0,"updated_at":1459939260,"begin_at":0,"end_at":0,"name":"Embaixada Britânica","city":"Lisboa","country":"PT","runway_length":0,"runway_show":0,"points":"","url":"","address":"","is_web":0},{"area_id":10747,"type":1,"shape":0,"lat":38.713443,"lng":-9.154637,"radius":195,"level":0,"updated_at":1459939260,"begin_at":0,"end_at":0,"name":"Palacete de São Bento","city":"Lisboa","country":"PT","runway_length":0,"runway_show":0,"points":"","url":"","address":"","is_web":0},{"area_id":10000,"type":0,"shape":0,"lat":38.710324,"lng":-9.024855,"radius":1934,"level":2,"updated_at":1447945800,"begin_at":0,"end_at":0,"name":"Montijo Air Base","city":"Montijo","country":"PT","runway_length":0,"runway_show":0,"points":"","url":"","address":"","is_web":0},{"area_id":31700,"type":1,"shape":0,"lat":38.708817,"lng":-9.260842,"radius":500,"level":2,"updated_at":1447945800,"begin_at":0,"end_at":0,"name":"Estadio Nacional","city":"Oeiras Municipality, Portugal","country":"PT","runway_length":0,"runway_show":0,"points":"","url":"","address":"","is_web":0},{"area_id":10844,"type":1,"shape":0,"lat":38.707155,"lng":-9.170226,"radius":187,"level":0,"updated_at":1459939260,"begin_at":0,"end_at":0,"name":"Departamento de Direcção e Serviços Europeus - Ministério Dos Negócios Estrangeiros","city":"Lisboa","country":"PT","runway_length":0,"runway_show":0,"points":"","url":"","address":"","is_web":0},{"area_id":10842,"type":1,"shape":0,"lat":38.701575,"lng":-9.217953,"radius":77,"level":0,"updated_at":1459939260,"begin_at":0,"end_at":0,"name":"Nigerian Embassy Lisbon","city":"Lisboa","country":"PT","runway_length":0,"runway_show":0,"points":"","url":"","address":"","is_web":0},{"area_id":8345,"type":0,"shape":0,"lat":38.665619,"lng":-28.175666,"radius":711,"level":2,"updated_at":1447945800,"begin_at":0,"end_at":0,"name":"São Jorge Airport","city":"Velas","country":"PT","runway_length":0,"runway_show":0,"points":"","url":"","address":"","is_web":0},{"area_id":10849,"type":1,"shape":0,"lat":38.576647,"lng":-7.903255,"radius":76,"level":2,"updated_at":1474299721,"begin_at":0,"end_at":0,"name":"Estabelecimento Prisional de Évora","city":"Évora","country":"PT","runway_length":0,"runway_show":0,"points":"","url":"","address":"","is_web":0},{"area_id":5892,"type":0,"shape":0,"lat":38.55235,"lng":-28.443345,"radius":1213,"level":2,"updated_at":1447945800,"begin_at":0,"end_at":0,"name":"Pico Airport","city":"Pico Island","country":"PT","runway_length":0,"runway_show":0,"points":"","url":"","address":"","is_web":0},{"area_id":1526,"type":0,"shape":0,"lat":38.52,"lng":-28.716389,"radius":907,"level":2,"updated_at":1447945800,"begin_at":0,"end_at":0,"name":"Horta Airport","city":"Horta","country":"PT","runway_length":0,"runway_show":0,"points":"","url":"","address":"","is_web":0},{"area_id":5783,"type":0,"shape":0,"lat":37.742355,"lng":-25.699207,"radius":1453,"level":2,"updated_at":1447945800,"begin_at":0,"end_at":0,"name":"João Paulo II Airport","city":"Ponta Delgada","country":"PT","runway_length":0,"runway_show":0,"points":"","url":"","address":"","is_web":0},{"area_id":6059,"type":0,"shape":0,"lat":37.149269,"lng":-8.583756,"radius":515,"level":2,"updated_at":1447945800,"begin_at":0,"end_at":0,"name":"Portimao Airport","city":"","country":"PT","runway_length":0,"runway_show":0,"points":"","url":"","address":"","is_web":0},{"area_id":31784,"type":1,"shape":0,"lat":37.088333,"lng":-7.974722,"radius":500,"level":2,"updated_at":1447945800,"begin_at":0,"end_at":0,"name":"Estadio Algarve","city":"Faro, Portugal","country":"PT","runway_length":0,"runway_show":0,"points":"","url":"","address":"","is_web":0},{"area_id":10845,"type":1,"shape":0,"lat":37.024308,"lng":-7.942316,"radius":98,"level":0,"updated_at":1459939260,"begin_at":0,"end_at":0,"name":"Estabelecimento Prisional de Faro","city":"Faro","country":"PT","runway_length":0,"runway_show":0,"points":"","url":"","address":"","is_web":0},{"area_id":268,"type":0,"shape":0,"lat":37.016706,"lng":-7.970494,"radius":1482,"level":2,"updated_at":1447945800,"begin_at":0,"end_at":0,"name":"Faro Airport","city":"Faro","country":"PT","runway_length":0,"runway_show":0,"points":"","url":"","address":"","is_web":0},{"area_id":6177,"type":0,"shape":0,"lat":33.07494,"lng":-16.350033,"radius":2215,"level":2,"updated_at":1447945800,"begin_at":0,"end_at":0,"name":"Porto Santo Airport","city":"Vila Baleira","country":"PT","runway_length":0,"runway_show":0,"points":"","url":"","address":"","is_web":0},{"area_id":380,"type":0,"shape":0,"lat":32.698253,"lng":-16.773727,"radius":1381,"level":2,"updated_at":1447945800,"begin_at":0,"end_at":0,"name":"Madeira Airport","city":"Funchal","country":"PT","runway_length":0,"runway_show":0,"points":"","url":"","address":"","is_web":0}],"status":"200"}