{"data":[{"area_id":4552,"type":0,"shape":0,"lat":-21.045833,"lng":-57.882778,"radius":804,"level":2,"updated_at":1447945800,"begin_at":0,"end_at":0,"name":"Fuerte Olimpo Airport","city":"Fuerte Olimpo","country":"PY","runway_length":0,"runway_show":0,"points":"","url":"","address":"","is_web":0},{"area_id":196,"type":0,"shape":0,"lat":-22.04715,"lng":-60.621566,"radius":2322,"level":2,"updated_at":1447945800,"begin_at":0,"end_at":0,"name":"Dr. Luis Maria Argaña International Airport","city":"Mariscal Estigarribia","country":"PY","runway_length":0,"runway_show":0,"points":"","url":"","address":"","is_web":0},{"area_id":7161,"type":0,"shape":0,"lat":-22.158092,"lng":-57.942922,"radius":830,"level":2,"updated_at":1447945800,"begin_at":0,"end_at":0,"name":"Dr Juan Plate Airport","city":"Puerto Vallemi","country":"PY","runway_length":0,"runway_show":0,"points":"","url":"","address":"","is_web":0},{"area_id":681,"type":0,"shape":0,"lat":-22.202227,"lng":-54.926452,"radius":1121,"level":2,"updated_at":1447945800,"begin_at":0,"end_at":0,"name":"Dourados Airport","city":"Dourados","country":"PY","runway_length":0,"runway_show":0,"points":"","url":"","address":"","is_web":0},{"area_id":355,"type":0,"shape":0,"lat":-22.359766,"lng":-60.053803,"radius":873,"level":2,"updated_at":1447945800,"begin_at":0,"end_at":0,"name":"Filadelfia Airport","city":"Filadelfia","country":"PY","runway_length":0,"runway_show":0,"points":"","url":"","address":"","is_web":0},{"area_id":5896,"type":0,"shape":0,"lat":-22.641269,"lng":-55.829833,"radius":1572,"level":2,"updated_at":1447945800,"begin_at":0,"end_at":0,"name":"Dr Augusto Roberto Fuster International Airport","city":"Pedro Juan Caballero","country":"PY","runway_length":0,"runway_show":0,"points":"","url":"","address":"","is_web":0},{"area_id":1750,"type":0,"shape":0,"lat":-23.441962,"lng":-57.427335,"radius":1125,"level":2,"updated_at":1447945800,"begin_at":0,"end_at":0,"name":"Concepción Airport","city":"Concepción","country":"PY","runway_length":0,"runway_show":0,"points":"","url":"","address":"","is_web":0},{"area_id":1195,"type":0,"shape":0,"lat":-25.242904,"lng":-57.517285,"radius":2195,"level":2,"updated_at":1447945800,"begin_at":0,"end_at":0,"name":"Silvio Pettirossi International Airport","city":"Asunción","country":"PY","runway_length":0,"runway_show":0,"points":"","url":"","address":"","is_web":0},{"area_id":936,"type":0,"shape":0,"lat":-25.456624,"lng":-54.844068,"radius":2416,"level":2,"updated_at":1447945800,"begin_at":0,"end_at":0,"name":"Guarani International Airport","city":"Ciudad del Este","country":"PY","runway_length":0,"runway_show":0,"points":"","url":"","address":"","is_web":0},{"area_id":5880,"type":0,"shape":0,"lat":-26.880833,"lng":-58.318333,"radius":832,"level":2,"updated_at":1447945800,"begin_at":0,"end_at":0,"name":"Carlos Miguel Gimenez Airport","city":"Pilar","country":"PY","runway_length":0,"runway_show":0,"points":"","url":"","address":"","is_web":0},{"area_id":146,"type":0,"shape":0,"lat":-27.227316,"lng":-55.837071,"radius":1246,"level":2,"updated_at":1447945800,"begin_at":0,"end_at":0,"name":"Encarnación Airport","city":"Encarnación","country":"PY","runway_length":0,"runway_show":0,"points":"","url":"","address":"","is_web":0},{"area_id":1304,"type":0,"shape":0,"lat":-27.371665,"lng":-56.854306,"radius":1270,"level":2,"updated_at":1447945800,"begin_at":0,"end_at":0,"name":"Juan De Ayolas Airport","city":"Ayolas","country":"PY","runway_length":0,"runway_show":0,"points":"","url":"","address":"","is_web":0}],"status":"200"}