{"data":[{"area_id":3111,"type":0,"shape":0,"lat":-3.724001,"lng":55.206021,"radius":607,"level":2,"updated_at":1447945800,"begin_at":0,"end_at":0,"name":"Bird Island Airport","city":"Bird Island","country":"SC","runway_length":0,"runway_show":0,"points":"","url":"","address":"","is_web":0},{"area_id":540,"type":0,"shape":0,"lat":-3.802108,"lng":55.667599,"radius":469,"level":2,"updated_at":1447945800,"begin_at":0,"end_at":0,"name":"Denis Island Airport","city":"Denis Island","country":"SC","runway_length":0,"runway_show":0,"points":"","url":"","address":"","is_web":0},{"area_id":6055,"type":0,"shape":0,"lat":-4.319167,"lng":55.691389,"radius":728,"level":2,"updated_at":1447945800,"begin_at":0,"end_at":0,"name":"Praslin Airport","city":"Praslin Island","country":"SC","runway_length":0,"runway_show":0,"points":"","url":"","address":"","is_web":0},{"area_id":8224,"type":0,"shape":0,"lat":-4.673493,"lng":55.52107,"radius":1730,"level":2,"updated_at":1447945800,"begin_at":0,"end_at":0,"name":"Seychelles International Airport","city":"Mahe Island","country":"SC","runway_length":0,"runway_show":0,"points":"","url":"","address":"","is_web":0},{"area_id":547,"type":0,"shape":0,"lat":-5.69624,"lng":53.655911,"radius":770,"level":2,"updated_at":1447945800,"begin_at":0,"end_at":0,"name":"Desroches Airport","city":"Desroches Island","country":"SC","runway_length":0,"runway_show":0,"points":"","url":"","address":"","is_web":0}],"status":"200"}