{"data":[{"area_id":6200,"type":0,"shape":0,"lat":19.435793,"lng":37.235674,"radius":1667,"level":2,"updated_at":1447945800,"begin_at":0,"end_at":0,"name":"Port Sudan New International Airport","city":"Port Sudan","country":"SD","runway_length":0,"runway_show":0,"points":"","url":"","address":"","is_web":0},{"area_id":670,"type":0,"shape":0,"lat":19.153635,"lng":30.429912,"radius":1625,"level":2,"updated_at":1447945800,"begin_at":0,"end_at":0,"name":"Dongola Airport","city":"Dongola","country":"SD","runway_length":0,"runway_show":0,"points":"","url":"","address":"","is_web":0},{"area_id":6749,"type":0,"shape":0,"lat":18.442602,"lng":31.842884,"radius":2212,"level":2,"updated_at":1447945800,"begin_at":0,"end_at":0,"name":"Merowe Airport","city":"Merowe","country":"SD","runway_length":0,"runway_show":0,"points":"","url":"","address":"","is_web":0},{"area_id":1202,"type":0,"shape":0,"lat":17.709508,"lng":34.057179,"radius":1265,"level":2,"updated_at":1447945800,"begin_at":0,"end_at":0,"name":"Atbara Airport","city":"Atbara","country":"SD","runway_length":0,"runway_show":0,"points":"","url":"","address":"","is_web":0},{"area_id":5090,"type":0,"shape":0,"lat":15.590287,"lng":32.552229,"radius":2243,"level":2,"updated_at":1447945800,"begin_at":0,"end_at":0,"name":"Khartoum International Airport","city":"Khartoum","country":"SD","runway_length":0,"runway_show":0,"points":"","url":"","address":"","is_web":0},{"area_id":5108,"type":0,"shape":0,"lat":15.386241,"lng":36.328104,"radius":1425,"level":2,"updated_at":1447945800,"begin_at":0,"end_at":0,"name":"Kassala Airport","city":"Kassala","country":"SD","runway_length":0,"runway_show":0,"points":"","url":"","address":"","is_web":0},{"area_id":2234,"type":0,"shape":0,"lat":14.925634,"lng":35.876673,"radius":1295,"level":2,"updated_at":1447945800,"begin_at":0,"end_at":0,"name":"Khashm El Girba Airport","city":"Khashm El Girba","country":"SD","runway_length":0,"runway_show":0,"points":"","url":"","address":"","is_web":0},{"area_id":100,"type":0,"shape":0,"lat":13.614722,"lng":25.324444,"radius":1725,"level":2,"updated_at":1447945800,"begin_at":0,"end_at":0,"name":"El Fasher Airport","city":"El Fasher","country":"SD","runway_length":0,"runway_show":0,"points":"","url":"","address":"","is_web":0},{"area_id":65,"type":0,"shape":0,"lat":13.481987,"lng":22.466379,"radius":1098,"level":2,"updated_at":1447945800,"begin_at":0,"end_at":0,"name":"Geneina Airport","city":"Geneina","country":"SD","runway_length":0,"runway_show":0,"points":"","url":"","address":"","is_web":0},{"area_id":13,"type":0,"shape":0,"lat":13.151657,"lng":30.231586,"radius":2198,"level":2,"updated_at":1447945800,"begin_at":0,"end_at":0,"name":"El Obeid Airport","city":"Al-Ubayyid","country":"SD","runway_length":0,"runway_show":0,"points":"","url":"","address":"","is_web":0},{"area_id":4386,"type":0,"shape":0,"lat":12.703389,"lng":28.43659,"radius":402,"level":2,"updated_at":1447945800,"begin_at":0,"end_at":0,"name":"En Nahud Airport","city":"En Nahud","country":"SD","runway_length":0,"runway_show":0,"points":"","url":"","address":"","is_web":0},{"area_id":7038,"type":0,"shape":0,"lat":12.0546,"lng":24.955395,"radius":1800,"level":2,"updated_at":1447945800,"begin_at":0,"end_at":0,"name":"Nyala Airport","city":"Nyala","country":"SD","runway_length":0,"runway_show":0,"points":"","url":"","address":"","is_web":0},{"area_id":5490,"type":0,"shape":0,"lat":11.785195,"lng":34.336692,"radius":1690,"level":2,"updated_at":1447945800,"begin_at":0,"end_at":0,"name":"Damazin Airport","city":"Ad Damazin","country":"SD","runway_length":0,"runway_show":0,"points":"","url":"","address":"","is_web":0},{"area_id":4821,"type":0,"shape":0,"lat":11.137747,"lng":29.699811,"radius":1646,"level":2,"updated_at":1447945800,"begin_at":0,"end_at":0,"name":"Kadugli Airport","city":"Kadugli","country":"SD","runway_length":0,"runway_show":0,"points":"","url":"","address":"","is_web":0},{"area_id":1389,"type":0,"shape":0,"lat":9.994933,"lng":29.397653,"radius":1144,"level":2,"updated_at":1447945800,"begin_at":0,"end_at":0,"name":"Heglig Airport","city":"Heglig Oilfield","country":"SD","runway_length":0,"runway_show":0,"points":"","url":"","address":"","is_web":0}],"status":"200"}