{"data":[{"area_id":5084,"type":0,"shape":0,"lat":67.821111,"lng":20.335556,"radius":1788,"level":2,"updated_at":1447945800,"begin_at":0,"end_at":0,"name":"Kiruna Airport","city":"","country":"SE","runway_length":0,"runway_show":0,"points":"","url":"","address":"","is_web":0},{"area_id":5894,"type":0,"shape":0,"lat":67.245767,"lng":23.068747,"radius":1889,"level":2,"updated_at":1447945800,"begin_at":0,"end_at":0,"name":"Pajala Airport","city":"","country":"SE","runway_length":0,"runway_show":0,"points":"","url":"","address":"","is_web":0},{"area_id":2282,"type":0,"shape":0,"lat":67.132842,"lng":20.815279,"radius":1154,"level":2,"updated_at":1447945800,"begin_at":0,"end_at":0,"name":"Gällivare Airport","city":"Gällivare","country":"SE","runway_length":0,"runway_show":0,"points":"","url":"","address":"","is_web":0},{"area_id":1495,"type":0,"shape":0,"lat":65.806111,"lng":15.082778,"radius":961,"level":2,"updated_at":1447945800,"begin_at":0,"end_at":0,"name":"Hemavan Airport","city":"","country":"SE","runway_length":0,"runway_show":0,"points":"","url":"","address":"","is_web":0},{"area_id":991,"type":0,"shape":0,"lat":65.591129,"lng":19.277822,"radius":1679,"level":2,"updated_at":1447945800,"begin_at":0,"end_at":0,"name":"Arvidsjaur Airport","city":"Arvidsjaur","country":"SE","runway_length":0,"runway_show":0,"points":"","url":"","address":"","is_web":0},{"area_id":3864,"type":0,"shape":0,"lat":65.543402,"lng":22.120825,"radius":2170,"level":2,"updated_at":1447945800,"begin_at":0,"end_at":0,"name":"Luleå Airport","city":"Luleå","country":"SE","runway_length":0,"runway_show":0,"points":"","url":"","address":"","is_web":0},{"area_id":8499,"type":0,"shape":0,"lat":64.960792,"lng":17.696732,"radius":1378,"level":2,"updated_at":1447945800,"begin_at":0,"end_at":0,"name":"Storuman Airport","city":"","country":"SE","runway_length":0,"runway_show":0,"points":"","url":"","address":"","is_web":0},{"area_id":8242,"type":0,"shape":0,"lat":64.624722,"lng":21.076944,"radius":1869,"level":2,"updated_at":1447945800,"begin_at":0,"end_at":0,"name":"Skellefteå Airport","city":"Skellefteå","country":"SE","runway_length":0,"runway_show":0,"points":"","url":"","address":"","is_web":0},{"area_id":7111,"type":0,"shape":0,"lat":64.578611,"lng":16.839722,"radius":1609,"level":2,"updated_at":1447945800,"begin_at":0,"end_at":0,"name":"Vilhelmina Airport","city":"","country":"SE","runway_length":0,"runway_show":0,"points":"","url":"","address":"","is_web":0},{"area_id":4091,"type":0,"shape":0,"lat":64.548533,"lng":18.716403,"radius":1496,"level":2,"updated_at":1447945800,"begin_at":0,"end_at":0,"name":"Lycksele Airport","city":"","country":"SE","runway_length":0,"runway_show":0,"points":"","url":"","address":"","is_web":0},{"area_id":6949,"type":0,"shape":0,"lat":63.793015,"lng":20.28928,"radius":1508,"level":2,"updated_at":1447945800,"begin_at":0,"end_at":0,"name":"Umeå Airport","city":"Umeå","country":"SE","runway_length":0,"runway_show":0,"points":"","url":"","address":"","is_web":0},{"area_id":4489,"type":0,"shape":0,"lat":63.409161,"lng":18.989408,"radius":1623,"level":2,"updated_at":1447945800,"begin_at":0,"end_at":0,"name":"Örnsköldsvik Airport","city":"Örnsköldsvik","country":"SE","runway_length":0,"runway_show":0,"points":"","url":"","address":"","is_web":0},{"area_id":4637,"type":0,"shape":0,"lat":63.192187,"lng":14.506802,"radius":1746,"level":2,"updated_at":1447945800,"begin_at":0,"end_at":0,"name":"Östersund Airport","city":"Östersund","country":"SE","runway_length":0,"runway_show":0,"points":"","url":"","address":"","is_web":0},{"area_id":5076,"type":0,"shape":0,"lat":63.047651,"lng":17.769064,"radius":1399,"level":2,"updated_at":1447945800,"begin_at":0,"end_at":0,"name":"Kramfors Sollefteå Airport","city":"Kramfors / Sollefteå","country":"SE","runway_length":0,"runway_show":0,"points":"","url":"","address":"","is_web":0},{"area_id":2795,"type":0,"shape":0,"lat":61.869568,"lng":12.689622,"radius":956,"level":2,"updated_at":1447945800,"begin_at":0,"end_at":0,"name":"Idre Airport","city":"Idre","country":"SE","runway_length":0,"runway_show":0,"points":"","url":"","address":"","is_web":0},{"area_id":1601,"type":0,"shape":0,"lat":61.768109,"lng":17.081646,"radius":791,"level":2,"updated_at":1447945800,"begin_at":0,"end_at":0,"name":"Hudiksvall Airport","city":"Hudiksvall","country":"SE","runway_length":0,"runway_show":0,"points":"","url":"","address":"","is_web":0},{"area_id":8458,"type":0,"shape":0,"lat":61.260839,"lng":17.100291,"radius":1418,"level":2,"updated_at":1447945800,"begin_at":0,"end_at":0,"name":"Söderhamn Airport","city":"Söderhamn","country":"SE","runway_length":0,"runway_show":0,"points":"","url":"","address":"","is_web":0},{"area_id":6791,"type":0,"shape":0,"lat":60.958558,"lng":14.509741,"radius":1222,"level":2,"updated_at":1447945800,"begin_at":0,"end_at":0,"name":"Mora Airport","city":"","country":"SE","runway_length":0,"runway_show":0,"points":"","url":"","address":"","is_web":0},{"area_id":2534,"type":0,"shape":0,"lat":60.592475,"lng":16.951632,"radius":1244,"level":2,"updated_at":1447945800,"begin_at":0,"end_at":0,"name":"Gävle Sandviken Airport","city":"Gävle / Sandviken","country":"SE","runway_length":0,"runway_show":0,"points":"","url":"","address":"","is_web":0},{"area_id":3309,"type":0,"shape":0,"lat":60.422611,"lng":15.514089,"radius":1411,"level":2,"updated_at":1447945800,"begin_at":0,"end_at":0,"name":"Borlange Airport","city":"","country":"SE","runway_length":0,"runway_show":0,"points":"","url":"","address":"","is_web":0},{"area_id":7851,"type":0,"shape":0,"lat":60.240048,"lng":15.982812,"radius":332,"level":2,"updated_at":1474298245,"begin_at":0,"end_at":0,"name":"Hedemora Airport","city":"Hedemora","country":"SE","runway_length":0,"runway_show":0,"points":"","url":"","address":"","is_web":0},{"area_id":7708,"type":0,"shape":0,"lat":60.15713,"lng":12.991085,"radius":927,"level":2,"updated_at":1447945800,"begin_at":0,"end_at":0,"name":"Torsby Airport","city":"","country":"SE","runway_length":0,"runway_show":0,"points":"","url":"","address":"","is_web":0},{"area_id":1409,"type":0,"shape":0,"lat":60.019473,"lng":13.579809,"radius":911,"level":2,"updated_at":1447945800,"begin_at":0,"end_at":0,"name":"Hagfors Airport","city":"","country":"SE","runway_length":0,"runway_show":0,"points":"","url":"","address":"","is_web":0},{"area_id":1163,"type":0,"shape":0,"lat":59.651062,"lng":17.941463,"radius":3194,"level":2,"updated_at":1447945800,"begin_at":0,"end_at":0,"name":"Stockholm-Arlanda Airport","city":"Stockholm","country":"SE","runway_length":0,"runway_show":0,"points":"","url":"","address":"","is_web":0},{"area_id":7206,"type":0,"shape":0,"lat":59.588694,"lng":16.630902,"radius":1584,"level":2,"updated_at":1447945800,"begin_at":0,"end_at":0,"name":"Stockholm Västerås Airport","city":"Stockholm / Västerås","country":"SE","runway_length":0,"runway_show":0,"points":"","url":"","address":"","is_web":0},{"area_id":5100,"type":0,"shape":0,"lat":59.442277,"lng":13.334701,"radius":2072,"level":2,"updated_at":1447945800,"begin_at":0,"end_at":0,"name":"Karlstad Airport","city":"Karlstad","country":"SE","runway_length":0,"runway_show":0,"points":"","url":"","address":"","is_web":0},{"area_id":31630,"type":1,"shape":0,"lat":59.3725,"lng":18,"radius":500,"level":2,"updated_at":1447945800,"begin_at":0,"end_at":0,"name":"Friends Arena","city":"Stockholm","country":"SE","runway_length":0,"runway_show":0,"points":"","url":"","address":"","is_web":0},{"area_id":8409,"type":0,"shape":0,"lat":59.354462,"lng":17.941353,"radius":1023,"level":2,"updated_at":1447945800,"begin_at":0,"end_at":0,"name":"Bromma Stockholm Airport","city":"Stockholm","country":"SE","runway_length":0,"runway_show":0,"points":"","url":"","address":"","is_web":0},{"area_id":31733,"type":1,"shape":0,"lat":59.29081,"lng":18.08534,"radius":500,"level":2,"updated_at":1447945800,"begin_at":0,"end_at":0,"name":"Tele2 Arena","city":"Stockholm","country":"SE","runway_length":0,"runway_show":0,"points":"","url":"","address":"","is_web":0},{"area_id":4611,"type":0,"shape":0,"lat":59.222962,"lng":15.037423,"radius":1493,"level":2,"updated_at":1447945800,"begin_at":0,"end_at":0,"name":"Örebro Airport","city":"Örebro","country":"SE","runway_length":0,"runway_show":0,"points":"","url":"","address":"","is_web":0},{"area_id":7848,"type":0,"shape":0,"lat":58.790176,"lng":16.906872,"radius":1768,"level":2,"updated_at":1447945800,"begin_at":0,"end_at":0,"name":"Stockholm Skavsta Airport","city":"Nykoping","country":"SE","runway_length":0,"runway_show":0,"points":"","url":"","address":"","is_web":0},{"area_id":4348,"type":0,"shape":0,"lat":58.585765,"lng":16.248892,"radius":1505,"level":2,"updated_at":1447945800,"begin_at":0,"end_at":0,"name":"Norrköping Airport","city":"Norrköping","country":"SE","runway_length":0,"runway_show":0,"points":"","url":"","address":"","is_web":0},{"area_id":3731,"type":0,"shape":0,"lat":58.466799,"lng":13.174899,"radius":1434,"level":2,"updated_at":1447945800,"begin_at":0,"end_at":0,"name":"Lidköping-Hovby Airport","city":"Lidköping","country":"SE","runway_length":0,"runway_show":0,"points":"","url":"","address":"","is_web":0},{"area_id":5171,"type":0,"shape":0,"lat":58.455843,"lng":13.973049,"radius":1144,"level":2,"updated_at":1447945800,"begin_at":0,"end_at":0,"name":"Skövde Airport","city":"Skövde","country":"SE","runway_length":0,"runway_show":0,"points":"","url":"","address":"","is_web":0},{"area_id":3952,"type":0,"shape":0,"lat":58.407219,"lng":15.673744,"radius":1421,"level":2,"updated_at":1447945800,"begin_at":0,"end_at":0,"name":"Linköping City Airport","city":"Linköping","country":"SE","runway_length":0,"runway_show":0,"points":"","url":"","address":"","is_web":0},{"area_id":9813,"type":0,"shape":0,"lat":58.396721,"lng":15.530804,"radius":1642,"level":2,"updated_at":1447945800,"begin_at":0,"end_at":0,"name":"Malmen Airbase","city":"NULL","country":"SE","runway_length":0,"runway_show":0,"points":"","url":"","address":"","is_web":0},{"area_id":7392,"type":0,"shape":0,"lat":58.318152,"lng":12.344407,"radius":938,"level":2,"updated_at":1447945800,"begin_at":0,"end_at":0,"name":"Trollhättan-Vänersborg Airport","city":"Trollhättan","country":"SE","runway_length":0,"runway_show":0,"points":"","url":"","address":"","is_web":0},{"area_id":2469,"type":0,"shape":0,"lat":57.775849,"lng":11.872527,"radius":1162,"level":2,"updated_at":1447945800,"begin_at":0,"end_at":0,"name":"Gothenburg City Airport","city":"Gothenburg","country":"SE","runway_length":0,"runway_show":0,"points":"","url":"","address":"","is_web":0},{"area_id":2663,"type":0,"shape":0,"lat":57.758104,"lng":14.069165,"radius":1318,"level":2,"updated_at":1447945800,"begin_at":0,"end_at":0,"name":"Jönköping Airport","city":"Jönköping","country":"SE","runway_length":0,"runway_show":0,"points":"","url":"","address":"","is_web":0},{"area_id":31671,"type":1,"shape":0,"lat":57.705833,"lng":11.987222,"radius":500,"level":2,"updated_at":1447945800,"begin_at":0,"end_at":0,"name":"Ullevi","city":"Goteborg","country":"SE","runway_length":0,"runway_show":0,"points":"","url":"","address":"","is_web":0},{"area_id":2426,"type":0,"shape":0,"lat":57.663658,"lng":12.283733,"radius":1970,"level":2,"updated_at":1447945800,"begin_at":0,"end_at":0,"name":"Gothenburg-Landvetter Airport","city":"Gothenburg","country":"SE","runway_length":0,"runway_show":0,"points":"","url":"","address":"","is_web":0},{"area_id":7067,"type":0,"shape":0,"lat":57.660418,"lng":18.343752,"radius":1693,"level":2,"updated_at":1447945800,"begin_at":0,"end_at":0,"name":"Visby Airport","city":"Visby","country":"SE","runway_length":0,"runway_show":0,"points":"","url":"","address":"","is_web":0},{"area_id":1467,"type":0,"shape":0,"lat":57.526053,"lng":15.822173,"radius":1423,"level":2,"updated_at":1447945800,"begin_at":0,"end_at":0,"name":"Hultsfred Airport","city":"","country":"SE","runway_length":0,"runway_show":0,"points":"","url":"","address":"","is_web":0},{"area_id":4642,"type":0,"shape":0,"lat":57.348795,"lng":16.497129,"radius":1022,"level":2,"updated_at":1447945800,"begin_at":0,"end_at":0,"name":"Oskarshamn Airport","city":"","country":"SE","runway_length":0,"runway_show":0,"points":"","url":"","address":"","is_web":0},{"area_id":7229,"type":0,"shape":0,"lat":56.929634,"lng":14.727071,"radius":1367,"level":2,"updated_at":1447945800,"begin_at":0,"end_at":0,"name":"Växjö Kronoberg Airport","city":"Växjö","country":"SE","runway_length":0,"runway_show":0,"points":"","url":"","address":"","is_web":0},{"area_id":1330,"type":0,"shape":0,"lat":56.692058,"lng":12.819655,"radius":1443,"level":2,"updated_at":1447945800,"begin_at":0,"end_at":0,"name":"Halmstad Airport","city":"Halmstad","country":"SE","runway_length":0,"runway_show":0,"points":"","url":"","address":"","is_web":0},{"area_id":4961,"type":0,"shape":0,"lat":56.687085,"lng":16.281892,"radius":1427,"level":2,"updated_at":1447945800,"begin_at":0,"end_at":0,"name":"Kalmar Airport","city":"","country":"SE","runway_length":0,"runway_show":0,"points":"","url":"","address":"","is_web":0},{"area_id":924,"type":0,"shape":0,"lat":56.297356,"lng":12.860646,"radius":1653,"level":2,"updated_at":1447945800,"begin_at":0,"end_at":0,"name":"Ängelholm-Helsingborg Airport","city":"Ängelholm","country":"SE","runway_length":0,"runway_show":0,"points":"","url":"","address":"","is_web":0},{"area_id":5422,"type":0,"shape":0,"lat":56.266721,"lng":15.265651,"radius":1453,"level":2,"updated_at":1447945800,"begin_at":0,"end_at":0,"name":"Ronneby Airport","city":"","country":"SE","runway_length":0,"runway_show":0,"points":"","url":"","address":"","is_web":0},{"area_id":7846,"type":0,"shape":0,"lat":56.133673,"lng":13.875694,"radius":611,"level":2,"updated_at":1447945800,"begin_at":0,"end_at":0,"name":"Hässleholm Bokeberg Airport","city":"Hässleholm","country":"SE","runway_length":0,"runway_show":0,"points":"","url":"","address":"","is_web":0},{"area_id":9815,"type":0,"shape":0,"lat":56.084647,"lng":13.204861,"radius":1865,"level":2,"updated_at":1447945800,"begin_at":0,"end_at":0,"name":"Ljungbyheds flygplats","city":"NULL","country":"SE","runway_length":0,"runway_show":0,"points":"","url":"","address":"","is_web":0},{"area_id":4898,"type":0,"shape":0,"lat":55.921614,"lng":14.085619,"radius":1235,"level":2,"updated_at":1447945800,"begin_at":0,"end_at":0,"name":"Kristianstad Airport","city":"Kristianstad","country":"SE","runway_length":0,"runway_show":0,"points":"","url":"","address":"","is_web":0},{"area_id":31799,"type":1,"shape":0,"lat":55.586081,"lng":12.989267,"radius":500,"level":2,"updated_at":1447945800,"begin_at":0,"end_at":0,"name":"Malmo Stadion","city":"Malmo","country":"SE","runway_length":0,"runway_show":0,"points":"","url":"","address":"","is_web":0},{"area_id":6521,"type":0,"shape":0,"lat":55.536117,"lng":13.373838,"radius":1808,"level":2,"updated_at":1447945800,"begin_at":0,"end_at":0,"name":"Malmö Sturup Airport","city":"Malmö","country":"SE","runway_length":0,"runway_show":0,"points":"","url":"","address":"","is_web":0}],"status":"200"}