{"data":[{"area_id":474,"type":0,"shape":0,"lat":17.917199,"lng":19.111455,"radius":1827,"level":2,"updated_at":1447945800,"begin_at":0,"end_at":0,"name":"Faya Airport","city":"Faya-Largeau","country":"TD","runway_length":0,"runway_show":0,"points":"","url":"","address":"","is_web":0},{"area_id":891,"type":0,"shape":0,"lat":13.847808,"lng":20.843471,"radius":1593,"level":2,"updated_at":1447945800,"begin_at":0,"end_at":0,"name":"Abeche Airport","city":"","country":"TD","runway_length":0,"runway_show":0,"points":"","url":"","address":"","is_web":0},{"area_id":4179,"type":0,"shape":0,"lat":12.135517,"lng":15.034728,"radius":2257,"level":2,"updated_at":1447945800,"begin_at":0,"end_at":0,"name":"N'Djamena International Airport","city":"N'Djamena","country":"TD","runway_length":0,"runway_show":0,"points":"","url":"","address":"","is_web":0},{"area_id":1048,"type":0,"shape":0,"lat":11.035608,"lng":20.275027,"radius":1047,"level":2,"updated_at":1447945800,"begin_at":0,"end_at":0,"name":"Am Timan Airport","city":"Am Timan","country":"TD","runway_length":0,"runway_show":0,"points":"","url":"","address":"","is_web":0},{"area_id":1007,"type":0,"shape":0,"lat":10.891677,"lng":19.81792,"radius":888,"level":2,"updated_at":1447945800,"begin_at":0,"end_at":0,"name":"Zakuoma Airport","city":"ZaKouma","country":"TD","runway_length":0,"runway_show":0,"points":"","url":"","address":"","is_web":0},{"area_id":6611,"type":0,"shape":0,"lat":8.628237,"lng":16.073947,"radius":1838,"level":2,"updated_at":1447945800,"begin_at":0,"end_at":0,"name":"Moundou Airport","city":"","country":"TD","runway_length":0,"runway_show":0,"points":"","url":"","address":"","is_web":0}],"status":"200"}