{"data":[{"area_id":3679,"type":0,"shape":0,"lat":40.215,"lng":69.696667,"radius":1683,"level":2,"updated_at":1447945800,"begin_at":0,"end_at":0,"name":"Khudzhand Airport","city":"Khudzhand","country":"TJ","runway_length":0,"runway_show":0,"points":"","url":"","address":"","is_web":0},{"area_id":778,"type":0,"shape":0,"lat":38.546807,"lng":68.82294,"radius":2095,"level":2,"updated_at":1447945800,"begin_at":0,"end_at":0,"name":"Dushanbe Airport","city":"Dushanbe","country":"TJ","runway_length":0,"runway_show":0,"points":"","url":"","address":"","is_web":0},{"area_id":10133,"type":0,"shape":0,"lat":38.512222,"lng":68.672501,"radius":1864,"level":2,"updated_at":1447945800,"begin_at":0,"end_at":0,"name":"Ayni Air Base","city":"Dushanbe","country":"TJ","runway_length":0,"runway_show":0,"points":"","url":"","address":"","is_web":0},{"area_id":7439,"type":0,"shape":0,"lat":37.988018,"lng":69.805071,"radius":1659,"level":2,"updated_at":1447945800,"begin_at":0,"end_at":0,"name":"Kulob Airport","city":"Kulyab","country":"TJ","runway_length":0,"runway_show":0,"points":"","url":"","address":"","is_web":0},{"area_id":5070,"type":0,"shape":0,"lat":37.86639,"lng":68.864441,"radius":1223,"level":2,"updated_at":1447945800,"begin_at":0,"end_at":0,"name":"Qurghonteppa International Airport","city":"Kurgan-Tyube","country":"TJ","runway_length":0,"runway_show":0,"points":"","url":"","address":"","is_web":0},{"area_id":10134,"type":0,"shape":0,"lat":37.471,"lng":69.381346,"radius":608,"level":2,"updated_at":1447945800,"begin_at":0,"end_at":0,"name":"Farkhor Air Base","city":"Parkhar","country":"TJ","runway_length":0,"runway_show":0,"points":"","url":"","address":"","is_web":0}],"status":"200"}