{"data":[{"area_id":3305,"type":0,"shape":0,"lat":-1.330718,"lng":31.819607,"radius":763,"level":2,"updated_at":1447945800,"begin_at":0,"end_at":0,"name":"Bukoba Airport","city":"Bukoba","country":"TZ","runway_length":0,"runway_show":0,"points":"","url":"","address":"","is_web":0},{"area_id":6719,"type":0,"shape":0,"lat":-1.502257,"lng":33.801543,"radius":940,"level":2,"updated_at":1447945800,"begin_at":0,"end_at":0,"name":"Musoma Airport","city":"Musoma","country":"TZ","runway_length":0,"runway_show":0,"points":"","url":"","address":"","is_web":0},{"area_id":6768,"type":0,"shape":0,"lat":-2.445509,"lng":32.934215,"radius":1990,"level":2,"updated_at":1447945800,"begin_at":0,"end_at":0,"name":"Mwanza Airport","city":"Mwanza","country":"TZ","runway_length":0,"runway_show":0,"points":"","url":"","address":"","is_web":0},{"area_id":5671,"type":0,"shape":0,"lat":-3.360465,"lng":37.328228,"radius":1020,"level":2,"updated_at":1447945800,"begin_at":0,"end_at":0,"name":"Moshi Airport","city":"Moshi","country":"TZ","runway_length":0,"runway_show":0,"points":"","url":"","address":"","is_web":0},{"area_id":1160,"type":0,"shape":0,"lat":-3.367249,"lng":36.626073,"radius":939,"level":2,"updated_at":1447945800,"begin_at":0,"end_at":0,"name":"Arusha Airport","city":"Arusha","country":"TZ","runway_length":0,"runway_show":0,"points":"","url":"","address":"","is_web":0},{"area_id":3862,"type":0,"shape":0,"lat":-3.375552,"lng":35.818117,"radius":791,"level":2,"updated_at":1447945800,"begin_at":0,"end_at":0,"name":"Lake Manyara Airport","city":"Lake Manyara National Park","country":"TZ","runway_length":0,"runway_show":0,"points":"","url":"","address":"","is_web":0},{"area_id":2720,"type":0,"shape":0,"lat":-3.429253,"lng":37.075991,"radius":2274,"level":2,"updated_at":1447945800,"begin_at":0,"end_at":0,"name":"Kilimanjaro International Airport","city":"Arusha","country":"TZ","runway_length":0,"runway_show":0,"points":"","url":"","address":"","is_web":0},{"area_id":8296,"type":0,"shape":0,"lat":-3.609339,"lng":33.503658,"radius":1187,"level":2,"updated_at":1447945800,"begin_at":0,"end_at":0,"name":"Shinyanga Airport","city":"Shinyanga","country":"TZ","runway_length":0,"runway_show":0,"points":"","url":"","address":"","is_web":0},{"area_id":7457,"type":0,"shape":0,"lat":-4.886937,"lng":29.671175,"radius":1313,"level":2,"updated_at":1447945800,"begin_at":0,"end_at":0,"name":"Kigoma Airport","city":"Kigoma","country":"TZ","runway_length":0,"runway_show":0,"points":"","url":"","address":"","is_web":0},{"area_id":7272,"type":0,"shape":0,"lat":-5.078461,"lng":32.834142,"radius":1289,"level":2,"updated_at":1447945800,"begin_at":0,"end_at":0,"name":"Tabora Airport","city":"Tabora","country":"TZ","runway_length":0,"runway_show":0,"points":"","url":"","address":"","is_web":0},{"area_id":7376,"type":0,"shape":0,"lat":-5.091914,"lng":39.071154,"radius":725,"level":2,"updated_at":1447945800,"begin_at":0,"end_at":0,"name":"Tanga Airport","city":"Tanga","country":"TZ","runway_length":0,"runway_show":0,"points":"","url":"","address":"","is_web":0},{"area_id":31586,"type":0,"shape":0,"lat":-5.259427,"lng":39.811535,"radius":1309,"level":2,"updated_at":1447945800,"begin_at":0,"end_at":0,"name":"Karume Airport","city":"Pemba South","country":"TZ","runway_length":0,"runway_show":0,"points":"{\"gcj\":[\"-5.2594267792627,39.811534881592\"],\"wgs\":[\"-5.2594267792627,39.811534881592\"]}","url":"","address":"","is_web":0},{"area_id":667,"type":0,"shape":0,"lat":-6.169651,"lng":35.752242,"radius":1173,"level":2,"updated_at":1447945800,"begin_at":0,"end_at":0,"name":"Dodoma Airport","city":"Dodoma","country":"TZ","runway_length":0,"runway_show":0,"points":"","url":"","address":"","is_web":0},{"area_id":8805,"type":0,"shape":0,"lat":-6.226781,"lng":39.225805,"radius":2323,"level":2,"updated_at":1447945800,"begin_at":0,"end_at":0,"name":"Abeid Amani Karume International Airport","city":"Zanzibar Town","country":"TZ","runway_length":0,"runway_show":0,"points":"","url":"","address":"","is_web":0},{"area_id":495,"type":0,"shape":0,"lat":-6.874755,"lng":39.206232,"radius":2364,"level":2,"updated_at":1447945800,"begin_at":0,"end_at":0,"name":"Julius Nyerere International Airport","city":"Dar es Salaam","country":"TZ","runway_length":0,"runway_show":0,"points":"","url":"","address":"","is_web":0},{"area_id":2942,"type":0,"shape":0,"lat":-7.667649,"lng":35.752993,"radius":1113,"level":2,"updated_at":1447945800,"begin_at":0,"end_at":0,"name":"Iringa Airport","city":"Nduli","country":"TZ","runway_length":0,"runway_show":0,"points":"","url":"","address":"","is_web":0},{"area_id":8599,"type":0,"shape":0,"lat":-7.948523,"lng":31.610535,"radius":828,"level":2,"updated_at":1447945800,"begin_at":0,"end_at":0,"name":"Sumbawanga Airport","city":"Sumbawanga","country":"TZ","runway_length":0,"runway_show":0,"points":"","url":"","address":"","is_web":0},{"area_id":4906,"type":0,"shape":0,"lat":-8.910252,"lng":39.508426,"radius":1072,"level":2,"updated_at":1447945800,"begin_at":0,"end_at":0,"name":"Kilwa Masoko Airport","city":"Kilwa","country":"TZ","runway_length":0,"runway_show":0,"points":"","url":"","address":"","is_web":0},{"area_id":6236,"type":0,"shape":0,"lat":-8.919991,"lng":33.464628,"radius":1034,"level":2,"updated_at":1447945800,"begin_at":0,"end_at":0,"name":"Mbeya Airport","city":"Mbeya","country":"TZ","runway_length":0,"runway_show":0,"points":"","url":"","address":"","is_web":0},{"area_id":3729,"type":0,"shape":0,"lat":-9.850668,"lng":39.758413,"radius":1083,"level":2,"updated_at":1447945800,"begin_at":0,"end_at":0,"name":"Kikwetu Airport","city":"Lindi","country":"TZ","runway_length":0,"runway_show":0,"points":"","url":"","address":"","is_web":0},{"area_id":6815,"type":0,"shape":0,"lat":-10.33932,"lng":40.181347,"radius":1354,"level":2,"updated_at":1447945800,"begin_at":0,"end_at":0,"name":"Mtwara Airport","city":"Mtwara","country":"TZ","runway_length":0,"runway_show":0,"points":"","url":"","address":"","is_web":0},{"area_id":4160,"type":0,"shape":0,"lat":-10.357508,"lng":38.779324,"radius":1176,"level":2,"updated_at":1447945800,"begin_at":0,"end_at":0,"name":"Nachingwea Airport","city":"Nachingwea","country":"TZ","runway_length":0,"runway_show":0,"points":"","url":"","address":"","is_web":0},{"area_id":8270,"type":0,"shape":0,"lat":-10.682237,"lng":35.58282,"radius":1052,"level":2,"updated_at":1447945800,"begin_at":0,"end_at":0,"name":"Songea Airport","city":"Songea","country":"TZ","runway_length":0,"runway_show":0,"points":"","url":"","address":"","is_web":0},{"area_id":7798,"type":0,"shape":0,"lat":-10.73802,"lng":38.771355,"radius":848,"level":2,"updated_at":1447945800,"begin_at":0,"end_at":0,"name":"Masasi Airport","city":"Masasi","country":"TZ","runway_length":0,"runway_show":0,"points":"","url":"","address":"","is_web":0}],"status":"200"}