{"data":[{"area_id":8683,"type":0,"shape":0,"lat":16.966895,"lng":43.728615,"radius":1635,"level":2,"updated_at":1447945800,"begin_at":0,"end_at":0,"name":"Sadah Airport","city":"Sadah","country":"YE","runway_length":0,"runway_show":0,"points":"","url":"","address":"","is_web":0},{"area_id":8110,"type":0,"shape":0,"lat":15.479167,"lng":44.219723,"radius":3252,"level":2,"updated_at":1447945800,"begin_at":0,"end_at":0,"name":"Sana'a International Airport","city":"Sana'a","country":"YE","runway_length":0,"runway_show":0,"points":"","url":"","address":"","is_web":0},{"area_id":6807,"type":0,"shape":0,"lat":15.469436,"lng":45.327069,"radius":1366,"level":2,"updated_at":1447945800,"begin_at":0,"end_at":0,"name":"Mareb Airport","city":"Mareb","country":"YE","runway_length":0,"runway_show":0,"points":"","url":"","address":"","is_web":0},{"area_id":3218,"type":0,"shape":0,"lat":14.78276,"lng":45.719917,"radius":1079,"level":2,"updated_at":1447945800,"begin_at":0,"end_at":0,"name":"Beihan Airport","city":"","country":"YE","runway_length":0,"runway_show":0,"points":"","url":"","address":"","is_web":0},{"area_id":1513,"type":0,"shape":0,"lat":14.753015,"lng":42.976375,"radius":1587,"level":2,"updated_at":1447945800,"begin_at":0,"end_at":0,"name":"Hodeidah International Airport","city":"Hodeida","country":"YE","runway_length":0,"runway_show":0,"points":"","url":"","address":"","is_web":0},{"area_id":1283,"type":0,"shape":0,"lat":14.551274,"lng":46.825909,"radius":1445,"level":2,"updated_at":1447945800,"begin_at":0,"end_at":0,"name":"Ataq Airport","city":"","country":"YE","runway_length":0,"runway_show":0,"points":"","url":"","address":"","is_web":0},{"area_id":6918,"type":0,"shape":0,"lat":13.937085,"lng":45.656596,"radius":976,"level":2,"updated_at":1447945800,"begin_at":0,"end_at":0,"name":"Mukeiras Airport","city":"Mukeiras","country":"YE","runway_length":0,"runway_show":0,"points":"","url":"","address":"","is_web":0},{"area_id":7240,"type":0,"shape":0,"lat":13.686375,"lng":44.138975,"radius":1603,"level":2,"updated_at":1447945800,"begin_at":0,"end_at":0,"name":"Ta'izz International Airport","city":"Ta'izz","country":"YE","runway_length":0,"runway_show":0,"points":"","url":"","address":"","is_web":0},{"area_id":864,"type":0,"shape":0,"lat":12.829464,"lng":45.028868,"radius":1562,"level":2,"updated_at":1447945800,"begin_at":0,"end_at":0,"name":"Aden International Airport","city":"'Adan","country":"YE","runway_length":0,"runway_show":0,"points":"","url":"","address":"","is_web":0}],"status":"200"}